timestamp,TimeUS,I,GyrX,GyrY,GyrZ,AccX,AccY,AccZ,EG,EA,T,GH,AH,GHz,AHz
24.97149100,24971491,1,-0.0025544241070747375,-0.001999468309804797,0.0012388202594593167,-0.39462265372276306,-0.2334219068288803,-9.995680809020996,3,1,44.0,0,0,1992,1902
24.97302700,24973027,1,-0.002554423175752163,-0.001999468309804797,0.001238820725120604,-0.39462265372276306,-0.2334219068288803,-9.995680809020996,3,1,44.0,0,0,1992,1902
24.97556600,24975566,1,-0.0025544248055666685,-0.0019994669128209352,0.0012388208415359259,-0.39462265372276306,-0.2334219068288803,-9.995680809020996,3,1,44.0,0,0,1992,1902
24.97802300,24978023,1,-0.0025544229429215193,-0.001999469008296728,0.001238820143043995,-0.39462265372276306,-0.2334219068288803,-9.995680809020996,3,1,44.0,0,0,1992,1902
24.98085800,24980858,1,-0.002554424572736025,-0.001999467145651579,0.0012388209579512477,-0.39462265372276306,-0.2334219068288803,-9.995680809020996,3,1,44.0,0,0,1992,1902
24.98299000,24982990,1,-0.0025544236414134502,-0.0019994687754660845,0.001238820143043995,-0.39462265372276306,-0.2334219068288803,-9.995680809020996,3,1,44.0,0,0,1992,1902
24.98554800,24985548,1,-0.0025544236414134502,-0.001999467611312866,0.0012388209579512477,-0.39462265372276306,-0.2334219068288803,-9.995680809020996,3,1,44.0,0,0,1992,1902
24.98802100,24988021,1,-0.002554424572736025,-0.00199946784414351,0.0012388203758746386,-0.39462265372276306,-0.2334219068288803,-9.995680809020996,3,1,44.0,0,0,1992,1902
24.99052900,24990529,1,-0.0025544229429215193,-0.0019994687754660845,0.0012388203758746386,-0.39462265372276306,-0.2334219068288803,-9.995680809020996,3,1,44.0,0,0,1992,1902
24.99337200,24993372,1,-0.0025544248055666685,-0.0019994669128209352,0.0012388208415359259,-0.39462265372276306,-0.2334219068288803,-9.995680809020996,3,1,44.0,0,0,1992,1902
24.99551900,24995519,1,-0.002554423175752163,-0.001999469008296728,0.001238820026628673,-0.39462265372276306,-0.2334219068288803,-9.995680809020996,3,1,44.0,0,0,1992,1902
24.99805400,24998054,1,-0.0025544241070747375,-0.0019994673784822226,0.0012388210743665695,-0.39462265372276306,-0.2334219068288803,-9.995680809020996,3,1,44.0,0,0,1992,1902
25.00054100,25000541,1,-0.002554424572736025,-0.00199946784414351,0.0012388203758746386,-0.39462265372276306,-0.2334219068288803,-9.995680809020996,3,1,44.0,0,0,1992,1902
25.00302800,25003028,1,-0.002554423175752163,-0.001999468309804797,0.001238820725120604,-0.39462265372276306,-0.2334219068288803,-9.995680809020996,3,1,44.0,0,0,1992,1902
25.00592900,25005929,1,-0.0025544248055666685,-0.001999467145651579,0.001238820725120604,-0.39462265372276306,-0.2334219068288803,-9.995680809020996,3,1,44.0,0,0,1992,1902
25.00803200,25008032,1,-0.0025544229429215193,-0.001999469008296728,0.001238820143043995,-0.39462265372276306,-0.2334219068288803,-9.995680809020996,3,1,44.0,0,0,1992,1902
25.01051700,25010517,1,-0.002554424572736025,-0.001999467145651579,0.0012388209579512477,-0.39462265372276306,-0.2334219068288803,-9.995680809020996,3,1,44.0,0,0,1992,1902
25.01302400,25013024,1,-0.0025544236414134502,-0.0019994687754660845,0.001238820143043995,-0.39462265372276306,-0.2334219068288803,-9.995680809020996,3,1,44.0,0,0,1992,1902
25.01552500,25015525,1,-0.0025544236414134502,-0.001999467611312866,0.0012388209579512477,-0.39462265372276306,-0.2334219068288803,-9.995680809020996,3,1,44.0,0,0,1992,1902
25.01837200,25018372,1,-0.0025544248055666685,-0.001999467145651579,0.001238820725120604,-0.39462265372276306,-0.2334219068288803,-9.995680809020996,3,1,44.0,0,0,1992,1902
25.02051200,25020512,1,-0.0025544229429215193,-0.0019994687754660845,0.0012388203758746386,-0.39462265372276306,-0.2334219068288803,-9.995680809020996,3,1,44.0,0,0,1992,1902
25.02303300,25023033,1,-0.0025544248055666685,-0.0019994669128209352,0.0012388208415359259,-0.39462265372276306,-0.2334219068288803,-9.995680809020996,3,1,44.0,0,0,1992,1902
25.02561000,25025610,1,-0.002554423175752163,-0.001999469008296728,0.001238820026628673,-0.39462265372276306,-0.2334219068288803,-9.995680809020996,3,1,44.0,0,0,1992,1902
25.02802400,25028024,1,-0.0025544241070747375,-0.0019994673784822226,0.0012388210743665695,-0.39462265372276306,-0.2334219068288803,-9.995680809020996,3,1,44.0,0,0,1992,1902
25.03096300,25030963,1,-0.0025544241070747375,-0.001999468309804797,0.0012388202594593167,-0.39462265372276306,-0.2334219068288803,-9.995680809020996,3,1,44.0,0,0,1992,1902
25.03294900,25032949,1,-0.002554423175752163,-0.001999468309804797,0.001238820725120604,-0.39462265372276306,-0.2334219068288803,-9.995680809020996,3,1,44.0,0,0,1992,1902
25.03551500,25035515,1,-0.0025544248055666685,-0.001999467145651579,0.001238820725120604,-0.39462265372276306,-0.2334219068288803,-9.995680809020996,3,1,44.0,0,0,1992,1902
25.03802900,25038029,1,-0.0025544229429215193,-0.001999469008296728,0.001238820143043995,-0.39462265372276306,-0.2334219068288803,-9.995680809020996,3,1,44.0,0,0,1992,1902
25.04052100,25040521,1,-0.002554424572736025,-0.001999467145651579,0.0012388209579512477,-0.39462265372276306,-0.2334219068288803,-9.995680809020996,3,1,44.0,0,0,1992,1902
25.04342200,25043422,1,-0.0025544241070747375,-0.001999468309804797,0.0012388202594593167,-0.39462265372276306,-0.2334219068288803,-9.995680809020996,3,1,44.0,0,0,1992,1902
25.04552800,25045528,1,-0.0025544236414134502,-0.001999467611312866,0.0012388209579512477,-0.39462265372276306,-0.2334219068288803,-9.995680809020996,3,1,44.0,0,0,1992,1902
25.04801700,25048017,1,-0.002554424572736025,-0.00199946784414351,0.0012388203758746386,-0.39462265372276306,-0.2334219068288803,-9.995680809020996,3,1,44.0,0,0,1992,1902
25.05051900,25050519,1,-0.0025544229429215193,-0.0019994687754660845,0.0012388203758746386,-0.39462265372276306,-0.2334219068288803,-9.995680809020996,3,1,44.0,0,0,1992,1902
25.05302600,25053026,1,-0.0025544248055666685,-0.0019994669128209352,0.0012388208415359259,-0.39462265372276306,-0.2334219068288803,-9.995680809020996,3,1,44.0,0,0,1992,1902
25.05588100,25055881,1,-0.002554423175752163,-0.001999469008296728,0.001238820026628673,-0.39462265372276306,-0.2334219068288803,-9.995680809020996,3,1,44.0,0,0,1992,1902
25.05797200,25057972,1,-0.0025544241070747375,-0.0019994673784822226,0.0012388210743665695,-0.39462265372276306,-0.2334219068288803,-9.995680809020996,3,1,44.0,0,0,1992,1902
25.06055100,25060551,1,-0.002554424572736025,-0.00199946784414351,0.0012388203758746386,-0.39462265372276306,-0.2334219068288803,-9.995680809020996,3,1,44.0,0,0,1992,1902
25.06301200,25063012,1,-0.002554423175752163,-0.001999468309804797,0.001238820725120604,-0.39462265372276306,-0.2334219068288803,-9.995680809020996,3,1,44.0,0,0,1992,1902
25.06554200,25065542,1,-0.0025544248055666685,-0.001999467145651579,0.001238820725120604,-0.39462265372276306,-0.2334219068288803,-9.995680809020996,3,1,44.0,0,0,1992,1902
25.06908500,25069085,1,-0.0025544229429215193,-0.001999469008296728,0.001238820143043995,-0.39462265372276306,-0.2334219068288803,-9.995680809020996,3,1,44.0,0,0,1992,1902
25.07052900,25070529,1,-0.002554424572736025,-0.001999467145651579,0.0012388209579512477,-0.39462265372276306,-0.2334219068288803,-9.995680809020996,3,1,44.0,0,0,1992,1902
25.07301200,25073012,1,-0.0025544236414134502,-0.0019994687754660845,0.001238820143043995,-0.39462265372276306,-0.2334219068288803,-9.995680809020996,3,1,44.0,0,0,1992,1902
25.07553800,25075538,1,-0.0025544236414134502,-0.001999467611312866,0.0012388209579512477,-0.39462265372276306,-0.2334219068288803,-9.995680809020996,3,1,44.0,0,0,1992,1902
25.07800600,25078006,1,-0.002554424572736025,-0.00199946784414351,0.0012388203758746386,-0.39462265372276306,-0.2334219068288803,-9.995680809020996,3,1,44.0,0,0,1992,1902
25.08086300,25080863,1,-0.0025544229429215193,-0.0019994687754660845,0.0012388203758746386,-0.39462265372276306,-0.2334219068288803,-9.995680809020996,3,1,44.0,0,0,1992,1902
25.08301400,25083014,1,-0.0025544248055666685,-0.0019994669128209352,0.0012388208415359259,-0.39462265372276306,-0.2334219068288803,-9.995680809020996,3,1,44.0,0,0,1992,1902
25.08557900,25085579,1,-0.0025544236414134502,-0.0019994687754660845,0.001238820143043995,-0.39462265372276306,-0.2334219068288803,-9.995680809020996,3,1,44.0,0,0,1992,1902
25.08801100,25088011,1,-0.0025544241070747375,-0.0019994673784822226,0.0012388210743665695,-0.39462265372276306,-0.2334219068288803,-9.995680809020996,3,1,44.0,0,0,1992,1902
25.09054000,25090540,1,-0.0025544241070747375,-0.001999468309804797,0.0012388202594593167,-0.39462265372276306,-0.2334219068288803,-9.995680809020996,3,1,44.0,0,0,1992,1902
25.09332700,25093327,1,-0.002554423175752163,-0.001999468309804797,0.001238820725120604,-0.39462265372276306,-0.2334219068288803,-9.995680809020996,3,1,44.0,0,0,1992,1902
25.09555400,25095554,1,-0.0025544248055666685,-0.0019994669128209352,0.0012388208415359259,-0.39462265372276306,-0.2334219068288803,-9.995680809020996,3,1,44.0,0,0,1992,1902
25.09802300,25098023,1,-0.0025544229429215193,-0.001999469008296728,0.001238820143043995,-0.39462265372276306,-0.2334219068288803,-9.995680809020996,3,1,44.0,0,0,1992,1902
25.10049700,25100497,1,-0.002554424572736025,-0.001999467145651579,0.0012388209579512477,-0.39462265372276306,-0.2334219068288803,-9.995680809020996,3,1,44.0,0,0,1992,1902
25.10298600,25102986,1,-0.0025544236414134502,-0.0019994687754660845,0.001238820143043995,-0.39462265372276306,-0.2334219068288803,-9.995680809020996,3,1,44.0,0,0,1992,1902
25.10594800,25105948,1,-0.0025544236414134502,-0.001999467611312866,0.0012388209579512477,-0.39462265372276306,-0.2334219068288803,-9.995680809020996,3,1,44.0,0,0,1992,1902
25.10802200,25108022,1,-0.002554424572736025,-0.00199946784414351,0.0012388203758746386,-0.39462265372276306,-0.2334219068288803,-9.995680809020996,3,1,44.0,0,0,1992,1902
25.11051100,25110511,1,-0.0025544229429215193,-0.0019994687754660845,0.0012388203758746386,-0.39462265372276306,-0.2334219068288803,-9.995680809020996,3,1,44.0,0,0,1992,1902
25.11297900,25112979,1,-0.0025544248055666685,-0.0019994669128209352,0.0012388208415359259,-0.39462265372276306,-0.2334219068288803,-9.995680809020996,3,1,44.0,0,0,1992,1902
25.11551600,25115516,1,-0.002554423175752163,-0.001999469008296728,0.001238820026628673,-0.39462265372276306,-0.2334219068288803,-9.995680809020996,3,1,44.0,0,0,1992,1902
25.11836600,25118366,1,-0.0025544241070747375,-0.0019994673784822226,0.0012388210743665695,-0.39462265372276306,-0.2334219068288803,-9.995680809020996,3,1,44.0,0,0,1992,1902
25.12046600,25120466,1,-0.0025544241070747375,-0.001999468309804797,0.0012388202594593167,-0.39462265372276306,-0.2334219068288803,-9.995680809020996,3,1,44.0,0,0,1992,1902
25.12301500,25123015,1,-0.002554423175752163,-0.001999468309804797,0.001238820725120604,-0.39462265372276306,-0.2334219068288803,-9.995680809020996,3,1,44.0,0,0,1992,1902
25.12568100,25125681,1,-0.0025544248055666685,-0.001999467145651579,0.001238820725120604,-0.39462265372276306,-0.2334219068288803,-9.995680809020996,3,1,44.0,0,0,1992,1902
25.12801600,25128016,1,-0.0025544229429215193,-0.001999469008296728,0.001238820143043995,-0.39462265372276306,-0.2334219068288803,-9.995680809020996,3,1,44.0,0,0,1992,1902
25.13091900,25130919,1,-0.002554424572736025,-0.001999467145651579,0.0012388209579512477,-0.39462265372276306,-0.2334219068288803,-9.995680809020996,3,1,44.0,0,0,1992,1902
25.13301900,25133019,1,-0.0025544236414134502,-0.0019994687754660845,0.001238820143043995,-0.39462265372276306,-0.2334219068288803,-9.995680809020996,3,1,44.0,0,0,1992,1902
25.13551200,25135512,1,-0.0025544236414134502,-0.001999467611312866,0.0012388209579512477,-0.39462265372276306,-0.2334219068288803,-9.995680809020996,3,1,44.0,0,0,1992,1902
25.13804300,25138043,1,-0.0025544248055666685,-0.001999467145651579,0.001238820725120604,-0.39462265372276306,-0.2334219068288803,-9.995680809020996,3,1,44.0,0,0,1992,1902
25.14051400,25140514,1,-0.0025544229429215193,-0.0019994687754660845,0.0012388203758746386,-0.39462265372276306,-0.2334219068288803,-9.995680809020996,3,1,44.0,0,0,1992,1902
25.14345700,25143457,1,-0.0025544248055666685,-0.0019994669128209352,0.0012388208415359259,-0.39462265372276306,-0.2334219068288803,-9.995680809020996,3,1,44.0,0,0,1992,1902
25.14549300,25145493,1,-0.002554423175752163,-0.001999469008296728,0.001238820026628673,-0.39462265372276306,-0.2334219068288803,-9.995680809020996,3,1,44.0,0,0,1992,1902
25.14801900,25148019,1,-0.0025544241070747375,-0.0019994673784822226,0.0012388210743665695,-0.39462265372276306,-0.2334219068288803,-9.995680809020996,3,1,44.0,0,0,1992,1902
25.15051500,25150515,1,-0.0025544241070747375,-0.001999468309804797,0.0012388202594593167,-0.39462265372276306,-0.2334219068288803,-9.995680809020996,3,1,44.0,0,0,1992,1902
25.15302400,25153024,1,-0.002554423175752163,-0.001999468309804797,0.001238820725120604,-0.39462265372276306,-0.2334219068288803,-9.995680809020996,3,1,44.0,0,0,1992,1902
25.15596500,25155965,1,-0.0025544248055666685,-0.0019994669128209352,0.0012388208415359259,-0.39462265372276306,-0.2334219068288803,-9.995680809020996,3,1,44.0,0,0,1992,1902
25.15800700,25158007,1,-0.0025544229429215193,-0.001999469008296728,0.001238820143043995,-0.39462265372276306,-0.2334219068288803,-9.995680809020996,3,1,44.0,0,0,1992,1902
25.16052200,25160522,1,-0.002554424572736025,-0.001999467145651579,0.0012388209579512477,-0.39462265372276306,-0.2334219068288803,-9.995680809020996,3,1,44.0,0,0,1992,1902
25.16295800,25162958,1,-0.0025544236414134502,-0.0019994687754660845,0.001238820143043995,-0.39462265372276306,-0.2334219068288803,-9.995680809020996,3,1,44.0,0,0,1992,1902
25.16554500,25165545,1,-0.0025544236414134502,-0.001999467611312866,0.0012388209579512477,-0.39462265372276306,-0.2334219068288803,-9.995680809020996,3,1,44.0,0,0,1992,1902
25.16898200,25168982,1,-0.002554424572736025,-0.00199946784414351,0.0012388203758746386,-0.39462265372276306,-0.2334219068288803,-9.995680809020996,3,1,44.0,0,0,1992,1902
25.17051700,25170517,1,-0.0025544229429215193,-0.0019994687754660845,0.0012388203758746386,-0.39462265372276306,-0.2334219068288803,-9.995680809020996,3,1,44.0,0,0,1992,1902
25.17298600,25172986,1,-0.0025544248055666685,-0.0019994669128209352,0.0012388208415359259,-0.39462265372276306,-0.2334219068288803,-9.995680809020996,3,1,44.0,0,0,1992,1902
25.17553800,25175538,1,-0.002554423175752163,-0.001999469008296728,0.001238820026628673,-0.39462265372276306,-0.2334219068288803,-9.995680809020996,3,1,44.0,0,0,1992,1902
25.17801800,25178018,1,-0.0025544241070747375,-0.0019994673784822226,0.0012388210743665695,-0.39462265372276306,-0.2334219068288803,-9.995680809020996,3,1,44.0,0,0,1992,1902
25.18084600,25180846,1,-0.0025544241070747375,-0.001999468309804797,0.0012388202594593167,-0.39462265372276306,-0.2334219068288803,-9.995680809020996,3,1,44.0,0,0,1992,1902
25.18300900,25183009,1,-0.002554423175752163,-0.001999468309804797,0.001238820725120604,-0.39462265372276306,-0.2334219068288803,-9.995680809020996,3,1,44.0,0,0,1992,1902
25.18554100,25185541,1,-0.0025544248055666685,-0.001999467145651579,0.001238820725120604,-0.39462265372276306,-0.2334219068288803,-9.995680809020996,3,1,44.0,0,0,1992,1902
25.18802100,25188021,1,-0.0025544229429215193,-0.001999469008296728,0.001238820143043995,-0.39462265372276306,-0.2334219068288803,-9.995680809020996,3,1,44.0,0,0,1992,1902
25.19058200,25190582,1,-0.0025544241070747375,-0.0019994673784822226,0.0012388210743665695,-0.39462265372276306,-0.2334219068288803,-9.995680809020996,3,1,44.0,0,0,1992,1902
25.19334000,25193340,1,-0.0025544236414134502,-0.0019994687754660845,0.001238820143043995,-0.39462265372276306,-0.2334219068288803,-9.995680809020996,3,1,44.0,0,0,1992,1902
25.19552500,25195525,1,-0.0025544236414134502,-0.001999467611312866,0.0012388209579512477,-0.39462265372276306,-0.2334219068288803,-9.995680809020996,3,1,44.0,0,0,1992,1902
25.19803400,25198034,1,-0.002554424572736025,-0.00199946784414351,0.0012388203758746386,-0.39462265372276306,-0.2334219068288803,-9.995680809020996,3,1,44.0,0,0,1992,1902
25.20055100,25200551,1,-0.0025544229429215193,-0.001999469008296728,0.001238820143043995,-0.39462265372276306,-0.2334219068288803,-9.995680809020996,3,1,44.0,0,0,1992,1902
25.20301200,25203012,1,-0.0025544248055666685,-0.0019994669128209352,0.0012388208415359259,-0.39462265372276306,-0.2334219068288803,-9.995680809020996,3,1,44.0,0,0,1992,1902
25.20594200,25205942,1,-0.002554423175752163,-0.001999469008296728,0.001238820026628673,-0.39462265372276306,-0.2334219068288803,-9.995680809020996,3,1,44.0,0,0,1992,1902
25.20797200,25207972,1,-0.0025544241070747375,-0.0019994673784822226,0.0012388210743665695,-0.39462265372276306,-0.2334219068288803,-9.995680809020996,3,1,44.0,0,0,1992,1902
25.21053500,25210535,1,-0.0025544241070747375,-0.001999468309804797,0.0012388202594593167,-0.39462265372276306,-0.2334219068288803,-9.995680809020996,3,1,44.0,0,0,1992,1902
25.21301900,25213019,1,-0.002554423175752163,-0.001999468309804797,0.001238820725120604,-0.39462265372276306,-0.2334219068288803,-9.995680809020996,3,1,44.0,0,0,1992,1902
25.21551200,25215512,1,-0.0025544248055666685,-0.001999467145651579,0.001238820725120604,-0.39462265372276306,-0.2334219068288803,-9.995680809020996,3,1,44.0,0,0,1992,1902
25.21835900,25218359,1,-0.002554423175752163,-0.001999469008296728,0.001238820026628673,-0.39462265372276306,-0.2334219068288803,-9.995680809020996,3,1,44.0,0,0,1992,1902
25.22051300,25220513,1,-0.002554424572736025,-0.001999467145651579,0.0012388209579512477,-0.39462265372276306,-0.2334219068288803,-9.995680809020996,3,1,44.0,0,0,1992,1902
25.22301900,25223019,1,-0.0025544236414134502,-0.0019994687754660845,0.001238820143043995,-0.39462265372276306,-0.2334219068288803,-9.995680809020996,3,1,44.0,0,0,1992,1902
25.22566200,25225662,1,-0.0025544236414134502,-0.001999467611312866,0.0012388209579512477,-0.39462265372276306,-0.2334219068288803,-9.995680809020996,3,1,44.0,0,0,1992,1902
25.22804400,25228044,1,-0.0025544248055666685,-0.001999467145651579,0.001238820725120604,-0.39462265372276306,-0.2334219068288803,-9.995680809020996,3,1,44.0,0,0,1992,1902
25.23091400,25230914,1,-0.0025544229429215193,-0.0019994687754660845,0.0012388203758746386,-0.39462265372276306,-0.2334219068288803,-9.995680809020996,3,1,44.0,0,0,1992,1902
25.23304100,25233041,1,-0.0025544248055666685,-0.0019994669128209352,0.0012388208415359259,-0.39462265372276306,-0.2334219068288803,-9.995680809020996,3,1,44.0,0,0,1992,1902
25.23545700,25235457,1,-0.002554423175752163,-0.001999469008296728,0.001238820026628673,-0.39462265372276306,-0.2334219068288803,-9.995680809020996,3,1,44.0,0,0,1992,1902
25.23802400,25238024,1,-0.0025544241070747375,-0.0019994673784822226,0.0012388210743665695,-0.39462265372276306,-0.2334219068288803,-9.995680809020996,3,1,44.0,0,0,1992,1902
25.24051600,25240516,1,-0.0025544241070747375,-0.001999468309804797,0.0012388202594593167,-0.39462265372276306,-0.2334219068288803,-9.995680809020996,3,1,44.0,0,0,1992,1902
25.24331600,25243316,1,-0.002554423175752163,-0.001999468309804797,0.001238820725120604,-0.39462265372276306,-0.2334219068288803,-9.995680809020996,3,1,44.0,0,0,1992,1902
25.24553200,25245532,1,-0.0025544248055666685,-0.001999467145651579,0.001238820725120604,-0.39462265372276306,-0.2334219068288803,-9.995680809020996,3,1,44.0,0,0,1992,1902
25.24802300,25248023,1,-0.0025544229429215193,-0.001999469008296728,0.001238820143043995,-0.39462265372276306,-0.2334219068288803,-9.995680809020996,3,1,44.0,0,0,1992,1902
25.25051000,25250510,1,-0.002554424572736025,-0.001999467145651579,0.0012388209579512477,-0.39462265372276306,-0.2334219068288803,-9.995680809020996,3,1,44.0,0,0,1992,1902
25.25299800,25252998,1,-0.0025544241070747375,-0.001999468309804797,0.0012388202594593167,-0.39462265372276306,-0.2334219068288803,-9.995680809020996,3,1,44.0,0,0,1992,1902
25.25597500,25255975,1,-0.0025544236414134502,-0.001999467611312866,0.0012388209579512477,-0.39462265372276306,-0.2334219068288803,-9.995680809020996,3,1,44.0,0,0,1992,1902
25.25802300,25258023,1,-0.002554424572736025,-0.00199946784414351,0.0012388203758746386,-0.39462265372276306,-0.2334219068288803,-9.995680809020996,3,1,44.0,0,0,1992,1902
25.26050900,25260509,1,-0.0025544229429215193,-0.0019994687754660845,0.0012388203758746386,-0.39462265372276306,-0.2334219068288803,-9.995680809020996,3,1,44.0,0,0,1992,1902
25.26304600,25263046,1,-0.002554424572736025,-0.001999467145651579,0.0012388209579512477,-0.39462265372276306,-0.2334219068288803,-9.995680809020996,3,1,44.0,0,0,1992,1902
25.26553000,25265530,1,-0.002554423175752163,-0.001999469008296728,0.001238820026628673,-0.39462265372276306,-0.2334219068288803,-9.995680809020996,3,1,44.0,0,0,1992,1902
25.26900100,25269001,1,-0.0025544241070747375,-0.0019994673784822226,0.0012388210743665695,-0.39462265372276306,-0.2334219068288803,-9.995680809020996,3,1,44.0,0,0,1992,1902
25.27045500,25270455,1,-0.0025544241070747375,-0.001999468309804797,0.0012388202594593167,-0.39462265372276306,-0.2334219068288803,-9.995680809020996,3,1,44.0,0,0,1992,1902
25.27300500,25273005,1,-0.002554423175752163,-0.001999468309804797,0.001238820725120604,-0.39462265372276306,-0.2334219068288803,-9.995680809020996,3,1,44.0,0,0,1992,1902
25.27552500,25275525,1,-0.0025544248055666685,-0.001999467145651579,0.001238820725120604,-0.39462265372276306,-0.2334219068288803,-9.995680809020996,3,1,44.0,0,0,1992,1902
25.27802400,25278024,1,-0.0025544229429215193,-0.001999469008296728,0.001238820143043995,-0.39462265372276306,-0.2334219068288803,-9.995680809020996,3,1,44.0,0,0,1992,1902
25.28092900,25280929,1,-0.0025544241070747375,-0.0019994673784822226,0.0012388210743665695,-0.39462265372276306,-0.2334219068288803,-9.995680809020996,3,1,44.0,0,0,1992,1902
25.28302100,25283021,1,-0.0025544236414134502,-0.0019994687754660845,0.001238820143043995,-0.39462265372276306,-0.2334219068288803,-9.995680809020996,3,1,44.0,0,0,1992,1902
25.28553700,25285537,1,-0.0025544236414134502,-0.001999467611312866,0.0012388209579512477,-0.39462265372276306,-0.2334219068288803,-9.995680809020996,3,1,44.0,0,0,1992,1902
25.28801000,25288010,1,-0.002554424572736025,-0.00199946784414351,0.0012388203758746386,-0.39462265372276306,-0.2334219068288803,-9.995680809020996,3,1,44.0,0,0,1992,1902
25.29052700,25290527,1,-0.0025544229429215193,-0.0019994687754660845,0.0012388203758746386,-0.39462265372276306,-0.2334219068288803,-9.995680809020996,3,1,44.0,0,0,1992,1902
25.29335600,25293356,1,-0.0025544248055666685,-0.0019994669128209352,0.0012388208415359259,-0.39462265372276306,-0.2334219068288803,-9.995680809020996,3,1,44.0,0,0,1992,1902
25.29551500,25295515,1,-0.002554423175752163,-0.001999469008296728,0.001238820026628673,-0.39462265372276306,-0.2334219068288803,-9.995680809020996,3,1,44.0,0,0,1992,1902
25.29799800,25297998,1,-0.0025544241070747375,-0.0019994673784822226,0.0012388210743665695,-0.39462265372276306,-0.2334219068288803,-9.995680809020996,3,1,44.0,0,0,1992,1902
25.30052800,25300528,1,-0.0025544241070747375,-0.001999468309804797,0.0012388202594593167,-0.39462265372276306,-0.2334219068288803,-9.995680809020996,3,1,44.0,0,0,1992,1902
25.30301900,25303019,1,-0.002554423175752163,-0.001999468309804797,0.001238820725120604,-0.39462265372276306,-0.2334219068288803,-9.995680809020996,3,1,44.0,0,0,1992,1902
25.30585700,25305857,1,-0.0025544248055666685,-0.001999467145651579,0.001238820725120604,-0.39462265372276306,-0.2334219068288803,-9.995680809020996,3,1,44.0,0,0,1992,1902
25.30801300,25308013,1,-0.0025544229429215193,-0.001999469008296728,0.001238820143043995,-0.39462265372276306,-0.2334219068288803,-9.995680809020996,3,1,44.0,0,0,1992,1902
25.31051700,25310517,1,-0.002554424572736025,-0.001999467145651579,0.0012388209579512477,-0.39462265372276306,-0.2334219068288803,-9.995680809020996,3,1,44.0,0,0,1992,1902
25.31301300,25313013,1,-0.0025544236414134502,-0.0019994687754660845,0.001238820143043995,-0.39462265372276306,-0.2334219068288803,-9.995680809020996,3,1,44.0,0,0,1992,1902
25.31555900,25315559,1,-0.002554423175752163,-0.001999468309804797,0.001238820725120604,-0.39462265372276306,-0.2334219068288803,-9.995680809020996,3,1,44.0,0,0,1992,1902
25.31834500,25318345,1,-0.002554424572736025,-0.00199946784414351,0.0012388203758746386,-0.39462265372276306,-0.2334219068288803,-9.995680809020996,3,1,44.0,0,0,1992,1902
25.32051800,25320518,1,-0.0025544229429215193,-0.0019994687754660845,0.0012388203758746386,-0.39462265372276306,-0.2334219068288803,-9.995680809020996,3,1,44.0,0,0,1992,1902
25.32302600,25323026,1,-0.0025544248055666685,-0.0019994669128209352,0.0012388208415359259,-0.39462265372276306,-0.2334219068288803,-9.995680809020996,3,1,44.0,0,0,1992,1902
25.32566100,25325661,1,-0.002554423175752163,-0.001999469008296728,0.001238820026628673,-0.39462265372276306,-0.2334219068288803,-9.995680809020996,3,1,44.0,0,0,1992,1902
25.32802600,25328026,1,-0.0025544241070747375,-0.0019994673784822226,0.0012388210743665695,-0.39462265372276306,-0.2334219068288803,-9.995680809020996,3,1,44.0,0,0,1992,1902
25.33091800,25330918,1,-0.0025544241070747375,-0.001999468309804797,0.0012388202594593167,-0.39462265372276306,-0.2334219068288803,-9.995680809020996,3,1,44.0,0,0,1992,1902
25.33305100,25333051,1,-0.0025544229429215193,-0.0019994687754660845,0.0012388203758746386,-0.39462265372276306,-0.2334219068288803,-9.995680809020996,3,1,44.0,0,0,1992,1902
25.33551200,25335512,1,-0.0025544248055666685,-0.001999467145651579,0.001238820725120604,-0.39462265372276306,-0.2334219068288803,-9.995680809020996,3,1,44.0,0,0,1992,1902
25.33802300,25338023,1,-0.0025544229429215193,-0.001999469008296728,0.001238820143043995,-0.39462265372276306,-0.2334219068288803,-9.995680809020996,3,1,44.0,0,0,1992,1902
25.34051300,25340513,1,-0.002554424572736025,-0.001999467145651579,0.0012388209579512477,-0.39462265372276306,-0.2334219068288803,-9.995680809020996,3,1,44.0,0,0,1992,1902
25.34331000,25343310,1,-0.0025544236414134502,-0.0019994687754660845,0.001238820143043995,-0.39462265372276306,-0.2334219068288803,-9.995680809020996,3,1,44.0,0,0,1992,1902
25.34554700,25345547,1,-0.0025544236414134502,-0.001999467611312866,0.0012388209579512477,-0.39462265372276306,-0.2334219068288803,-9.995680809020996,3,1,44.0,0,0,1992,1902
25.34801800,25348018,1,-0.002554424572736025,-0.00199946784414351,0.0012388203758746386,-0.39462265372276306,-0.2334219068288803,-9.995680809020996,3,1,44.0,0,0,1992,1902
25.35045400,25350454,1,-0.0025544229429215193,-0.0019994687754660845,0.0012388203758746386,-0.39462265372276306,-0.2334219068288803,-9.995680809020996,3,1,44.0,0,0,1992,1902
25.35301700,25353017,1,-0.0025544248055666685,-0.0019994669128209352,0.0012388208415359259,-0.39462265372276306,-0.2334219068288803,-9.995680809020996,3,1,44.0,0,0,1992,1902
25.35587700,25355877,1,-0.002554423175752163,-0.001999469008296728,0.001238820026628673,-0.39462265372276306,-0.2334219068288803,-9.995680809020996,3,1,44.0,0,0,1992,1902
25.35802000,25358020,1,-0.0025544241070747375,-0.0019994673784822226,0.0012388210743665695,-0.39462265372276306,-0.2334219068288803,-9.995680809020996,3,1,44.0,0,0,1992,1902
25.36054800,25360548,1,-0.002554424572736025,-0.00199946784414351,0.0012388203758746386,-0.39462265372276306,-0.2334219068288803,-9.995680809020996,3,1,44.0,0,0,1992,1902
25.36302300,25363023,1,-0.002554423175752163,-0.001999468309804797,0.001238820725120604,-0.39462265372276306,-0.2334219068288803,-9.995680809020996,3,1,44.0,0,0,1992,1902
25.36553000,25365530,1,-0.0025544248055666685,-0.001999467145651579,0.001238820725120604,-0.39462265372276306,-0.2334219068288803,-9.995680809020996,3,1,44.0,0,0,1992,1902
25.36899200,25368992,1,-0.0025544229429215193,-0.001999469008296728,0.001238820143043995,-0.39462265372276306,-0.2334219068288803,-9.995680809020996,3,1,44.0,0,0,1992,1902
25.37050900,25370509,1,-0.002554424572736025,-0.001999467145651579,0.0012388209579512477,-0.39462265372276306,-0.2334219068288803,-9.995680809020996,3,1,44.0,0,0,1992,1902
25.37302300,25373023,1,-0.0025544236414134502,-0.0019994687754660845,0.001238820143043995,-0.39462265372276306,-0.2334219068288803,-9.995680809020996,3,1,44.0,0,0,1992,1902
25.37571000,25375710,1,-0.0025544236414134502,-0.001999467611312866,0.0012388209579512477,-0.39462265372276306,-0.2334219068288803,-9.995680809020996,3,1,44.0,0,0,1992,1902
25.37826000,25378260,1,-0.0025544248055666685,-0.001999467145651579,0.001238820725120604,-0.39462265372276306,-0.2334219068288803,-9.995680809020996,3,1,44.0,0,0,1992,1902
25.38099500,25380995,1,-0.0025544229429215193,-0.0019994687754660845,0.0012388203758746386,-0.39462265372276306,-0.2334219068288803,-9.995680809020996,3,1,44.0,0,0,1992,1902
25.38303500,25383035,1,-0.0025544248055666685,-0.0019994669128209352,0.0012388208415359259,-0.39462265372276306,-0.2334219068288803,-9.995680809020996,3,1,44.0,0,0,1992,1902
25.38553300,25385533,1,-0.002554423175752163,-0.001999469008296728,0.001238820026628673,-0.39462265372276306,-0.2334219068288803,-9.995680809020996,3,1,44.0,0,0,1992,1902
25.38801000,25388010,1,-0.0025544241070747375,-0.0019994673784822226,0.0012388210743665695,-0.39462265372276306,-0.2334219068288803,-9.995680809020996,3,1,44.0,0,0,1992,1902
25.39054700,25390547,1,-0.0025544241070747375,-0.001999468309804797,0.0012388202594593167,-0.39462265372276306,-0.2334219068288803,-9.995680809020996,3,1,44.0,0,0,1993,1902
25.39330900,25393309,1,-0.0025512578431516886,-0.0019969940185546875,0.0012372860219329596,-0.39462265372276306,-0.2334219068288803,-9.995680809020996,3,1,44.0,0,0,1993,1902
25.39552100,25395521,1,-0.002551574492827058,-0.0019972471054643393,0.001237441785633564,-0.39462265372276306,-0.2334219068288803,-9.995680809020996,3,1,44.0,0,0,1993,1902
25.39805800,25398058,1,-0.0025520012713968754,-0.0019975847098976374,0.0012376501690596342,-0.39462265372276306,-0.2334219068288803,-9.995680809020996,3,1,44.0,0,0,1993,1902
25.40052000,25400520,1,-0.0025524678640067577,-0.0019979458302259445,0.001237874967046082,-0.39462265372276306,-0.2334219068288803,-9.995680809020996,3,1,44.0,0,0,1993,1902
25.40300900,25403009,1,-0.00255292234942317,-0.0019982936792075634,0.001238092896528542,-0.39462265372276306,-0.2334219068288803,-9.995680809020996,3,1,44.0,0,0,1993,1902
25.40594700,25405947,1,-0.002553332131356001,-0.0019986049737781286,0.0012382888235151768,-0.39462265372276306,-0.2334219068288803,-9.995680809020996,3,1,44.0,0,0,1993,1902
25.40801100,25408011,1,-0.0025536781176924706,-0.0019988706335425377,0.0012384557630866766,-0.39462265372276306,-0.2334219068288803,-9.995680809020996,3,1,44.0,0,0,1993,1902
25.41054300,25410543,1,-0.0025539053604006767,-0.0019990457221865654,0.0012385658919811249,-0.39462265372276306,-0.2334219068288803,-9.995680809020996,3,1,44.0,0,0,1993,1902
25.41302700,25413027,1,-0.00255416939035058,-0.0019992466550320387,0.0012386934831738472,-0.39462265372276306,-0.2334219068288803,-9.995680809020996,3,1,44.0,0,0,1993,1902
25.41552000,25415520,1,-0.0025543244555592537,-0.001999365631490946,0.0012387690367177129,-0.39462265372276306,-0.2334219068288803,-9.995680809020996,3,1,44.0,0,0,1993,1902
25.41834800,25418348,1,-0.0025544294621795416,-0.001999446889385581,0.0012388196773827076,-0.39462265372276306,-0.2334219068288803,-9.995680809020996,3,1,44.0,0,0,1993,1902
25.42054500,25420545,1,-0.0025544927921146154,-0.001999498112127185,0.0012388501781970263,-0.39462265372276306,-0.2334219068288803,-9.995680809020996,3,1,44.0,0,0,1993,1902
25.42303000,25423030,1,-0.0025545265525579453,-0.0019995258189737797,0.0012388656614348292,-0.39462265372276306,-0.2334219068288803,-9.995680809020996,3,1,44.0,0,0,1993,1902
25.42561100,25425611,1,-0.0025545384269207716,-0.001999535597860813,0.001238870550878346,-0.39462265372276306,-0.2334219068288803,-9.995680809020996,3,1,44.0,0,0,1993,1902
25.42805100,25428051,1,-0.002554537495598197,-0.0019995360635221004,0.0012388688046485186,-0.39462265372276306,-0.2334219068288803,-9.995680809020996,3,1,44.0,0,0,1993,1902
25.43091700,25430917,1,-0.002554522827267647,-0.0019995293114334345,0.0012388608884066343,-0.39462265372276306,-0.2334219068288803,-9.995680809020996,3,1,44.0,0,0,1993,1902
25.43302000,25433020,1,-0.0025545028038322926,-0.001999516040086746,0.0012388513423502445,-0.39462265372276306,-0.2334219068288803,-9.995680809020996,3,1,44.0,0,0,1993,1902
25.43553300,25435533,1,-0.00255448161624372,-0.001999499974772334,0.0012388412142172456,-0.39462265372276306,-0.2334219068288803,-9.995680809020996,3,1,44.0,0,0,1993,1902
25.43804700,25438047,1,-0.0025544650852680206,-0.0019994869362562895,0.0012388338800519705,-0.39462265372276306,-0.2334219068288803,-9.995680809020996,3,1,44.0,0,0,1993,1902
25.44051700,25440517,1,-0.0025544436648488045,-0.001999469241127372,0.001238824101164937,-0.39462265372276306,-0.2334219068288803,-9.995680809020996,3,1,44.0,0,0,1993,1902
25.44335600,25443356,1,-0.002554429927840829,-0.001999457599595189,0.00123881665058434,-0.39462265372276306,-0.2334219068288803,-9.995680809020996,3,1,44.0,0,0,1993,1902
25.44554700,25445547,1,-0.0025544187519699335,-0.0019994492176920176,0.0012388104805722833,-0.39462265372276306,-0.2334219068288803,-9.995680809020996,3,1,44.0,0,0,1993,1902
25.44801400,25448014,1,-0.0025544087402522564,-0.001999443396925926,0.001238805940374732,-0.39462265372276306,-0.2334219068288803,-9.995680809020996,3,1,44.0,0,0,1993,1902
25.45051800,25450518,1,-0.002554400824010372,-0.001999438274651766,0.0012388031464070082,-0.39462265372276306,-0.2334219068288803,-9.995680809020996,3,1,44.0,0,0,1993,1902
25.45301800,25453018,1,-0.002554395468905568,-0.001999434782192111,0.001238801865838468,-0.39462265372276306,-0.2334219068288803,-9.995680809020996,3,1,44.0,0,0,1993,1902
25.45585800,25455858,1,-0.0025543926749378443,-0.001999432686716318,0.0012388009345158935,-0.39462265372276306,-0.2334219068288803,-9.995680809020996,3,1,44.0,0,0,1993,1902
25.45802700,25458027,1,-0.0025543905794620514,-0.0019994296599179506,0.0012388016330078244,-0.39462265372276306,-0.2334219068288803,-9.995680809020996,3,1,44.0,0,0,1993,1902
25.46051400,25460514,1,-0.002554389415308833,-0.001999430824071169,0.0012388017494231462,-0.39462265372276306,-0.2334219068288803,-9.995680809020996,3,1,44.0,0,0,1993,1902
25.46301700,25463017,1,-0.002554387552663684,-0.0019994315225631,0.0012388017494231462,-0.39462265372276306,-0.2334219068288803,-9.995680809020996,3,1,44.0,0,0,1993,1902
25.46556200,25465562,1,-0.0025543870870023966,-0.0019994315225631,0.0012388017494231462,-0.39462265372276306,-0.2334219068288803,-9.995680809020996,3,1,44.0,0,0,1993,1902
25.46898800,25468988,1,-0.002554388716816902,-0.0019994315225631,0.0012388017494231462,-0.39462265372276306,-0.2334219068288803,-9.995680809020996,3,1,44.0,0,0,1993,1902
25.47051100,25470511,1,-0.0025543870870023966,-0.0019994315225631,0.0012388017494231462,-0.39462265372276306,-0.2334219068288803,-9.995680809020996,3,1,44.0,0,0,1993,1902
25.47302400,25473024,1,-0.002554388716816902,-0.0019994315225631,0.0012388017494231462,-0.39462265372276306,-0.2334219068288803,-9.995680809020996,3,1,44.0,0,0,1993,1902
25.47551500,25475515,1,-0.0025543870870023966,-0.0019994315225631,0.0012388017494231462,-0.39462265372276306,-0.2334219068288803,-9.995680809020996,3,1,44.0,0,0,1993,1902
25.47801700,25478017,1,-0.002554388251155615,-0.0019994315225631,0.0012388017494231462,-0.39462265372276306,-0.2334219068288803,-9.995680809020996,3,1,44.0,0,0,1993,1902
25.48090400,25480904,1,-0.002554388018324971,-0.0019994315225631,0.0012388017494231462,-0.39462265372276306,-0.2334219068288803,-9.995680809020996,3,1,44.0,0,0,1993,1902
25.48305300,25483053,1,-0.0025543870870023966,-0.0019994315225631,0.0012388017494231462,-0.39462265372276306,-0.2334219068288803,-9.995680809020996,3,1,44.0,0,0,1993,1902
25.48554100,25485541,1,-0.002554388949647546,-0.0019994315225631,0.0012388017494231462,-0.39462265372276306,-0.2334219068288803,-9.995680809020996,3,1,44.0,0,0,1993,1902
25.48802800,25488028,1,-0.002554386854171753,-0.0019994315225631,0.0012388017494231462,-0.39462265372276306,-0.2334219068288803,-9.995680809020996,3,1,44.0,0,0,1993,1902
25.49054000,25490540,1,-0.0025543884839862585,-0.0019994315225631,0.0012388017494231462,-0.39462265372276306,-0.2334219068288803,-9.995680809020996,3,1,44.0,0,0,1993,1902
25.49335900,25493359,1,-0.002554387552663684,-0.0019994315225631,0.0012388017494231462,-0.39462265372276306,-0.2334219068288803,-9.995680809020996,3,1,44.0,0,0,1993,1902
25.49551700,25495517,1,-0.002554387552663684,-0.0019994315225631,0.0012388017494231462,-0.39462265372276306,-0.2334219068288803,-9.995680809020996,3,1,44.0,0,0,1993,1902
25.49803900,25498039,1,-0.002554388716816902,-0.0019994315225631,0.0012388017494231462,-0.39462265372276306,-0.2334219068288803,-9.995680809020996,3,1,44.0,0,0,1993,1902
25.50052700,25500527,1,-0.002554386854171753,-0.0019994315225631,0.0012388017494231462,-0.39462265372276306,-0.2334219068288803,-9.995680809020996,3,1,44.0,0,0,1993,1902
25.50302400,25503024,1,-0.002554388716816902,-0.0019994315225631,0.0012388017494231462,-0.39462265372276306,-0.2334219068288803,-9.995680809020996,3,1,44.0,0,0,1993,1902
25.50593800,25505938,1,-0.0025543870870023966,-0.0019994315225631,0.0012388017494231462,-0.39462265372276306,-0.2334219068288803,-9.995680809020996,3,1,44.0,0,0,1993,1902
25.50800700,25508007,1,-0.002554388251155615,-0.0019994315225631,0.0012388017494231462,-0.39462265372276306,-0.2334219068288803,-9.995680809020996,3,1,44.0,0,0,1993,1902
25.51055600,25510556,1,-0.002554388716816902,-0.0019994315225631,0.0012388017494231462,-0.39462265372276306,-0.2334219068288803,-9.995680809020996,3,1,44.0,0,0,1993,1902
25.51301400,25513014,1,-0.0025543870870023966,-0.0019994315225631,0.0012388017494231462,-0.39462265372276306,-0.2334219068288803,-9.995680809020996,3,1,44.0,0,0,1993,1902
25.51552000,25515520,1,-0.002554388949647546,-0.0019994315225631,0.0012388017494231462,-0.39462265372276306,-0.2334219068288803,-9.995680809020996,3,1,44.0,0,0,1993,1902
25.51833400,25518334,1,-0.002554386854171753,-0.0019994315225631,0.0012388017494231462,-0.39462265372276306,-0.2334219068288803,-9.995680809020996,3,1,44.0,0,0,1993,1902
25.52052300,25520523,1,-0.0025543884839862585,-0.0019994315225631,0.0012388017494231462,-0.39462265372276306,-0.2334219068288803,-9.995680809020996,3,1,44.0,0,0,1993,1902
25.52301300,25523013,1,-0.002554387552663684,-0.0019994315225631,0.0012388017494231462,-0.39462265372276306,-0.2334219068288803,-9.995680809020996,3,1,44.0,0,0,1993,1902
25.52562200,25525622,1,-0.002554387552663684,-0.0019994315225631,0.0012388017494231462,-0.39462265372276306,-0.2334219068288803,-9.995680809020996,3,1,44.0,0,0,1993,1902
25.52800100,25528001,1,-0.002554388949647546,-0.0019994315225631,0.0012388017494231462,-0.39462265372276306,-0.2334219068288803,-9.995680809020996,3,1,44.0,0,0,1993,1902
25.53092100,25530921,1,-0.0025543870870023966,-0.0019994315225631,0.0012388017494231462,-0.39462265372276306,-0.2334219068288803,-9.995680809020996,3,1,44.0,0,0,1993,1902
25.53301300,25533013,1,-0.002554388716816902,-0.0019994315225631,0.0012388017494231462,-0.39462265372276306,-0.2334219068288803,-9.995680809020996,3,1,44.0,0,0,1993,1902
25.53547500,25535475,1,-0.0025543870870023966,-0.0019994315225631,0.0012388017494231462,-0.39462265372276306,-0.2334219068288803,-9.995680809020996,3,1,44.0,0,0,1993,1902
25.53801000,25538010,1,-0.002554388251155615,-0.0019994315225631,0.0012388017494231462,-0.39462265372276306,-0.2334219068288803,-9.995680809020996,3,1,44.0,0,0,1993,1902
25.54054400,25540544,1,-0.002554388018324971,-0.0019994315225631,0.0012388017494231462,-0.39462265372276306,-0.2334219068288803,-9.995680809020996,3,1,44.0,0,0,1993,1902
25.54330100,25543301,1,-0.0025543870870023966,-0.0019994315225631,0.0012388017494231462,-0.39462265372276306,-0.2334219068288803,-9.995680809020996,3,1,44.0,0,0,1993,1902
25.54554800,25545548,1,-0.002554388949647546,-0.0019994315225631,0.0012388017494231462,-0.39462265372276306,-0.2334219068288803,-9.995680809020996,3,1,44.0,0,0,1993,1902
25.54802500,25548025,1,-0.002554386854171753,-0.0019994315225631,0.0012388017494231462,-0.39462265372276306,-0.2334219068288803,-9.995680809020996,3,1,44.0,0,0,1993,1902
25.55048300,25550483,1,-0.0025543884839862585,-0.0019994315225631,0.0012388017494231462,-0.39462265372276306,-0.2334219068288803,-9.995680809020996,3,1,44.0,0,0,1993,1902
25.55302500,25553025,1,-0.002554387552663684,-0.0019994315225631,0.0012388017494231462,-0.39462265372276306,-0.2334219068288803,-9.995680809020996,3,1,44.0,0,0,1993,1902
25.55586300,25555863,1,-0.002554387552663684,-0.0019994315225631,0.0012388017494231462,-0.39462265372276306,-0.2334219068288803,-9.995680809020996,3,1,44.0,0,0,1993,1902
25.55795400,25557954,1,-0.002554388716816902,-0.0019994315225631,0.0012388017494231462,-0.39462265372276306,-0.2334219068288803,-9.995680809020996,3,1,44.0,0,0,1993,1902
25.56050500,25560505,1,-0.0025543870870023966,-0.0019994315225631,0.0012388017494231462,-0.39462265372276306,-0.2334219068288803,-9.995680809020996,3,1,44.0,0,0,1993,1902
25.56301900,25563019,1,-0.002554388716816902,-0.0019994315225631,0.0012388017494231462,-0.39462265372276306,-0.2334219068288803,-9.995680809020996,3,1,44.0,0,0,1993,1902
25.56553400,25565534,1,-0.0025543870870023966,-0.0019994315225631,0.0012388017494231462,-0.39462265372276306,-0.2334219068288803,-9.995680809020996,3,1,44.0,0,0,1993,1902
25.56898800,25568988,1,-0.002554387552663684,-0.0019994315225631,0.0012388017494231462,-0.39462265372276306,-0.2334219068288803,-9.995680809020996,3,1,44.0,0,0,1993,1902
25.57052200,25570522,1,-0.002554388018324971,-0.0019994315225631,0.0012388017494231462,-0.39462265372276306,-0.2334219068288803,-9.995680809020996,3,1,44.0,0,0,1993,1902
25.57301800,25573018,1,-0.0025543870870023966,-0.0019994315225631,0.0012388017494231462,-0.39462265372276306,-0.2334219068288803,-9.995680809020996,3,1,44.0,0,0,1993,1902
25.57552100,25575521,1,-0.002554388949647546,-0.0019994315225631,0.0012388017494231462,-0.39462265372276306,-0.2334219068288803,-9.995680809020996,3,1,44.0,0,0,1993,1902
25.57801200,25578012,1,-0.002554386854171753,-0.0019994315225631,0.0012388017494231462,-0.39462265372276306,-0.2334219068288803,-9.995680809020996,3,1,44.0,0,0,1993,1902
25.58091200,25580912,1,-0.0025543884839862585,-0.0019994315225631,0.0012388017494231462,-0.39462265372276306,-0.2334219068288803,-9.995680809020996,3,1,44.0,0,0,1993,1902
25.58301600,25583016,1,-0.002554387552663684,-0.0019994315225631,0.0012388017494231462,-0.39462265372276306,-0.2334219068288803,-9.995680809020996,3,1,44.0,0,0,1993,1902
25.58558100,25585581,1,-0.0025543870870023966,-0.0019994315225631,0.0012388017494231462,-0.39462265372276306,-0.2334219068288803,-9.995680809020996,3,1,44.0,0,0,1993,1902
25.58801800,25588018,1,-0.002554388716816902,-0.0019994315225631,0.0012388017494231462,-0.39462265372276306,-0.2334219068288803,-9.995680809020996,3,1,44.0,0,0,1993,1902
25.59053600,25590536,1,-0.0025543870870023966,-0.0019994315225631,0.0012388017494231462,-0.39462265372276306,-0.2334219068288803,-9.995680809020996,3,1,44.0,0,0,1993,1902
25.59340900,25593409,1,-0.002554388716816902,-0.0019994315225631,0.0012388017494231462,-0.39462265372276306,-0.2334219068288803,-9.995680809020996,3,1,44.0,0,0,1993,1902
25.59552200,25595522,1,-0.0025543870870023966,-0.0019994315225631,0.0012388017494231462,-0.39462265372276306,-0.2334219068288803,-9.995680809020996,3,1,44.0,0,0,1993,1902
25.59804500,25598045,1,-0.002554388251155615,-0.0019994315225631,0.0012388017494231462,-0.39462265372276306,-0.2334219068288803,-9.995680809020996,3,1,44.0,0,0,1993,1902
25.60051100,25600511,1,-0.002554388018324971,-0.0019994315225631,0.0012388017494231462,-0.39462265372276306,-0.2334219068288803,-9.995680809020996,3,1,44.0,0,0,1993,1902
25.60300600,25603006,1,-0.0025543870870023966,-0.0019994315225631,0.0012388017494231462,-0.39462265372276306,-0.2334219068288803,-9.995680809020996,3,1,44.0,0,0,1993,1902
25.60594500,25605945,1,-0.002554388949647546,-0.0019994315225631,0.0012388017494231462,-0.39462265372276306,-0.2334219068288803,-9.995680809020996,3,1,44.0,0,0,1993,1902
25.60801600,25608016,1,-0.002554386854171753,-0.0019994315225631,0.0012388017494231462,-0.39462265372276306,-0.2334219068288803,-9.995680809020996,3,1,44.0,0,0,1993,1902
25.61053000,25610530,1,-0.0025543884839862585,-0.0019994315225631,0.0012388017494231462,-0.39462265372276306,-0.2334219068288803,-9.995680809020996,3,1,44.0,0,0,1993,1902
25.61304100,25613041,1,-0.002554388018324971,-0.0019994315225631,0.0012388017494231462,-0.39462265372276306,-0.2334219068288803,-9.995680809020996,3,1,44.0,0,0,1993,1902
25.61553300,25615533,1,-0.002554387552663684,-0.0019994315225631,0.0012388017494231462,-0.39462265372276306,-0.2334219068288803,-9.995680809020996,3,1,44.0,0,0,1993,1902
25.61836500,25618365,1,-0.002554388716816902,-0.0019994315225631,0.0012388017494231462,-0.39462265372276306,-0.2334219068288803,-9.995680809020996,3,1,44.0,0,0,1993,1902
25.62045700,25620457,1,-0.0025543870870023966,-0.0019994315225631,0.0012388017494231462,-0.39462265372276306,-0.2334219068288803,-9.995680809020996,3,1,44.0,0,0,1993,1902
25.62301000,25623010,1,-0.002554388716816902,-0.0019994315225631,0.0012388017494231462,-0.39462265372276306,-0.2334219068288803,-9.995680809020996,3,1,44.0,0,0,1993,1902
25.62570700,25625707,1,-0.0025543870870023966,-0.0019994315225631,0.0012388017494231462,-0.39462265372276306,-0.2334219068288803,-9.995680809020996,3,1,44.0,0,0,1993,1902
25.62801600,25628016,1,-0.002554388251155615,-0.0019994315225631,0.0012388017494231462,-0.39462265372276306,-0.2334219068288803,-9.995680809020996,3,1,44.0,0,0,1993,1902
25.63092200,25630922,1,-0.002554388716816902,-0.0019994315225631,0.0012388017494231462,-0.39462265372276306,-0.2334219068288803,-9.995680809020996,3,1,44.0,0,0,1993,1902
25.63302200,25633022,1,-0.0025543870870023966,-0.0019994315225631,0.0012388017494231462,-0.39462265372276306,-0.2334219068288803,-9.995680809020996,3,1,44.0,0,0,1993,1902
25.63552000,25635520,1,-0.002554388949647546,-0.0019994315225631,0.0012388017494231462,-0.39462265372276306,-0.2334219068288803,-9.995680809020996,3,1,44.0,0,0,1993,1902
25.63801900,25638019,1,-0.002554386854171753,-0.0019994315225631,0.0012388017494231462,-0.39462265372276306,-0.2334219068288803,-9.995680809020996,3,1,44.0,0,0,1993,1902
25.64052500,25640525,1,-0.0025543884839862585,-0.0019994315225631,0.0012388017494231462,-0.39462265372276306,-0.2334219068288803,-9.995680809020996,3,1,44.0,0,0,1993,1902
25.64337400,25643374,1,-0.002554387552663684,-0.0019994315225631,0.0012388017494231462,-0.39462265372276306,-0.2334219068288803,-9.995680809020996,3,1,44.0,0,0,1993,1902
25.64555400,25645554,1,-0.002554387552663684,-0.0019994315225631,0.0012388017494231462,-0.39462265372276306,-0.2334219068288803,-9.995680809020996,3,1,44.0,0,0,1993,1902
25.64800200,25648002,1,-0.002554388949647546,-0.0019994315225631,0.0012388017494231462,-0.39462265372276306,-0.2334219068288803,-9.995680809020996,3,1,44.0,0,0,1993,1902
25.65052500,25650525,1,-0.0025543870870023966,-0.0019994315225631,0.0012388017494231462,-0.39462265372276306,-0.2334219068288803,-9.995680809020996,3,1,44.0,0,0,1993,1902
25.65305400,25653054,1,-0.002554388716816902,-0.0019994315225631,0.0012388017494231462,-0.39462265372276306,-0.2334219068288803,-9.995680809020996,3,1,44.0,0,0,1993,1712
25.65588400,25655884,1,-0.0025543870870023966,-0.0019994315225631,0.0012388017494231462,-0.3670264780521393,-0.2297910749912262,-9.992348670959473,3,1,44.0,0,0,1993,1712
25.65803800,25658038,1,-0.002554388251155615,-0.0019994315225631,0.0012388017494231462,-0.34354037046432495,-0.22861191630363464,-9.986052513122559,3,1,44.0,0,0,1993,1712
25.66056500,25660565,1,-0.002554388018324971,-0.0019994315225631,0.0012388017494231462,-0.3312757611274719,-0.22859326004981995,-9.98157024383545,3,1,44.0,0,0,1993,1712
25.66304900,25663049,1,-0.0025543870870023966,-0.0019994315225631,0.0012388017494231462,-0.3266635835170746,-0.22684712707996368,-9.981040954589844,3,1,44.0,0,0,1993,1712
25.66555000,25665550,1,-0.002554388949647546,-0.0019994315225631,0.0012388017494231462,-0.32818666100502014,-0.2269536703824997,-9.984594345092773,3,1,44.0,0,0,1993,1712
25.66908400,25669084,1,-0.002554386854171753,-0.0019994315225631,0.0012388017494231462,-0.33502909541130066,-0.2297019213438034,-9.988604545593262,3,1,44.0,0,0,1993,1712
25.67048300,25670483,1,-0.0025543884839862585,-0.0019994315225631,0.0012388017494231462,-0.34375637769699097,-0.2331078201532364,-9.987826347351074,3,1,44.0,0,0,1993,1712
25.67304000,25673040,1,-0.002554387552663684,-0.0019994315225631,0.0012388017494231462,-0.3581579625606537,-0.2363637387752533,-9.982148170471191,3,1,44.0,0,0,1993,1712
25.67554400,25675544,1,-0.002554387552663684,-0.0019994315225631,0.0012388017494231462,-0.3713683485984802,-0.23933511972427368,-9.979352951049805,3,1,44.0,0,0,1993,1712
25.67802700,25678027,1,-0.002553376369178295,-0.0019963940139859915,0.001251964713446796,-0.3830854296684265,-0.24057775735855103,-9.977624893188477,4,1,44.0,0,0,1993,1712
25.68179000,25681790,1,-0.002553376369178295,-0.0019963940139859915,0.001251964713446796,-0.3973684310913086,-0.24200309813022614,-9.975428581237793,4,1,44.0,0,0,1993,1712
25.68300000,25683000,1,-0.002553376369178295,-0.0019963940139859915,0.001251964713446796,-0.4027687907218933,-0.24245065450668335,-9.976913452148438,4,1,44.0,0,0,1993,1712
25.68553000,25685530,1,-0.002553376369178295,-0.0019963940139859915,0.001251964713446796,-0.4068920612335205,-0.24076995253562927,-9.982132911682129,4,1,44.0,0,0,1993,1712
25.68799200,25687992,1,-0.002553376369178295,-0.0019963940139859915,0.001251964713446796,-0.40746885538101196,-0.2370145618915558,-9.98648738861084,4,1,44.0,0,0,1993,1712
25.69052800,25690528,1,-0.002553376369178295,-0.0019963940139859915,0.001251964713446796,-0.40729883313179016,-0.23403261601924896,-9.991064071655273,4,1,44.0,0,0,1993,1712
25.69343900,25693439,1,-0.0027548670768737793,-0.001789479749277234,0.0019795771222561598,-0.4063219130039215,-0.236327663064003,-9.992593765258789,4,1,44.0,0,0,1993,1712
25.69545900,25695459,1,-0.0017653085524216294,-1.621786032046657e-05,0.0037180837243795395,-0.4073113203048706,-0.2373197227716446,-9.99422836303711,4,1,44.0,0,0,1993,1712
25.69812100,25698121,1,-0.0003505132917780429,0.001708011724986136,0.004245151299983263,-0.41098982095718384,-0.2391623705625534,-9.995484352111816,4,1,44.0,0,0,1993,1712
25.70051700,25700517,1,0.0015221727080643177,0.0039998916909098625,0.003998615313321352,-0.41434213519096375,-0.23965156078338623,-9.994328498840332,4,1,44.0,0,0,1993,1712
25.70306900,25703069,1,0.003374964464455843,0.005138056818395853,0.002998366951942444,-0.41682296991348267,-0.23846375942230225,-9.996466636657715,4,1,44.0,0,0,1993,1712
25.70597500,25705975,1,0.003992851823568344,0.005014006048440933,0.0022037688177078962,-0.4193737506866455,-0.23667040467262268,-9.998132705688477,4,1,44.0,0,0,1993,1712
25.70804400,25708044,1,0.0043378062546253204,0.004934210330247879,0.0016484248917549849,-0.4217604398727417,-0.2361895591020584,-9.99987506866455,4,1,44.0,0,0,1993,1712
25.71051600,25710516,1,0.004263473208993673,0.004255387932062149,0.0007876639137975872,-0.42094579339027405,-0.23566079139709473,-9.996853828430176,4,1,44.0,0,0,1993,1712
25.71304200,25713042,1,0.0038663202431052923,0.003688297001644969,0.0006549321697093546,-0.41783276200294495,-0.23552368581295013,-9.991518020629883,4,1,44.0,0,0,1993,1712
25.71553800,25715538,1,0.003668032120913267,0.0025155951734632254,0.000440916366642341,-0.4154943525791168,-0.2363138496875763,-9.987330436706543,4,1,44.0,0,0,1993,1712
25.71838600,25718386,1,0.0027352147735655308,0.0014553648652508855,0.001289796899072826,-0.414323627948761,-0.23748499155044556,-9.982760429382324,4,1,44.0,0,0,1993,1712
25.72056800,25720568,1,0.0022444066125899553,0.0010860594920814037,0.0016089670825749636,-0.41456618905067444,-0.23749172687530518,-9.983415603637695,4,1,44.0,0,0,1993,1712
25.72304000,25723040,1,0.0016353739192709327,0.0006537450244650245,0.001782040810212493,-0.41654860973358154,-0.23628421127796173,-9.985967636108398,4,1,44.0,0,0,1993,1712
25.72565100,25725651,1,0.0011513405479490757,-0.00016794238763395697,0.0015785382129251957,-0.41737568378448486,-0.23326422274112701,-9.988326072692871,4,1,44.0,0,0,1993,1712
25.72800400,25728004,1,0.0010779479052871466,-0.0003986319643445313,0.0013986938865855336,-0.41820308566093445,-0.2315858155488968,-9.99048900604248,4,1,44.0,0,0,1993,1712
25.73095200,25730952,1,0.0007708708290010691,-0.0006726985448040068,0.0015024584718048573,-0.4215218424797058,-0.23159456253051758,-9.99360179901123,4,1,44.0,0,0,1993,1712
25.73305200,25733052,1,0.0004756150592584163,-0.0006786754820495844,0.0007908889092504978,-0.42305153608322144,-0.23259608447551727,-9.993208885192871,4,1,44.0,0,0,1993,1712
25.73555000,25735550,1,0.00028038868913426995,-0.0005234629497863352,-8.93608303158544e-05,-0.4234144389629364,-0.2372349202632904,-9.989954948425293,4,1,44.0,0,0,1993,1712
25.73803300,25738033,1,0.0003470075607765466,-0.0007198688690550625,-0.00024391601618845016,-0.4222981333732605,-0.238872230052948,-9.987558364868164,4,1,44.0,0,0,1993,1712
25.74054300,25740543,1,0.0001843222271418199,-0.0008551511564292014,0.0002406061685178429,-0.4187694191932678,-0.23973865807056427,-9.984969139099121,4,1,44.0,0,0,1993,1712
25.74337500,25743375,1,0.0001978899963432923,-0.0010142124956473708,9.878251876216382e-05,-0.41361203789711,-0.2404486984014511,-9.98182201385498,4,1,44.0,0,0,1993,1712
25.74551900,25745519,1,-0.00011195027036592364,-0.00139152305200696,0.00016011828847695142,-0.4099167585372925,-0.24048741161823273,-9.978378295898438,4,1,44.0,0,0,1993,1712
25.74806200,25748062,1,-9.88974716165103e-05,-0.001138571067713201,0.00025584790273569524,-0.4090879559516907,-0.24001963436603546,-9.976374626159668,4,1,44.0,0,0,1993,1712
25.75055300,25750553,1,-0.00019048215472139418,-0.0007790788658894598,0.00014797951735090464,-0.40914738178253174,-0.24037420749664307,-9.974139213562012,4,1,44.0,0,0,1993,1712
25.75308300,25753083,1,-7.554690819233656e-05,-0.0008771817083470523,-0.00016780017176643014,-0.4090119004249573,-0.24161987006664276,-9.972213745117188,4,1,44.0,0,0,1993,1712
25.75595800,25755958,1,-0.0004689986235462129,-0.0005289553664624691,0.00012191398855065927,-0.4096851944923401,-0.24711266160011292,-9.975249290466309,4,1,44.0,0,0,1993,1712
25.75804300,25758043,1,-0.0005728810792788863,-0.0004892146680504084,0.000562550441827625,-0.410200297832489,-0.25179168581962585,-9.977655410766602,4,1,44.0,0,0,1993,1712
25.76053700,25760537,1,-0.0003189458220731467,-0.0002844544651452452,0.0005970191559754312,-0.4093877971172333,-0.25231438875198364,-9.983417510986328,4,1,44.0,0,0,1993,1712
25.76299600,25762996,1,0.0002817925123963505,-0.00010079290223075077,0.00011175597319379449,-0.40802285075187683,-0.2506484091281891,-9.987956047058105,4,1,44.0,0,0,1993,1712
25.76557200,25765572,1,0.0007475028978660703,0.00018191493290942162,-0.0002869667951017618,-0.40733110904693604,-0.24801205098628998,-9.991788864135742,4,1,44.0,0,0,1993,1712
25.76905300,25769053,1,0.0012273973552510142,0.0002694518188945949,-0.0005651107640005648,-0.4035114049911499,-0.24389995634555817,-9.990694046020508,4,1,44.0,0,0,1993,1712
25.77060900,25770609,1,0.0015211798017844558,0.0003546529042068869,-0.00048558367416262627,-0.4020095467567444,-0.24145928025245667,-9.987196922302246,4,1,44.0,0,0,1993,1712
25.77304600,25773046,1,0.0018216778989881277,0.0008457470103166997,-0.00045172960381023586,-0.403108149766922,-0.2374679148197174,-9.982475280761719,4,1,44.0,0,0,1993,1712
25.77555300,25775553,1,0.0022045148070901632,0.0010077990591526031,-0.0007078670314513147,-0.4061584770679474,-0.23568052053451538,-9.980040550231934,4,1,44.0,0,0,1993,1712
25.77798600,25777986,1,0.0027053928934037685,0.0012765642022714019,-0.0005542478756979108,-0.411126971244812,-0.23212561011314392,-9.981361389160156,4,1,44.0,0,0,1993,1712
25.78097000,25780970,1,0.0029540215618908405,0.0016893973806872964,-0.0006434495444409549,-0.4172389805316925,-0.2297595739364624,-9.981295585632324,4,1,44.0,0,0,1993,1712
25.78305300,25783053,1,0.0020706779323518276,0.0017916556680575013,-0.0007070624269545078,-0.42051663994789124,-0.2314499020576477,-9.980149269104004,4,1,44.0,0,0,1993,1712
25.78555000,25785550,1,0.0013106080004945397,0.0014670774107798934,-0.0007327281637117267,-0.4185544550418854,-0.23311050236225128,-9.982765197753906,4,1,44.0,0,0,1993,1712
25.78803900,25788039,1,0.0008981850696727633,0.0011498203966766596,-0.0006649263668805361,-0.41499778628349304,-0.2337924838066101,-9.985488891601562,4,1,44.0,0,0,1993,1712
25.79056500,25790565,1,0.00044951390009373426,0.001385651994496584,-5.583332313108258e-05,-0.40933114290237427,-0.23598092794418335,-9.986727714538574,4,1,44.0,0,0,1993,1712
25.79343800,25793438,1,-5.8723737311083823e-05,0.0020212968811392784,-0.00044788941158913076,-0.4054592549800873,-0.2388768494129181,-9.98495864868164,4,1,44.0,0,0,1993,1712
25.79553400,25795534,1,-0.0006941644242033362,0.0019585906993597746,-0.0002776682667899877,-0.4034215211868286,-0.24006937444210052,-9.984472274780273,4,1,44.0,0,0,1993,1712
25.79806700,25798067,1,-0.0011268651578575373,0.0018265580292791128,0.0007718636770732701,-0.405362069606781,-0.23947758972644806,-9.986197471618652,4,1,44.0,0,0,1993,1712
25.80053700,25800537,1,-0.001272138673812151,0.0015913150273263454,0.0007115492480807006,-0.40783804655075073,-0.23836225271224976,-9.98747730255127,4,1,44.0,0,0,1993,1712
25.80306300,25803063,1,-0.0011842551175504923,0.0006548698293045163,-0.00031052593840286136,-0.40942516922950745,-0.23461119830608368,-9.987658500671387,4,1,44.0,0,0,1993,1712
25.80598000,25805980,1,-0.0013999850489199162,-0.000686595740262419,-0.0008013192564249039,-0.4102325439453125,-0.23160427808761597,-9.987940788269043,4,1,44.0,0,0,1993,1712
25.80802000,25808020,1,-0.0009351328480988741,-0.0019307284383103251,-0.00041369631071574986,-0.4108501970767975,-0.22992174327373505,-9.988948822021484,4,1,44.0,0,0,1993,1712
25.81055700,25810557,1,-0.0008215423440560699,-0.0020306571386754513,-5.6804226915119216e-05,-0.4102674424648285,-0.23152023553848267,-9.987025260925293,4,1,44.0,0,0,1993,1712
25.81305300,25813053,1,-0.0009666461264714599,-0.0021063918247818947,-0.00017808261327445507,-0.40966036915779114,-0.2347564995288849,-9.985506057739258,4,1,44.0,0,0,1993,1712
25.81556700,25815567,1,-0.0009961886098608375,-0.002106436062604189,-0.00023845334362704307,-0.4108511507511139,-0.23603570461273193,-9.984403610229492,4,1,44.0,0,0,1993,1712
25.81846000,25818460,1,-0.0009600406046956778,-0.0021147464867681265,-0.0003621016221586615,-0.4135282337665558,-0.23534461855888367,-9.984939575195312,4,1,44.0,0,0,1993,1712
25.82054800,25820548,1,-0.0012687999987974763,-0.0018396236700937152,-0.0001638332469156012,-0.41366711258888245,-0.23783524334430695,-9.984837532043457,4,1,44.0,0,0,1993,1712
25.82302700,25823027,1,-0.0011816349579021335,-0.001059410860762,-6.371932977344841e-05,-0.4115678668022156,-0.24177765846252441,-9.983756065368652,4,1,44.0,0,0,1993,1712
25.82567800,25825678,1,-0.0013584124390035868,-0.0003136960731353611,0.00015447131590917706,-0.40907153487205505,-0.24285173416137695,-9.981818199157715,4,1,44.0,0,0,1993,1712
25.82806100,25828061,1,-0.0015688547864556313,-0.0002919016405940056,0.0004384877101983875,-0.4029723107814789,-0.24232780933380127,-9.985276222229004,4,1,44.0,0,0,1993,1712
25.83090900,25830909,1,-0.001186281442642212,-0.00024493320961482823,0.0007402166374959052,-0.3967205286026001,-0.241925910115242,-9.986686706542969,4,1,44.0,0,0,1993,1712
25.83304400,25833044,1,-0.00071375333936885,9.368963219458237e-05,0.0002504137810319662,-0.39386069774627686,-0.2406342327594757,-9.985491752624512,4,1,44.0,0,0,1993,1712
25.83554800,25835548,1,-0.0009349513566121459,0.0007310108630917966,1.32368386402959e-05,-0.396102637052536,-0.23905248939990997,-9.980740547180176,4,1,44.0,0,0,1993,1712
25.83804500,25838045,1,-0.0008360243518836796,0.001130218617618084,0.00010880525223910809,-0.3994281589984894,-0.23718702793121338,-9.979511260986328,4,1,44.0,0,0,1993,1712
