timestamp,TimeUS,I,GyrX,GyrY,GyrZ,AccX,AccY,AccZ,EG,EA,T,GH,AH,GHz,AHz
149.84637900,149846379,1,-0.0021062977612018585,-0.0022880148608237505,0.0014659633161500096,-0.49611181020736694,-0.14376255869865417,-9.949853897094727,32,1,44.0,0,0,2026,1974
149.84797700,149847977,1,-0.0021062963642179966,-0.0022880148608237505,0.0014659633161500096,-0.49611181020736694,-0.14376255869865417,-9.949853897094727,32,1,44.0,0,0,2026,1974
149.85042200,149850422,1,-0.002106297295540571,-0.002288013929501176,0.0014659633161500096,-0.49611181020736694,-0.14376255869865417,-9.949853897094727,32,1,44.0,0,0,2026,1974
149.85291300,149852913,1,-0.0021062977612018585,-0.002288015326485038,0.0014659633161500096,-0.49611181020736694,-0.14376255869865417,-9.949853897094727,32,1,44.0,0,0,2026,1974
149.85598500,149855985,1,-0.0021062963642179966,-0.0022880136966705322,0.0014659633161500096,-0.49611181020736694,-0.14376255869865417,-9.949853897094727,32,1,44.0,0,0,2026,1974
149.85790900,149857909,1,-0.0021062977612018585,-0.002288015093654394,0.0014659633161500096,-0.49611181020736694,-0.14376255869865417,-9.949853897094727,32,1,44.0,0,0,2026,1974
149.86040900,149860409,1,-0.0021062963642179966,-0.0022880148608237505,0.0014659633161500096,-0.49611181020736694,-0.14376255869865417,-9.949853897094727,32,1,44.0,0,0,2026,1974
149.86291400,149862914,1,-0.002106297528371215,-0.0022880141623318195,0.0014659633161500096,-0.49611181020736694,-0.14376255869865417,-9.949853897094727,32,1,44.0,0,0,2026,1974
149.86541600,149865416,1,-0.002106296829879284,-0.002288015093654394,0.0014659633161500096,-0.49611181020736694,-0.14376255869865417,-9.949853897094727,32,1,44.0,0,0,2026,1974
149.86840700,149868407,1,-0.002106296829879284,-0.0022880136966705322,0.0014659633161500096,-0.49611181020736694,-0.14376255869865417,-9.949853897094727,32,1,44.0,0,0,2026,1974
149.87041600,149870416,1,-0.0021062977612018585,-0.002288015326485038,0.0014659633161500096,-0.49611181020736694,-0.14376255869865417,-9.949853897094727,32,1,44.0,0,0,2026,1974
149.87292700,149872927,1,-0.0021062963642179966,-0.0022880141623318195,0.0014659633161500096,-0.49611181020736694,-0.14376255869865417,-9.949853897094727,32,1,44.0,0,0,2026,1974
149.87545000,149875450,1,-0.0021062977612018585,-0.0022880148608237505,0.0014659633161500096,-0.49611181020736694,-0.14376255869865417,-9.949853897094727,32,1,44.0,0,0,2026,1974
149.87790900,149877909,1,-0.0021062963642179966,-0.0022880148608237505,0.0014659633161500096,-0.49611181020736694,-0.14376255869865417,-9.949853897094727,32,1,44.0,0,0,2026,1974
149.88084900,149880849,1,-0.002106296829879284,-0.0022880136966705322,0.0014659633161500096,-0.49611181020736694,-0.14376255869865417,-9.949853897094727,32,1,44.0,0,0,2026,1974
149.88293200,149882932,1,-0.002106297295540571,-0.002288015326485038,0.0014659633161500096,-0.49611181020736694,-0.14376255869865417,-9.949853897094727,32,1,44.0,0,0,2026,1974
149.88541700,149885417,1,-0.0021062963642179966,-0.0022880136966705322,0.0014659633161500096,-0.49611181020736694,-0.14376255869865417,-9.949853897094727,32,1,44.0,0,0,2026,1974
149.88790800,149887908,1,-0.0021062977612018585,-0.002288015093654394,0.0014659633161500096,-0.49611181020736694,-0.14376255869865417,-9.949853897094727,32,1,44.0,0,0,2026,1974
149.89042400,149890424,1,-0.0021062963642179966,-0.0022880141623318195,0.0014659633161500096,-0.49611181020736694,-0.14376255869865417,-9.949853897094727,32,1,44.0,0,0,2026,1974
149.89377400,149893774,1,-0.002106297295540571,-0.002288013929501176,0.0014659633161500096,-0.49611181020736694,-0.14376255869865417,-9.949853897094727,32,1,44.0,0,0,2026,1974
149.89544300,149895443,1,-0.002106296829879284,-0.002288015093654394,0.0014659633161500096,-0.49611181020736694,-0.14376255869865417,-9.949853897094727,32,1,44.0,0,0,2026,1974
149.89791200,149897912,1,-0.002106296829879284,-0.0022880136966705322,0.0014659633161500096,-0.49611181020736694,-0.14376255869865417,-9.949853897094727,32,1,44.0,0,0,2026,1974
149.90043100,149900431,1,-0.0021062977612018585,-0.002288015093654394,0.0014659633161500096,-0.49611181020736694,-0.14376255869865417,-9.949853897094727,32,1,44.0,0,0,2026,1974
149.90292000,149902920,1,-0.002106296131387353,-0.002288013929501176,0.0014659633161500096,-0.49611181020736694,-0.14376255869865417,-9.949853897094727,32,1,44.0,0,0,2026,1974
149.90612300,149906123,1,-0.002106297528371215,-0.0022880141623318195,0.0014659633161500096,-0.49611181020736694,-0.14376255869865417,-9.949853897094727,32,1,44.0,0,0,2026,1974
149.90790800,149907908,1,-0.0021062963642179966,-0.0022880148608237505,0.0014659633161500096,-0.49611181020736694,-0.14376255869865417,-9.949853897094727,32,1,44.0,0,0,2026,1974
149.91041800,149910418,1,-0.002106297295540571,-0.002288013929501176,0.0014659633161500096,-0.49611181020736694,-0.14376255869865417,-9.949853897094727,32,1,44.0,0,0,2026,1974
149.91298700,149912987,1,-0.0021062977612018585,-0.002288015326485038,0.0014659633161500096,-0.49611181020736694,-0.14376255869865417,-9.949853897094727,32,1,44.0,0,0,2026,1974
149.91543100,149915431,1,-0.0021062963642179966,-0.0022880136966705322,0.0014659633161500096,-0.49611181020736694,-0.14376255869865417,-9.949853897094727,32,1,44.0,0,0,2026,1974
149.91830000,149918300,1,-0.0021062977612018585,-0.002288015093654394,0.0014659633161500096,-0.49611181020736694,-0.14376255869865417,-9.949853897094727,32,1,44.0,0,0,2026,1974
149.92040600,149920406,1,-0.0021062963642179966,-0.0022880148608237505,0.0014659633161500096,-0.49611181020736694,-0.14376255869865417,-9.949853897094727,32,1,44.0,0,0,2026,1974
149.92294000,149922940,1,-0.002106297528371215,-0.0022880141623318195,0.0014659633161500096,-0.49611181020736694,-0.14376255869865417,-9.949853897094727,32,1,44.0,0,0,2026,1974
149.92537100,149925371,1,-0.002106296829879284,-0.002288015093654394,0.0014659633161500096,-0.49611181020736694,-0.14376255869865417,-9.949853897094727,32,1,44.0,0,0,2026,1974
149.92793800,149927938,1,-0.002106296829879284,-0.0022880136966705322,0.0014659633161500096,-0.49611181020736694,-0.14376255869865417,-9.949853897094727,32,1,44.0,0,0,2026,1974
149.93084500,149930845,1,-0.0021062977612018585,-0.002288015326485038,0.0014659633161500096,-0.49611181020736694,-0.14376255869865417,-9.949853897094727,32,1,44.0,0,0,2026,1974
149.93293800,149932938,1,-0.0021062963642179966,-0.0022880141623318195,0.0014659633161500096,-0.49611181020736694,-0.14376255869865417,-9.949853897094727,32,1,44.0,0,0,2026,1974
149.93544100,149935441,1,-0.0021062977612018585,-0.0022880148608237505,0.0014659633161500096,-0.49611181020736694,-0.14376255869865417,-9.949853897094727,32,1,44.0,0,0,2026,1974
149.93790600,149937906,1,-0.0021062963642179966,-0.0022880148608237505,0.0014659633161500096,-0.49611181020736694,-0.14376255869865417,-9.949853897094727,32,1,44.0,0,0,2026,1974
149.94042100,149940421,1,-0.002106296829879284,-0.0022880136966705322,0.0014659633161500096,-0.49611181020736694,-0.14376255869865417,-9.949853897094727,32,1,44.0,0,0,2026,1974
149.94334600,149943346,1,-0.002106297295540571,-0.002288015326485038,0.0014659633161500096,-0.49611181020736694,-0.14376255869865417,-9.949853897094727,32,1,44.0,0,0,2026,1974
149.94542200,149945422,1,-0.0021062963642179966,-0.0022880136966705322,0.0014659633161500096,-0.49611181020736694,-0.14376255869865417,-9.949853897094727,32,1,44.0,0,0,2026,1974
149.94790000,149947900,1,-0.0021062977612018585,-0.0022880148608237505,0.0014659633161500096,-0.49611181020736694,-0.14376255869865417,-9.949853897094727,32,1,44.0,0,0,2026,1974
149.95040500,149950405,1,-0.0021062963642179966,-0.0022880141623318195,0.0014659633161500096,-0.49611181020736694,-0.14376255869865417,-9.949853897094727,32,1,44.0,0,0,2026,1974
149.95290200,149952902,1,-0.002106297528371215,-0.0022880141623318195,0.0014659633161500096,-0.49611181020736694,-0.14376255869865417,-9.949853897094727,32,1,44.0,0,0,2026,1974
149.95603200,149956032,1,-0.002106297295540571,-0.002288015326485038,0.0014659633161500096,-0.49611181020736694,-0.14376255869865417,-9.949853897094727,32,1,44.0,0,0,2026,1974
149.95791400,149957914,1,-0.002106296829879284,-0.0022880136966705322,0.0014659633161500096,-0.49611181020736694,-0.14376255869865417,-9.949853897094727,32,1,44.0,0,0,2026,1974
149.96041500,149960415,1,-0.0021062977612018585,-0.002288015326485038,0.0014659633161500096,-0.49611181020736694,-0.14376255869865417,-9.949853897094727,32,1,44.0,0,0,2026,1974
149.96289400,149962894,1,-0.0021062963642179966,-0.0022880141623318195,0.0014659633161500096,-0.49611181020736694,-0.14376255869865417,-9.949853897094727,32,1,44.0,0,0,2026,1974
149.96541100,149965411,1,-0.0021062977612018585,-0.0022880148608237505,0.0014659633161500096,-0.49611181020736694,-0.14376255869865417,-9.949853897094727,32,1,44.0,0,0,2026,1974
149.96829200,149968292,1,-0.0021062963642179966,-0.0022880148608237505,0.0014659633161500096,-0.49611181020736694,-0.14376255869865417,-9.949853897094727,32,1,44.0,0,0,2026,1974
149.97048000,149970480,1,-0.002106296829879284,-0.0022880136966705322,0.0014659633161500096,-0.49611181020736694,-0.14376255869865417,-9.949853897094727,32,1,44.0,0,0,2026,1974
149.97296200,149972962,1,-0.002106297295540571,-0.002288015326485038,0.0014659633161500096,-0.49611181020736694,-0.14376255869865417,-9.949853897094727,32,1,44.0,0,0,2026,1974
149.97543200,149975432,1,-0.0021062963642179966,-0.0022880136966705322,0.0014659633161500096,-0.49611181020736694,-0.14376255869865417,-9.949853897094727,32,1,44.0,0,0,2026,1974
149.97789600,149977896,1,-0.0021062977612018585,-0.0022880148608237505,0.0014659633161500096,-0.49611181020736694,-0.14376255869865417,-9.949853897094727,32,1,44.0,0,0,2026,1974
149.98095000,149980950,1,-0.0021062963642179966,-0.0022880141623318195,0.0014659633161500096,-0.49611181020736694,-0.14376255869865417,-9.949853897094727,32,1,44.0,0,0,2026,1974
149.98288700,149982887,1,-0.002106297528371215,-0.0022880141623318195,0.0014659633161500096,-0.49611181020736694,-0.14376255869865417,-9.949853897094727,32,1,44.0,0,0,2026,1974
149.98543600,149985436,1,-0.002106297295540571,-0.002288015326485038,0.0014659633161500096,-0.49611181020736694,-0.14376255869865417,-9.949853897094727,32,1,44.0,0,0,2026,1974
149.98791400,149987914,1,-0.002106296829879284,-0.0022880136966705322,0.0014659633161500096,-0.49611181020736694,-0.14376255869865417,-9.949853897094727,32,1,44.0,0,0,2026,1974
149.99127500,149991275,1,-0.0021062977612018585,-0.002288015326485038,0.0014659633161500096,-0.49611181020736694,-0.14376255869865417,-9.949853897094727,32,1,44.0,0,0,2026,1974
149.99294500,149992945,1,-0.0021062963642179966,-0.0022880141623318195,0.0014659633161500096,-0.49611181020736694,-0.14376255869865417,-9.949853897094727,32,1,44.0,0,0,2026,1974
149.99543700,149995437,1,-0.0021062977612018585,-0.0022880148608237505,0.0014659633161500096,-0.49611181020736694,-0.14376255869865417,-9.949853897094727,32,1,44.0,0,0,2026,1974
149.99789200,149997892,1,-0.0021062963642179966,-0.0022880148608237505,0.0014659633161500096,-0.49611181020736694,-0.14376255869865417,-9.949853897094727,32,1,44.0,0,0,2026,1974
150.00043100,150000431,1,-0.002106296829879284,-0.0022880136966705322,0.0014659633161500096,-0.49611181020736694,-0.14376255869865417,-9.949853897094727,32,1,44.0,0,0,2026,1974
150.00358500,150003585,1,-0.002106297295540571,-0.002288015326485038,0.0014659633161500096,-0.49611181020736694,-0.14376255869865417,-9.949853897094727,32,1,44.0,0,0,2026,1974
150.00544600,150005446,1,-0.002106296131387353,-0.002288013929501176,0.0014659633161500096,-0.49611181020736694,-0.14376255869865417,-9.949853897094727,32,1,44.0,0,0,2026,1974
150.00790500,150007905,1,-0.0021062977612018585,-0.002288015093654394,0.0014659633161500096,-0.49611181020736694,-0.14376255869865417,-9.949853897094727,32,1,44.0,0,0,2026,1974
150.01039900,150010399,1,-0.0021062963642179966,-0.0022880141623318195,0.0014659633161500096,-0.49611181020736694,-0.14376255869865417,-9.949853897094727,32,1,44.0,0,0,2026,1974
150.01288400,150012884,1,-0.002106297295540571,-0.002288013929501176,0.0014659633161500096,-0.49611181020736694,-0.14376255869865417,-9.949853897094727,32,1,44.0,0,0,2026,1974
150.01588200,150015882,1,-0.002106296829879284,-0.002288015093654394,0.0014659633161500096,-0.49611181020736694,-0.14376255869865417,-9.949853897094727,32,1,44.0,0,0,2026,1974
150.01789200,150017892,1,-0.002106296829879284,-0.0022880136966705322,0.0014659633161500096,-0.49611181020736694,-0.14376255869865417,-9.949853897094727,32,1,44.0,0,0,2026,1974
150.02040100,150020401,1,-0.0021062977612018585,-0.002288015093654394,0.0014659633161500096,-0.49611181020736694,-0.14376255869865417,-9.949853897094727,32,1,44.0,0,0,2026,1974
150.02292000,150022920,1,-0.002106296131387353,-0.002288013929501176,0.0014659633161500096,-0.49611181020736694,-0.14376255869865417,-9.949853897094727,32,1,44.0,0,0,2026,1974
150.02542100,150025421,1,-0.0021062977612018585,-0.0022880148608237505,0.0014659633161500096,-0.49611181020736694,-0.14376255869865417,-9.949853897094727,32,1,44.0,0,0,2026,1974
150.02834200,150028342,1,-0.002106296829879284,-0.002288015093654394,0.0014659633161500096,-0.49611181020736694,-0.14376255869865417,-9.949853897094727,32,1,44.0,0,0,2026,1974
150.03040000,150030400,1,-0.002106297295540571,-0.002288013929501176,0.0014659633161500096,-0.49611181020736694,-0.14376255869865417,-9.949853897094727,32,1,44.0,0,0,2026,1974
150.03299900,150032999,1,-0.002106297295540571,-0.002288015326485038,0.0014659633161500096,-0.49611181020736694,-0.14376255869865417,-9.949853897094727,32,1,44.0,0,0,2026,1974
150.03547900,150035479,1,-0.002106296131387353,-0.002288013929501176,0.0014659633161500096,-0.49611181020736694,-0.14376255869865417,-9.949853897094727,32,1,44.0,0,0,2026,1974
150.03793400,150037934,1,-0.0021062977612018585,-0.002288015093654394,0.0014659633161500096,-0.49611181020736694,-0.14376255869865417,-9.949853897094727,32,1,44.0,0,0,2026,1974
150.04089700,150040897,1,-0.0021062963642179966,-0.0022880141623318195,0.0014659633161500096,-0.49611181020736694,-0.14376255869865417,-9.949853897094727,32,1,44.0,0,0,2026,1974
150.04289400,150042894,1,-0.002106297295540571,-0.002288013929501176,0.0014659633161500096,-0.49611181020736694,-0.14376255869865417,-9.949853897094727,32,1,44.0,0,0,2026,1974
150.04540600,150045406,1,-0.002106296829879284,-0.002288015093654394,0.0014659633161500096,-0.49611181020736694,-0.14376255869865417,-9.949853897094727,32,1,44.0,0,0,2026,1974
150.04791800,150047918,1,-0.002106296829879284,-0.0022880136966705322,0.0014659633161500096,-0.49611181020736694,-0.14376255869865417,-9.949853897094727,32,1,44.0,0,0,2026,1974
150.05043100,150050431,1,-0.0021062977612018585,-0.002288015093654394,0.0014659633161500096,-0.49611181020736694,-0.14376255869865417,-9.949853897094727,32,1,44.0,0,0,2026,1974
150.05334300,150053343,1,-0.002106296131387353,-0.002288013929501176,0.0014659633161500096,-0.49611181020736694,-0.14376255869865417,-9.949853897094727,32,1,44.0,0,0,2026,1974
150.05549800,150055498,1,-0.0021062977612018585,-0.0022880148608237505,0.0014659633161500096,-0.49611181020736694,-0.14376255869865417,-9.949853897094727,32,1,44.0,0,0,2026,1974
150.05790400,150057904,1,-0.002106296829879284,-0.002288015093654394,0.0014659633161500096,-0.49611181020736694,-0.14376255869865417,-9.949853897094727,32,1,44.0,0,0,2026,1974
150.06040500,150060405,1,-0.002106297295540571,-0.002288013929501176,0.0014659633161500096,-0.49611181020736694,-0.14376255869865417,-9.949853897094727,32,1,44.0,0,0,2026,1974
150.06290400,150062904,1,-0.002106297295540571,-0.002288015326485038,0.0014659633161500096,-0.49611181020736694,-0.14376255869865417,-9.949853897094727,32,1,44.0,0,0,2026,1974
150.06584400,150065844,1,-0.002106296131387353,-0.002288013929501176,0.0014659633161500096,-0.49611181020736694,-0.14376255869865417,-9.949853897094727,32,1,44.0,0,0,2026,1974
150.06792000,150067920,1,-0.0021062977612018585,-0.002288015093654394,0.0014659633161500096,-0.49611181020736694,-0.14376255869865417,-9.949853897094727,32,1,44.0,0,0,2026,1974
150.07042200,150070422,1,-0.0021062963642179966,-0.0022880141623318195,0.0014659633161500096,-0.49611181020736694,-0.14376255869865417,-9.949853897094727,32,1,44.0,0,0,2026,1974
150.07290300,150072903,1,-0.002106297295540571,-0.002288013929501176,0.0014659633161500096,-0.49611181020736694,-0.14376255869865417,-9.949853897094727,32,1,44.0,0,0,2026,1974
150.07543300,150075433,1,-0.002106296829879284,-0.002288015093654394,0.0014659633161500096,-0.49611181020736694,-0.14376255869865417,-9.949853897094727,32,1,44.0,0,0,2026,1974
150.07830700,150078307,1,-0.002106296829879284,-0.0022880136966705322,0.0014659633161500096,-0.49611181020736694,-0.14376255869865417,-9.949853897094727,32,1,44.0,0,0,2026,1974
150.08040400,150080404,1,-0.0021062977612018585,-0.002288015093654394,0.0014659633161500096,-0.49611181020736694,-0.14376255869865417,-9.949853897094727,32,1,44.0,0,0,2026,1974
150.08290000,150082900,1,-0.002106296131387353,-0.002288013929501176,0.0014659633161500096,-0.49611181020736694,-0.14376255869865417,-9.949853897094727,32,1,44.0,0,0,2026,1974
150.08542500,150085425,1,-0.0021062977612018585,-0.0022880148608237505,0.0014659633161500096,-0.49611181020736694,-0.14376255869865417,-9.949853897094727,32,1,44.0,0,0,2026,1974
150.08873200,150088732,1,-0.002106296829879284,-0.002288015093654394,0.0014659633161500096,-0.49611181020736694,-0.14376255869865417,-9.949853897094727,32,1,44.0,0,0,2026,1974
150.09040800,150090408,1,-0.002106297295540571,-0.002288013929501176,0.0014659633161500096,-0.49611181020736694,-0.14376255869865417,-9.949853897094727,32,1,44.0,0,0,2026,1974
150.09291100,150092911,1,-0.002106297295540571,-0.002288015326485038,0.0014659633161500096,-0.49611181020736694,-0.14376255869865417,-9.949853897094727,32,1,44.0,0,0,2026,1974
150.09544900,150095449,1,-0.002106296131387353,-0.002288013929501176,0.0014659633161500096,-0.49611181020736694,-0.14376255869865417,-9.949853897094727,32,1,44.0,0,0,2026,1974
150.09790700,150097907,1,-0.0021062977612018585,-0.002288015093654394,0.0014659633161500096,-0.49611181020736694,-0.14376255869865417,-9.949853897094727,32,1,44.0,0,0,2026,1974
150.10105000,150101050,1,-0.0021062963642179966,-0.0022880141623318195,0.0014659633161500096,-0.49611181020736694,-0.14376255869865417,-9.949853897094727,32,1,44.0,0,0,2026,1974
150.10289100,150102891,1,-0.002106297295540571,-0.002288013929501176,0.0014659633161500096,-0.49611181020736694,-0.14376255869865417,-9.949853897094727,32,1,44.0,0,0,2026,1974
150.10542400,150105424,1,-0.002106296829879284,-0.002288015093654394,0.0014659633161500096,-0.49611181020736694,-0.14376255869865417,-9.949853897094727,32,1,44.0,0,0,2026,1974
150.10790700,150107907,1,-0.002106296829879284,-0.0022880136966705322,0.0014659633161500096,-0.49611181020736694,-0.14376255869865417,-9.949853897094727,32,1,44.0,0,0,2026,1974
150.11040200,150110402,1,-0.0021062977612018585,-0.002288015093654394,0.0014659633161500096,-0.49611181020736694,-0.14376255869865417,-9.949853897094727,32,1,44.0,0,0,2026,1974
150.11336700,150113367,1,-0.002106296131387353,-0.002288013929501176,0.0014659633161500096,-0.49611181020736694,-0.14376255869865417,-9.949853897094727,32,1,44.0,0,0,2026,1974
150.11542900,150115429,1,-0.0021062977612018585,-0.0022880148608237505,0.0014659633161500096,-0.49611181020736694,-0.14376255869865417,-9.949853897094727,32,1,44.0,0,0,2026,1974
150.11790400,150117904,1,-0.002106296829879284,-0.002288015093654394,0.0014659633161500096,-0.49611181020736694,-0.14376255869865417,-9.949853897094727,32,1,44.0,0,0,2026,1974
150.12040700,150120407,1,-0.002106297295540571,-0.002288013929501176,0.0014659633161500096,-0.49611181020736694,-0.14376255869865417,-9.949853897094727,32,1,44.0,0,0,2026,1974
150.12331700,150123317,1,-0.002106297295540571,-0.002288015326485038,0.0014659633161500096,-0.49611181020736694,-0.14376255869865417,-9.949853897094727,32,1,44.0,0,0,2026,1974
150.12544500,150125445,1,-0.002106296131387353,-0.002288013929501176,0.0014659633161500096,-0.49611181020736694,-0.14376255869865417,-9.949853897094727,32,1,44.0,0,0,2026,1974
150.12791000,150127910,1,-0.0021062977612018585,-0.002288015093654394,0.0014659633161500096,-0.49611181020736694,-0.14376255869865417,-9.949853897094727,32,1,44.0,0,0,2026,1974
150.13040100,150130401,1,-0.0021062963642179966,-0.0022880141623318195,0.0014659633161500096,-0.49611181020736694,-0.14376255869865417,-9.949853897094727,32,1,44.0,0,0,2026,1974
150.13293100,150132931,1,-0.002106297295540571,-0.002288013929501176,0.0014659633161500096,-0.49611181020736694,-0.14376255869865417,-9.949853897094727,32,1,44.0,0,0,2026,1974
150.13587200,150135872,1,-0.002106296829879284,-0.002288015093654394,0.0014659633161500096,-0.49611181020736694,-0.14376255869865417,-9.949853897094727,32,1,44.0,0,0,2026,1974
150.13791300,150137913,1,-0.002106296829879284,-0.0022880136966705322,0.0014659633161500096,-0.49611181020736694,-0.14376255869865417,-9.949853897094727,32,1,44.0,0,0,2026,1974
150.14039700,150140397,1,-0.0021062977612018585,-0.002288015093654394,0.0014659633161500096,-0.49611181020736694,-0.14376255869865417,-9.949853897094727,32,1,44.0,0,0,2026,1974
150.14291200,150142912,1,-0.002106296131387353,-0.002288013929501176,0.0014659633161500096,-0.49611181020736694,-0.14376255869865417,-9.949853897094727,32,1,44.0,0,0,2026,1974
150.14536500,150145365,1,-0.0021062977612018585,-0.0022880148608237505,0.0014659633161500096,-0.49611181020736694,-0.14376255869865417,-9.949853897094727,32,1,44.0,0,0,2026,1974
150.14834300,150148343,1,-0.0021062963642179966,-0.0022880148608237505,0.0014659633161500096,-0.49611181020736694,-0.14376255869865417,-9.949853897094727,32,1,44.0,0,0,2026,1974
150.15039800,150150398,1,-0.002106297295540571,-0.002288013929501176,0.0014659633161500096,-0.49611181020736694,-0.14376255869865417,-9.949853897094727,32,1,44.0,0,0,2026,1974
150.15295700,150152957,1,-0.0021062977612018585,-0.002288015326485038,0.0014659633161500096,-0.49611181020736694,-0.14376255869865417,-9.949853897094727,32,1,44.0,0,0,2026,1974
150.15558200,150155582,1,-0.0021062963642179966,-0.0022880136966705322,0.0014659633161500096,-0.49611181020736694,-0.14376255869865417,-9.949853897094727,32,1,44.0,0,0,2026,1974
150.15791000,150157910,1,-0.0021062977612018585,-0.002288015093654394,0.0014659633161500096,-0.49611181020736694,-0.14376255869865417,-9.949853897094727,32,1,44.0,0,0,2026,1974
150.16089600,150160896,1,-0.0021062963642179966,-0.0022880148608237505,0.0014659633161500096,-0.49611181020736694,-0.14376255869865417,-9.949853897094727,32,1,44.0,0,0,2026,1974
150.16290300,150162903,1,-0.002106297528371215,-0.0022880141623318195,0.0014659633161500096,-0.49611181020736694,-0.14376255869865417,-9.949853897094727,32,1,44.0,0,0,2026,1974
150.16541000,150165410,1,-0.002106296829879284,-0.002288015093654394,0.0014659633161500096,-0.49611181020736694,-0.14376255869865417,-9.949853897094727,32,1,44.0,0,0,2026,1974
150.16789900,150167899,1,-0.0021062963642179966,-0.0022880136966705322,0.0014659633161500096,-0.49611181020736694,-0.14376255869865417,-9.949853897094727,32,1,44.0,0,0,2026,1974
150.17040700,150170407,1,-0.0021062977612018585,-0.002288015326485038,0.0014659633161500096,-0.49611181020736694,-0.14376255869865417,-9.949853897094727,32,1,44.0,0,0,2026,1974
150.17330100,150173301,1,-0.002106296131387353,-0.002288013929501176,0.0014659633161500096,-0.49611181020736694,-0.14376255869865417,-9.949853897094727,32,1,44.0,0,0,2026,1974
150.17541800,150175418,1,-0.002106297528371215,-0.0022880141623318195,0.0014659633161500096,-0.49611181020736694,-0.14376255869865417,-9.949853897094727,32,1,44.0,0,0,2026,1974
150.17790300,150177903,1,-0.0021062963642179966,-0.0022880148608237505,0.0014659633161500096,-0.49611181020736694,-0.14376255869865417,-9.949853897094727,32,1,44.0,0,0,2026,1974
150.18040500,150180405,1,-0.002106297295540571,-0.002288013929501176,0.0014659633161500096,-0.49611181020736694,-0.14376255869865417,-9.949853897094727,32,1,44.0,0,0,2026,1974
150.18291200,150182912,1,-0.0021062977612018585,-0.002288015326485038,0.0014659633161500096,-0.49611181020736694,-0.14376255869865417,-9.949853897094727,32,1,44.0,0,0,2026,1974
150.18585000,150185850,1,-0.0021062963642179966,-0.0022880136966705322,0.0014659633161500096,-0.49611181020736694,-0.14376255869865417,-9.949853897094727,32,1,44.0,0,0,2026,1974
150.18789700,150187897,1,-0.0021062977612018585,-0.002288015093654394,0.0014659633161500096,-0.49611181020736694,-0.14376255869865417,-9.949853897094727,32,1,44.0,0,0,2026,1974
150.19043300,150190433,1,-0.0021062963642179966,-0.0022880148608237505,0.0014659633161500096,-0.49611181020736694,-0.14376255869865417,-9.949853897094727,32,1,44.0,0,0,2026,1974
150.19290600,150192906,1,-0.002106297528371215,-0.0022880141623318195,0.0014659633161500096,-0.49611181020736694,-0.14376255869865417,-9.949853897094727,32,1,44.0,0,0,2026,1974
150.19542300,150195423,1,-0.002106296829879284,-0.002288015093654394,0.0014659633161500096,-0.49611181020736694,-0.14376255869865417,-9.949853897094727,32,1,44.0,0,0,2026,1974
150.19913600,150199136,1,-0.002106296829879284,-0.0022880136966705322,0.0014659633161500096,-0.49611181020736694,-0.14376255869865417,-9.949853897094727,32,1,44.0,0,0,2026,1974
150.20041300,150200413,1,-0.0021062977612018585,-0.002288015326485038,0.0014659633161500096,-0.49611181020736694,-0.14376255869865417,-9.949853897094727,32,1,44.0,0,0,2026,1974
150.20289600,150202896,1,-0.0021062963642179966,-0.0022880141623318195,0.0014659633161500096,-0.49611181020736694,-0.14376255869865417,-9.949853897094727,32,1,44.0,0,0,2026,1974
150.20542900,150205429,1,-0.0021062977612018585,-0.0022880148608237505,0.0014659633161500096,-0.49611181020736694,-0.14376255869865417,-9.949853897094727,32,1,44.0,0,0,2026,1974
150.20828000,150208280,1,-0.0021062963642179966,-0.0022880148608237505,0.0014659633161500096,-0.49611181020736694,-0.14376255869865417,-9.949853897094727,32,1,44.0,0,0,2026,1974
150.21039900,150210399,1,-0.002106296829879284,-0.0022880136966705322,0.0014659633161500096,-0.49611181020736694,-0.14376255869865417,-9.949853897094727,32,1,44.0,0,0,2026,1974
150.21290000,150212900,1,-0.002106297295540571,-0.002288015326485038,0.0014659633161500096,-0.49611181020736694,-0.14376255869865417,-9.949853897094727,32,1,44.0,0,0,2026,1974
150.21543100,150215431,1,-0.0021062963642179966,-0.0022880136966705322,0.0014659633161500096,-0.49611181020736694,-0.14376255869865417,-9.949853897094727,32,1,44.0,0,0,2026,1974
150.21789800,150217898,1,-0.0021062977612018585,-0.0022880148608237505,0.0014659633161500096,-0.49611181020736694,-0.14376255869865417,-9.949853897094727,32,1,44.0,0,0,2026,1974
150.22084900,150220849,1,-0.0021062963642179966,-0.0022880141623318195,0.0014659633161500096,-0.49611181020736694,-0.14376255869865417,-9.949853897094727,32,1,44.0,0,0,2026,1974
150.22300200,150223002,1,-0.002106297528371215,-0.0022880141623318195,0.0014659633161500096,-0.49611181020736694,-0.14376255869865417,-9.949853897094727,32,1,44.0,0,0,2026,1974
150.22564000,150225640,1,-0.002106297295540571,-0.002288015326485038,0.0014659633161500096,-0.49611181020736694,-0.14376255869865417,-9.949853897094727,32,1,44.0,0,0,2026,1974
150.22822000,150228220,1,-0.002106296829879284,-0.0022880136966705322,0.0014659633161500096,-0.49611181020736694,-0.14376255869865417,-9.949853897094727,32,1,44.0,0,0,2026,1974
150.23042800,150230428,1,-0.0021062977612018585,-0.002288015326485038,0.0014659633161500096,-0.49611181020736694,-0.14376255869865417,-9.949853897094727,32,1,44.0,0,0,2026,1974
150.23337600,150233376,1,-0.0021062963642179966,-0.0022880141623318195,0.0014659633161500096,-0.49611181020736694,-0.14376255869865417,-9.949853897094727,32,1,44.0,0,0,2026,1974
150.23542500,150235425,1,-0.0021062977612018585,-0.0022880148608237505,0.0014659633161500096,-0.49611181020736694,-0.14376255869865417,-9.949853897094727,32,1,44.0,0,0,2026,1974
150.23790700,150237907,1,-0.0021062963642179966,-0.0022880148608237505,0.0014659633161500096,-0.49611181020736694,-0.14376255869865417,-9.949853897094727,32,1,44.0,0,0,2026,1974
150.24039800,150240398,1,-0.002106296829879284,-0.0022880136966705322,0.0014659633161500096,-0.49611181020736694,-0.14376255869865417,-9.949853897094727,32,1,44.0,0,0,2026,1974
150.24293600,150242936,1,-0.002106297295540571,-0.002288015326485038,0.0014659633161500096,-0.49611181020736694,-0.14376255869865417,-9.949853897094727,32,1,44.0,0,0,2026,1974
150.24580700,150245807,1,-0.0021062963642179966,-0.0022880136966705322,0.0014659633161500096,-0.49611181020736694,-0.14376255869865417,-9.949853897094727,32,1,44.0,0,0,2026,1974
150.24790400,150247904,1,-0.0021062977612018585,-0.0022880148608237505,0.0014659633161500096,-0.49611181020736694,-0.14376255869865417,-9.949853897094727,32,1,44.0,0,0,2026,1974
150.25044000,150250440,1,-0.0021062963642179966,-0.0022880141623318195,0.0014659633161500096,-0.49611181020736694,-0.14376255869865417,-9.949853897094727,32,1,44.0,0,0,2026,1974
150.25295600,150252956,1,-0.002106297295540571,-0.002288013929501176,0.0014659633161500096,-0.49611181020736694,-0.14376255869865417,-9.949853897094727,32,1,44.0,0,0,2026,1974
150.25552100,150255521,1,-0.002106296829879284,-0.002288015093654394,0.0014659633161500096,-0.49611181020736694,-0.14376255869865417,-9.949853897094727,32,1,44.0,0,0,2026,1974
150.25831900,150258319,1,-0.002106296829879284,-0.0022880136966705322,0.0014659633161500096,-0.49611181020736694,-0.14376255869865417,-9.949853897094727,32,1,44.0,0,0,2026,1974
150.26038900,150260389,1,-0.0021062977612018585,-0.002288015093654394,0.0014659633161500096,-0.49611181020736694,-0.14376255869865417,-9.949853897094727,32,1,44.0,0,0,2026,1974
150.26291300,150262913,1,-0.002106296131387353,-0.002288013929501176,0.0014659633161500096,-0.49611181020736694,-0.14376255869865417,-9.949853897094727,32,1,44.0,0,0,2026,1974
150.26540200,150265402,1,-0.0021062977612018585,-0.0022880148608237505,0.0014659633161500096,-0.49611181020736694,-0.14376255869865417,-9.949853897094727,32,1,44.0,0,0,2026,1974
150.26793400,150267934,1,-0.002106296829879284,-0.002288015093654394,0.0014659633161500096,-0.49611181020736694,-0.14376255869865417,-9.949853897094727,32,1,44.0,0,0,2026,1974
150.27084100,150270841,1,-0.002106297295540571,-0.002288013929501176,0.0014659633161500096,-0.49611181020736694,-0.14376255869865417,-9.949853897094727,32,1,44.0,0,0,2026,1974
150.27292500,150272925,1,-0.002106297295540571,-0.002288015326485038,0.0014659633161500096,-0.49611181020736694,-0.14376255869865417,-9.949853897094727,32,1,44.0,0,0,2026,1974
150.27548100,150275481,1,-0.002106296131387353,-0.002288013929501176,0.0014659633161500096,-0.49611181020736694,-0.14376255869865417,-9.949853897094727,32,1,44.0,0,0,2026,1974
150.27790000,150277900,1,-0.0021062977612018585,-0.002288015093654394,0.0014659633161500096,-0.49611181020736694,-0.14376255869865417,-9.949853897094727,32,1,44.0,0,0,2026,1974
150.28041600,150280416,1,-0.0021062963642179966,-0.0022880141623318195,0.0014659633161500096,-0.49611181020736694,-0.14376255869865417,-9.949853897094727,32,1,44.0,0,0,2026,1974
150.28334200,150283342,1,-0.002106297295540571,-0.002288013929501176,0.0014659633161500096,-0.49611181020736694,-0.14376255869865417,-9.949853897094727,32,1,44.0,0,0,2026,1974
150.28541100,150285411,1,-0.002106296829879284,-0.002288015093654394,0.0014659633161500096,-0.49611181020736694,-0.14376255869865417,-9.949853897094727,32,1,44.0,0,0,2026,1974
150.28789800,150287898,1,-0.002106296829879284,-0.0022880136966705322,0.0014659633161500096,-0.49611181020736694,-0.14376255869865417,-9.949853897094727,32,1,44.0,0,0,2026,1974
150.29041400,150290414,1,-0.0021062977612018585,-0.002288015093654394,0.0014659633161500096,-0.49611181020736694,-0.14376255869865417,-9.949853897094727,32,1,44.0,0,0,2026,1974
150.29290800,150292908,1,-0.002106296131387353,-0.002288013929501176,0.0014659633161500096,-0.49611181020736694,-0.14376255869865417,-9.949853897094727,32,1,44.0,0,0,2026,1974
150.29662800,150296628,1,-0.0021062977612018585,-0.0022880148608237505,0.0014659633161500096,-0.49611181020736694,-0.14376255869865417,-9.949853897094727,32,1,44.0,0,0,2026,1974
150.29789100,150297891,1,-0.002106296829879284,-0.002288015093654394,0.0014659633161500096,-0.49611181020736694,-0.14376255869865417,-9.949853897094727,32,1,44.0,0,0,2026,1974
150.30041300,150300413,1,-0.002106297295540571,-0.002288013929501176,0.0014659633161500096,-0.49611181020736694,-0.14376255869865417,-9.949853897094727,32,1,44.0,0,0,2026,1974
150.30289800,150302898,1,-0.002106297295540571,-0.002288015326485038,0.0014659633161500096,-0.49611181020736694,-0.14376255869865417,-9.949853897094727,32,1,44.0,0,0,2026,1974
150.30542900,150305429,1,-0.002106296131387353,-0.002288013929501176,0.0014659633161500096,-0.49611181020736694,-0.14376255869865417,-9.949853897094727,32,1,44.0,0,0,2026,1974
150.30834900,150308349,1,-0.0021062977612018585,-0.002288015093654394,0.0014659633161500096,-0.49611181020736694,-0.14376255869865417,-9.949853897094727,32,1,44.0,0,0,2026,1974
150.31034400,150310344,1,-0.0021062963642179966,-0.0022880141623318195,0.0014659633161500096,-0.49611181020736694,-0.14376255869865417,-9.949853897094727,32,1,44.0,0,0,2026,1974
150.31290400,150312904,1,-0.002106297528371215,-0.0022880141623318195,0.0014659633161500096,-0.49611181020736694,-0.14376255869865417,-9.949853897094727,32,1,44.0,0,0,2026,1974
150.31543000,150315430,1,-0.002106296829879284,-0.002288015093654394,0.0014659633161500096,-0.49611181020736694,-0.14376255869865417,-9.949853897094727,32,1,44.0,0,0,2026,1974
150.31795300,150317953,1,-0.0021062963642179966,-0.0022880136966705322,0.0014659633161500096,-0.49611181020736694,-0.14376255869865417,-9.949853897094727,32,1,44.0,0,0,2026,1974
150.32084200,150320842,1,-0.0021062977612018585,-0.002288015326485038,0.0014659633161500096,-0.49611181020736694,-0.14376255869865417,-9.949853897094727,32,1,44.0,0,0,2026,1974
150.32292400,150322924,1,-0.002106296131387353,-0.002288013929501176,0.0014659633161500096,-0.49611181020736694,-0.14376255869865417,-9.949853897094727,32,1,44.0,0,0,2026,1974
150.32542300,150325423,1,-0.002106297528371215,-0.0022880141623318195,0.0014659633161500096,-0.49611181020736694,-0.14376255869865417,-9.949853897094727,32,1,44.0,0,0,2026,1974
150.32790000,150327900,1,-0.0021062963642179966,-0.0022880148608237505,0.0014659633161500096,-0.49611181020736694,-0.14376255869865417,-9.949853897094727,32,1,44.0,0,0,2026,1974
150.33040500,150330405,1,-0.002106297295540571,-0.002288013929501176,0.0014659633161500096,-0.49611181020736694,-0.14376255869865417,-9.949853897094727,32,1,44.0,0,0,2026,1974
150.33336500,150333365,1,-0.0021062977612018585,-0.002288015326485038,0.0014659633161500096,-0.49611181020736694,-0.14376255869865417,-9.949853897094727,32,1,44.0,0,0,2026,1974
150.33542200,150335422,1,-0.0021062963642179966,-0.0022880136966705322,0.0014659633161500096,-0.49611181020736694,-0.14376255869865417,-9.949853897094727,32,1,44.0,0,0,2026,1974
150.33790400,150337904,1,-0.0021062977612018585,-0.002288015093654394,0.0014659633161500096,-0.49611181020736694,-0.14376255869865417,-9.949853897094727,32,1,44.0,0,0,2026,1974
150.34041400,150340414,1,-0.0021062963642179966,-0.0022880148608237505,0.0014659633161500096,-0.49611181020736694,-0.14376255869865417,-9.949853897094727,32,1,44.0,0,0,2026,1974
150.34290900,150342909,1,-0.002106297528371215,-0.0022880141623318195,0.0014659633161500096,-0.49611181020736694,-0.14376255869865417,-9.949853897094727,32,1,44.0,0,0,2026,1974
150.34579900,150345799,1,-0.002106296829879284,-0.002288015093654394,0.0014659633161500096,-0.49611181020736694,-0.14376255869865417,-9.949853897094727,32,1,44.0,0,0,2026,1974
150.34800200,150348002,1,-0.0021062963642179966,-0.0022880136966705322,0.0014659633161500096,-0.49611181020736694,-0.14376255869865417,-9.949853897094727,32,1,44.0,0,0,2026,1974
150.35040900,150350409,1,-0.0021062977612018585,-0.002288015326485038,0.0014659633161500096,-0.49611181020736694,-0.14376255869865417,-9.949853897094727,32,1,44.0,0,0,2026,1974
150.35290100,150352901,1,-0.002106296131387353,-0.002288013929501176,0.0014659633161500096,-0.49611181020736694,-0.14376255869865417,-9.949853897094727,32,1,44.0,0,0,2026,1974
150.35559400,150355594,1,-0.002106297528371215,-0.0022880141623318195,0.0014659633161500096,-0.49611181020736694,-0.14376255869865417,-9.949853897094727,32,1,44.0,0,0,2026,1974
150.35835300,150358353,1,-0.0021062963642179966,-0.0022880148608237505,0.0014659633161500096,-0.49611181020736694,-0.14376255869865417,-9.949853897094727,32,1,44.0,0,0,2026,1974
150.36042900,150360429,1,-0.002106297295540571,-0.002288013929501176,0.0014659633161500096,-0.49611181020736694,-0.14376255869865417,-9.949853897094727,32,1,44.0,0,0,2026,1974
150.36293000,150362930,1,-0.0021062977612018585,-0.002288015326485038,0.0014659633161500096,-0.49611181020736694,-0.14376255869865417,-9.949853897094727,32,1,44.0,0,0,2026,1974
150.36540500,150365405,1,-0.0021062963642179966,-0.0022880136966705322,0.0014659633161500096,-0.49611181020736694,-0.14376255869865417,-9.949853897094727,32,1,44.0,0,0,2026,1974
150.36784200,150367842,1,-0.0021062977612018585,-0.002288015093654394,0.0014659633161500096,-0.49611181020736694,-0.14376255869865417,-9.949853897094727,32,1,44.0,0,0,2026,1974
150.37087700,150370877,1,-0.0021062963642179966,-0.0022880141623318195,0.0014659633161500096,-0.49611181020736694,-0.14376255869865417,-9.949853897094727,32,1,44.0,0,0,2026,1974
150.37289600,150372896,1,-0.002106297528371215,-0.0022880141623318195,0.0014659633161500096,-0.49611181020736694,-0.14376255869865417,-9.949853897094727,32,1,44.0,0,0,2026,1974
150.37547000,150375470,1,-0.002106297295540571,-0.002288015326485038,0.0014659633161500096,-0.49611181020736694,-0.14376255869865417,-9.949853897094727,32,1,44.0,0,0,2026,1974
150.37792200,150377922,1,-0.002106296829879284,-0.0022880136966705322,0.0014659633161500096,-0.49611181020736694,-0.14376255869865417,-9.949853897094727,32,1,44.0,0,0,2026,1974
150.38078700,150380787,1,-0.0021062977612018585,-0.002288015326485038,0.0014659633161500096,-0.49611181020736694,-0.14376255869865417,-9.949853897094727,32,1,44.0,0,0,2026,1974
150.38288500,150382885,1,-0.0021062963642179966,-0.0022880141623318195,0.0014659633161500096,-0.49611181020736694,-0.14376255869865417,-9.949853897094727,32,1,44.0,0,0,2026,1974
150.38542300,150385423,1,-0.0021062977612018585,-0.0022880148608237505,0.0014659633161500096,-0.49611181020736694,-0.14376255869865417,-9.949853897094727,32,1,44.0,0,0,2026,1974
150.38789500,150387895,1,-0.0021062963642179966,-0.0022880148608237505,0.0014659633161500096,-0.49611181020736694,-0.14376255869865417,-9.949853897094727,32,1,44.0,0,0,2026,1974
150.39040700,150390407,1,-0.002106296829879284,-0.0022880136966705322,0.0014659633161500096,-0.49611181020736694,-0.14376255869865417,-9.949853897094727,32,1,44.0,0,0,2026,1974
150.39400500,150394005,1,-0.002106297295540571,-0.002288015326485038,0.0014659633161500096,-0.49611181020736694,-0.14376255869865417,-9.949853897094727,32,1,44.0,0,0,2026,1974
150.39543600,150395436,1,-0.0021062963642179966,-0.0022880136966705322,0.0014659633161500096,-0.49611181020736694,-0.14376255869865417,-9.949853897094727,32,1,44.0,0,0,2026,1974
150.39789600,150397896,1,-0.0021062977612018585,-0.0022880148608237505,0.0014659633161500096,-0.49611181020736694,-0.14376255869865417,-9.949853897094727,32,1,44.0,0,0,2026,1974
150.40042800,150400428,1,-0.0021062963642179966,-0.0022880141623318195,0.0014659633161500096,-0.49611181020736694,-0.14376255869865417,-9.949853897094727,32,1,44.0,0,0,2026,1974
150.40290000,150402900,1,-0.002106297528371215,-0.0022880141623318195,0.0014659633161500096,-0.49611181020736694,-0.14376255869865417,-9.949853897094727,32,1,44.0,0,0,2026,1974
150.40586100,150405861,1,-0.002106297295540571,-0.002288015326485038,0.0014659633161500096,-0.49611181020736694,-0.14376255869865417,-9.949853897094727,32,1,44.0,0,0,2026,1974
150.40790700,150407907,1,-0.002106296829879284,-0.0022880136966705322,0.0014659633161500096,-0.49611181020736694,-0.14376255869865417,-9.949853897094727,32,1,44.0,0,0,2026,1974
150.41039100,150410391,1,-0.0021062977612018585,-0.002288015326485038,0.0014659633161500096,-0.49611181020736694,-0.14376255869865417,-9.949853897094727,32,1,44.0,0,0,2026,1974
150.41289700,150412897,1,-0.002106296131387353,-0.002288013929501176,0.0014659633161500096,-0.49611181020736694,-0.14376255869865417,-9.949853897094727,32,1,44.0,0,0,2026,1974
150.41543100,150415431,1,-0.0021062977612018585,-0.0022880148608237505,0.0014659633161500096,-0.49611181020736694,-0.14376255869865417,-9.949853897094727,32,1,44.0,0,0,2026,1974
150.41833200,150418332,1,-0.002106296829879284,-0.002288015093654394,0.0014659633161500096,-0.49611181020736694,-0.14376255869865417,-9.949853897094727,32,1,44.0,0,0,2026,1974
150.42043400,150420434,1,-0.002106297295540571,-0.002288013929501176,0.0014659633161500096,-0.49611181020736694,-0.14376255869865417,-9.949853897094727,32,1,44.0,0,0,2026,1974
150.42291700,150422917,1,-0.002106297295540571,-0.002288015326485038,0.0014659633161500096,-0.49611181020736694,-0.14376255869865417,-9.949853897094727,32,1,44.0,0,0,2026,1974
150.42546000,150425460,1,-0.002106296131387353,-0.002288013929501176,0.0014659633161500096,-0.49611181020736694,-0.14376255869865417,-9.949853897094727,32,1,44.0,0,0,2026,1974
150.42790600,150427906,1,-0.0021062977612018585,-0.002288015093654394,0.0014659633161500096,-0.49611181020736694,-0.14376255869865417,-9.949853897094727,32,1,44.0,0,0,2026,1974
150.43088900,150430889,1,-0.0021062963642179966,-0.0022880141623318195,0.0014659633161500096,-0.49611181020736694,-0.14376255869865417,-9.949853897094727,32,1,44.0,0,0,2026,1974
150.43301200,150433012,1,-0.002106297295540571,-0.002288013929501176,0.0014659633161500096,-0.49611181020736694,-0.14376255869865417,-9.949853897094727,32,1,44.0,0,0,2026,1974
150.43545000,150435450,1,-0.002106296829879284,-0.002288015093654394,0.0014659633161500096,-0.49611181020736694,-0.14376255869865417,-9.949853897094727,32,1,44.0,0,0,2026,1974
150.43791100,150437911,1,-0.002106296829879284,-0.0022880136966705322,0.0014659633161500096,-0.49611181020736694,-0.14376255869865417,-9.949853897094727,32,1,44.0,0,0,2026,1974
150.44040700,150440407,1,-0.0021062977612018585,-0.002288015093654394,0.0014659633161500096,-0.49611181020736694,-0.14376255869865417,-9.949853897094727,32,1,44.0,0,0,2026,1974
150.44334200,150443342,1,-0.002106296131387353,-0.002288013929501176,0.0014659633161500096,-0.49611181020736694,-0.14376255869865417,-9.949853897094727,32,1,44.0,0,0,2026,1974
150.44539900,150445399,1,-0.0021062977612018585,-0.0022880148608237505,0.0014659633161500096,-0.49611181020736694,-0.14376255869865417,-9.949853897094727,32,1,44.0,0,0,2026,1974
150.44789900,150447899,1,-0.002106296829879284,-0.002288015093654394,0.0014659633161500096,-0.49611181020736694,-0.14376255869865417,-9.949853897094727,32,1,44.0,0,0,2026,1974
150.45040500,150450405,1,-0.002106297295540571,-0.002288013929501176,0.0014659633161500096,-0.49611181020736694,-0.14376255869865417,-9.949853897094727,32,1,44.0,0,0,2026,1974
150.45291600,150452916,1,-0.002106297295540571,-0.002288015326485038,0.0014659633161500096,-0.49611181020736694,-0.14376255869865417,-9.949853897094727,32,1,44.0,0,0,2026,1974
150.45600000,150456000,1,-0.002106296131387353,-0.002288013929501176,0.0014659633161500096,-0.49611181020736694,-0.14376255869865417,-9.949853897094727,32,1,44.0,0,0,2026,1974
150.45790100,150457901,1,-0.0021062977612018585,-0.002288015093654394,0.0014659633161500096,-0.49611181020736694,-0.14376255869865417,-9.949853897094727,32,1,44.0,0,0,2026,1974
150.46041300,150460413,1,-0.0021062963642179966,-0.0022880141623318195,0.0014659633161500096,-0.49611181020736694,-0.14376255869865417,-9.949853897094727,32,1,44.0,0,0,2026,1974
150.46292400,150462924,1,-0.002106297295540571,-0.002288013929501176,0.0014659633161500096,-0.49611181020736694,-0.14376255869865417,-9.949853897094727,32,1,44.0,0,0,2026,1974
150.46540400,150465404,1,-0.002106296829879284,-0.002288015093654394,0.0014659633161500096,-0.49611181020736694,-0.14376255869865417,-9.949853897094727,32,1,44.0,0,0,2026,1974
150.46829400,150468294,1,-0.002106296829879284,-0.0022880136966705322,0.0014659633161500096,-0.49611181020736694,-0.14376255869865417,-9.949853897094727,32,1,44.0,0,0,2026,1974
150.47039100,150470391,1,-0.0021062977612018585,-0.002288015093654394,0.0014659633161500096,-0.49611181020736694,-0.14376255869865417,-9.949853897094727,32,1,44.0,0,0,2026,1974
150.47297300,150472973,1,-0.002106296131387353,-0.002288013929501176,0.0014659633161500096,-0.49611181020736694,-0.14376255869865417,-9.949853897094727,32,1,44.0,0,0,2026,1974
150.47544100,150475441,1,-0.0021062977612018585,-0.0022880148608237505,0.0014659633161500096,-0.49611181020736694,-0.14376255869865417,-9.949853897094727,32,1,44.0,0,0,2026,1974
150.47790400,150477904,1,-0.002106296829879284,-0.002288015093654394,0.0014659633161500096,-0.49611181020736694,-0.14376255869865417,-9.949853897094727,32,1,44.0,0,0,2026,1974
150.48084500,150480845,1,-0.002106297295540571,-0.002288013929501176,0.0014659633161500096,-0.49611181020736694,-0.14376255869865417,-9.949853897094727,32,1,44.0,0,0,2026,1974
150.48289600,150482896,1,-0.002106297295540571,-0.002288015326485038,0.0014659633161500096,-0.49611181020736694,-0.14376255869865417,-9.949853897094727,32,1,44.0,0,0,2026,1974
150.48541400,150485414,1,-0.002106296131387353,-0.002288013929501176,0.0014659633161500096,-0.49611181020736694,-0.14376255869865417,-9.949853897094727,32,1,44.0,0,0,2026,1974
150.48790300,150487903,1,-0.0021062977612018585,-0.002288015093654394,0.0014659633161500096,-0.49611181020736694,-0.14376255869865417,-9.949853897094727,32,1,44.0,0,0,2026,1974
150.49040500,150490405,1,-0.0021062963642179966,-0.0022880141623318195,0.0014659633161500096,-0.49611181020736694,-0.14376255869865417,-9.949853897094727,32,1,44.0,0,0,2026,1974
150.49381900,150493819,1,-0.002106297295540571,-0.002288013929501176,0.0014659633161500096,-0.49611181020736694,-0.14376255869865417,-9.949853897094727,32,1,44.0,0,0,2026,1974
150.49544100,150495441,1,-0.002106296829879284,-0.002288015093654394,0.0014659633161500096,-0.49611181020736694,-0.14376255869865417,-9.949853897094727,32,1,44.0,0,0,2026,1974
150.49791800,150497918,1,-0.002106296829879284,-0.0022880136966705322,0.0014659633161500096,-0.49611181020736694,-0.14376255869865417,-9.949853897094727,32,1,44.0,0,0,2026,1974
150.50040400,150500404,1,-0.0021062977612018585,-0.002288015093654394,0.0014659633161500096,-0.49611181020736694,-0.14376255869865417,-9.949853897094727,32,1,44.0,0,0,2026,1974
150.50290500,150502905,1,-0.002106296131387353,-0.002288013929501176,0.0014659633161500096,-0.49611181020736694,-0.14376255869865417,-9.949853897094727,32,1,44.0,0,0,2026,1974
150.50610200,150506102,1,-0.0021062977612018585,-0.0022880148608237505,0.0014659633161500096,-0.49611181020736694,-0.14376255869865417,-9.949853897094727,32,1,44.0,0,0,2026,1974
150.50791600,150507916,1,-0.0021062963642179966,-0.0022880148608237505,0.0014659633161500096,-0.49611181020736694,-0.14376255869865417,-9.949853897094727,32,1,44.0,0,0,2026,1974
150.51040700,150510407,1,-0.002106297295540571,-0.002288013929501176,0.0014659633161500096,-0.49611181020736694,-0.14376255869865417,-9.949853897094727,32,1,44.0,0,0,2026,1974
150.51288800,150512888,1,-0.0021062977612018585,-0.002288015326485038,0.0014659633161500096,-0.49611181020736694,-0.14376255869865417,-9.949853897094727,32,1,44.0,0,0,2026,1974
150.51543100,150515431,1,-0.0021062963642179966,-0.0022880136966705322,0.0014659633161500096,-0.49611181020736694,-0.14376255869865417,-9.949853897094727,32,1,44.0,0,0,2026,1974
150.51829000,150518290,1,-0.0021062977612018585,-0.002288015093654394,0.0014659633161500096,-0.49611181020736694,-0.14376255869865417,-9.949853897094727,32,1,44.0,0,0,2026,1974
150.52044000,150520440,1,-0.0021062963642179966,-0.0022880148608237505,0.0014659633161500096,-0.49611181020736694,-0.14376255869865417,-9.949853897094727,32,1,44.0,0,0,2026,1974
150.52292100,150522921,1,-0.002106297528371215,-0.0022880141623318195,0.0014659633161500096,-0.49611181020736694,-0.14376255869865417,-9.949853897094727,32,1,44.0,0,0,2026,1974
150.52544600,150525446,1,-0.002106296829879284,-0.002288015093654394,0.0014659633161500096,-0.49611181020736694,-0.14376255869865417,-9.949853897094727,32,1,44.0,0,0,2026,1974
150.52789600,150527896,1,-0.0021062963642179966,-0.0022880136966705322,0.0014659633161500096,-0.49611181020736694,-0.14376255869865417,-9.949853897094727,32,1,44.0,0,0,2026,1974
150.53084900,150530849,1,-0.0021062977612018585,-0.002288015326485038,0.0014659633161500096,-0.49611181020736694,-0.14376255869865417,-9.949853897094727,32,1,44.0,0,0,2026,1974
150.53292400,150532924,1,-0.002106296131387353,-0.002288013929501176,0.0014659633161500096,-0.49611181020736694,-0.14376255869865417,-9.949853897094727,32,1,44.0,0,0,2026,1974
150.53545400,150535454,1,-0.002106297528371215,-0.0022880141623318195,0.0014659633161500096,-0.49611181020736694,-0.14376255869865417,-9.949853897094727,32,1,44.0,0,0,2026,1974
150.53791100,150537911,1,-0.0021062963642179966,-0.0022880148608237505,0.0014659633161500096,-0.49611181020736694,-0.14376255869865417,-9.949853897094727,32,1,44.0,0,0,2026,1974
150.54036500,150540365,1,-0.002106297295540571,-0.002288013929501176,0.0014659633161500096,-0.49611181020736694,-0.14376255869865417,-9.949853897094727,32,1,44.0,0,0,2026,1974
150.54339300,150543393,1,-0.002106297295540571,-0.002288015326485038,0.0014659633161500096,-0.49611181020736694,-0.14376255869865417,-9.949853897094727,32,1,44.0,0,0,2026,1974
150.54540000,150545400,1,-0.0021062963642179966,-0.0022880136966705322,0.0014659633161500096,-0.49611181020736694,-0.14376255869865417,-9.949853897094727,32,1,44.0,0,0,2026,1974
150.54788000,150547880,1,-0.0021062977612018585,-0.002288015093654394,0.0014659633161500096,-0.49611181020736694,-0.14376255869865417,-9.949853897094727,32,1,44.0,0,0,2026,1974
150.55042000,150550420,1,-0.0021062963642179966,-0.0022880141623318195,0.0014659633161500096,-0.49611181020736694,-0.14376255869865417,-9.949853897094727,32,1,44.0,0,0,2026,1974
150.55331400,150553314,1,-0.002106297528371215,-0.0022880141623318195,0.0014659633161500096,-0.49611181020736694,-0.14376255869865417,-9.949853897094727,32,1,44.0,0,0,2026,1974
150.55555200,150555552,1,-0.002106297295540571,-0.002288015326485038,0.0014659633161500096,-0.49611181020736694,-0.14376255869865417,-9.949853897094727,32,1,44.0,0,0,2026,1974
150.55792600,150557926,1,-0.002106296829879284,-0.0022880136966705322,0.0014659633161500096,-0.49611181020736694,-0.14376255869865417,-9.949853897094727,32,1,44.0,0,0,2026,1974
150.56040400,150560404,1,-0.0021062977612018585,-0.002288015326485038,0.0014659633161500096,-0.49611181020736694,-0.14376255869865417,-9.949853897094727,32,1,44.0,0,0,2026,1974
150.56290800,150562908,1,-0.0021062963642179966,-0.0022880141623318195,0.0014659633161500096,-0.49611181020736694,-0.14376255869865417,-9.949853897094727,32,1,44.0,0,0,2026,1974
150.56592400,150565924,1,-0.0021062977612018585,-0.0022880148608237505,0.0014659633161500096,-0.49611181020736694,-0.14376255869865417,-9.949853897094727,32,1,44.0,0,0,2026,1974
150.56789400,150567894,1,-0.0021062963642179966,-0.0022880148608237505,0.0014659633161500096,-0.49611181020736694,-0.14376255869865417,-9.949853897094727,32,1,44.0,0,0,2026,1974
150.57040300,150570403,1,-0.002106296829879284,-0.0022880136966705322,0.0014659633161500096,-0.49611181020736694,-0.14376255869865417,-9.949853897094727,32,1,44.0,0,0,2026,1974
150.57291300,150572913,1,-0.002106297295540571,-0.002288015326485038,0.0014659633161500096,-0.49611181020736694,-0.14376255869865417,-9.949853897094727,32,1,44.0,0,0,2026,1974
150.57542000,150575420,1,-0.0021062963642179966,-0.0022880136966705322,0.0014659633161500096,-0.49611181020736694,-0.14376255869865417,-9.949853897094727,32,1,44.0,0,0,2026,1974
150.57834700,150578347,1,-0.0021062977612018585,-0.0022880148608237505,0.0014659633161500096,-0.49611181020736694,-0.14376255869865417,-9.949853897094727,32,1,44.0,0,0,2026,1974
150.58040000,150580400,1,-0.0021062963642179966,-0.0022880141623318195,0.0014659633161500096,-0.49611181020736694,-0.14376255869865417,-9.949853897094727,32,1,44.0,0,0,2026,1974
150.58290400,150582904,1,-0.002106297528371215,-0.0022880141623318195,0.0014659633161500096,-0.49611181020736694,-0.14376255869865417,-9.949853897094727,32,1,44.0,0,0,2026,1974
150.58539500,150585395,1,-0.002106297295540571,-0.002288015326485038,0.0014659633161500096,-0.49611181020736694,-0.14376255869865417,-9.949853897094727,32,1,44.0,0,0,2026,1974
150.58792600,150587926,1,-0.002106296829879284,-0.0022880136966705322,0.0014659633161500096,-0.49611181020736694,-0.14376255869865417,-9.949853897094727,32,1,44.0,0,0,2026,1974
150.59121300,150591213,1,-0.0021062977612018585,-0.002288015326485038,0.0014659633161500096,-0.49611181020736694,-0.14376255869865417,-9.949853897094727,32,1,44.0,0,0,2026,1974
150.59291000,150592910,1,-0.002106296131387353,-0.002288013929501176,0.0014659633161500096,-0.49611181020736694,-0.14376255869865417,-9.949853897094727,32,1,44.0,0,0,2026,1974
150.59542500,150595425,1,-0.0021062977612018585,-0.0022880148608237505,0.0014659633161500096,-0.49611181020736694,-0.14376255869865417,-9.949853897094727,32,1,44.0,0,0,2026,1974
150.59788300,150597883,1,-0.002106296829879284,-0.002288015093654394,0.0014659633161500096,-0.49611181020736694,-0.14376255869865417,-9.949853897094727,32,1,44.0,0,0,2026,1974
150.60043200,150600432,1,-0.002106297295540571,-0.002288013929501176,0.0014659633161500096,-0.49611181020736694,-0.14376255869865417,-9.949853897094727,32,1,44.0,0,0,2026,1974
150.60354500,150603545,1,-0.002106297295540571,-0.002288015326485038,0.0014659633161500096,-0.49611181020736694,-0.14376255869865417,-9.949853897094727,32,1,44.0,0,0,2026,1974
150.60540400,150605404,1,-0.002106296131387353,-0.002288013929501176,0.0014659633161500096,-0.49611181020736694,-0.14376255869865417,-9.949853897094727,32,1,44.0,0,0,2026,1974
150.60790400,150607904,1,-0.0021062977612018585,-0.002288015093654394,0.0014659633161500096,-0.49611181020736694,-0.14376255869865417,-9.949853897094727,32,1,44.0,0,0,2026,1974
150.61042000,150610420,1,-0.0021062963642179966,-0.0022880141623318195,0.0014659633161500096,-0.49611181020736694,-0.14376255869865417,-9.949853897094727,32,1,44.0,0,0,2026,1974
150.61289800,150612898,1,-0.002106297295540571,-0.002288013929501176,0.0014659633161500096,-0.49611181020736694,-0.14376255869865417,-9.949853897094727,32,1,44.0,0,0,2026,1974
150.61586600,150615866,1,-0.002106296829879284,-0.002288015093654394,0.0014659633161500096,-0.49611181020736694,-0.14376255869865417,-9.949853897094727,32,1,44.0,0,0,2026,1974
150.61790600,150617906,1,-0.002106296829879284,-0.0022880136966705322,0.0014659633161500096,-0.49611181020736694,-0.14376255869865417,-9.949853897094727,32,1,44.0,0,0,2026,1974
150.62040400,150620404,1,-0.0021062977612018585,-0.002288015093654394,0.0014659633161500096,-0.49611181020736694,-0.14376255869865417,-9.949853897094727,32,1,44.0,0,0,2026,1974
150.62292500,150622925,1,-0.002106296131387353,-0.002288013929501176,0.0014659633161500096,-0.49611181020736694,-0.14376255869865417,-9.949853897094727,32,1,44.0,0,0,2026,1974
150.62541000,150625410,1,-0.0021062977612018585,-0.0022880148608237505,0.0014659633161500096,-0.49611181020736694,-0.14376255869865417,-9.949853897094727,32,1,44.0,0,0,2026,1974
150.62834500,150628345,1,-0.002106296829879284,-0.002288015093654394,0.0014659633161500096,-0.49611181020736694,-0.14376255869865417,-9.949853897094727,32,1,44.0,0,0,2026,1974
150.63040500,150630405,1,-0.002106297295540571,-0.002288013929501176,0.0014659633161500096,-0.49611181020736694,-0.14376255869865417,-9.949853897094727,32,1,44.0,0,0,2026,1974
150.63291600,150632916,1,-0.002106297295540571,-0.002288015326485038,0.0014659633161500096,-0.49611181020736694,-0.14376255869865417,-9.949853897094727,32,1,44.0,0,0,2026,1974
150.63540300,150635403,1,-0.002106296131387353,-0.002288013929501176,0.0014659633161500096,-0.49611181020736694,-0.14376255869865417,-9.949853897094727,32,1,44.0,0,0,2026,1974
150.63790300,150637903,1,-0.0021062977612018585,-0.002288015093654394,0.0014659633161500096,-0.49611181020736694,-0.14376255869865417,-9.949853897094727,32,1,44.0,0,0,2026,1974
150.64079000,150640790,1,-0.0021062963642179966,-0.0022880141623318195,0.0014659633161500096,-0.49611181020736694,-0.14376255869865417,-9.949853897094727,32,1,44.0,0,0,2026,1974
150.64289500,150642895,1,-0.002106297295540571,-0.002288013929501176,0.0014659633161500096,-0.49611181020736694,-0.14376255869865417,-9.949853897094727,32,1,44.0,0,0,2026,1974
150.64543900,150645439,1,-0.002106296829879284,-0.002288015093654394,0.0014659633161500096,-0.49611181020736694,-0.14376255869865417,-9.949853897094727,32,1,44.0,0,0,2026,1974
150.64789700,150647897,1,-0.002106296829879284,-0.0022880136966705322,0.0014659633161500096,-0.49611181020736694,-0.14376255869865417,-9.949853897094727,32,1,44.0,0,0,2026,1974
150.65043000,150650430,1,-0.0021062977612018585,-0.002288015093654394,0.0014659633161500096,-0.49611181020736694,-0.14376255869865417,-9.949853897094727,32,1,44.0,0,0,2026,1974
150.65333600,150653336,1,-0.002106296131387353,-0.002288013929501176,0.0014659633161500096,-0.49611181020736694,-0.14376255869865417,-9.949853897094727,32,1,44.0,0,0,2026,1974
150.65552300,150655523,1,-0.0021062977612018585,-0.0022880148608237505,0.0014659633161500096,-0.49611181020736694,-0.14376255869865417,-9.949853897094727,32,1,44.0,0,0,2026,1974
150.65791600,150657916,1,-0.002106296829879284,-0.002288015093654394,0.0014659633161500096,-0.49611181020736694,-0.14376255869865417,-9.949853897094727,32,1,44.0,0,0,2026,1974
150.66040700,150660407,1,-0.002106297295540571,-0.002288013929501176,0.0014659633161500096,-0.49611181020736694,-0.14376255869865417,-9.949853897094727,32,1,44.0,0,0,2026,1974
150.66292100,150662921,1,-0.002106297295540571,-0.002288015326485038,0.0014659633161500096,-0.49611181020736694,-0.14376255869865417,-9.949853897094727,32,1,44.0,0,0,2026,1974
150.66589400,150665894,1,-0.002106296131387353,-0.002288013929501176,0.0014659633161500096,-0.49611181020736694,-0.14376255869865417,-9.949853897094727,32,1,44.0,0,0,2026,1974
150.66789900,150667899,1,-0.0021062977612018585,-0.002288015093654394,0.0014659633161500096,-0.49611181020736694,-0.14376255869865417,-9.949853897094727,32,1,44.0,0,0,2026,1974
150.67042100,150670421,1,-0.0021062963642179966,-0.0022880141623318195,0.0014659633161500096,-0.49611181020736694,-0.14376255869865417,-9.949853897094727,32,1,44.0,0,0,2026,1974
150.67290000,150672900,1,-0.002106297295540571,-0.002288013929501176,0.0014659633161500096,-0.49611181020736694,-0.14376255869865417,-9.949853897094727,32,1,44.0,0,0,2026,1974
150.67542400,150675424,1,-0.002106296829879284,-0.002288015093654394,0.0014659633161500096,-0.49611181020736694,-0.14376255869865417,-9.949853897094727,32,1,44.0,0,0,2026,1974
150.67839400,150678394,1,-0.002106296829879284,-0.0022880136966705322,0.0014659633161500096,-0.49611181020736694,-0.14376255869865417,-9.949853897094727,32,1,44.0,0,0,2026,1974
150.68041700,150680417,1,-0.0021062977612018585,-0.002288015093654394,0.0014659633161500096,-0.49611181020736694,-0.14376255869865417,-9.949853897094727,32,1,44.0,0,0,2026,1974
150.68291300,150682913,1,-0.002106296131387353,-0.002288013929501176,0.0014659633161500096,-0.49611181020736694,-0.14376255869865417,-9.949853897094727,32,1,44.0,0,0,2026,1974
150.68540300,150685403,1,-0.0021062977612018585,-0.0022880148608237505,0.0014659633161500096,-0.49611181020736694,-0.14376255869865417,-9.949853897094727,32,1,44.0,0,0,2026,1974
150.68791900,150687919,1,-0.002106296829879284,-0.002288015093654394,0.0014659633161500096,-0.49611181020736694,-0.14376255869865417,-9.949853897094727,32,1,44.0,0,0,2026,1974
