timestamp,TimeUS,I,Alt,Press,Temp,CRt,SMS,Offset,GndTemp,Health
149.85569300,149855693,0,-0.6499155163764954,98934.84375,36.94,-0.03532152622938156,149855,0.0,35.0,1
149.95570200,149955702,0,-0.6668698191642761,98935.03125,36.94,-0.23312188684940338,149955,0.0,35.0,1
150.05523000,150055230,0,-0.5481895804405212,98933.7421875,36.94,-0.1907361000776291,150055,0.0,35.0,1
150.15532400,150155324,0,-0.7629442811012268,98936.0859375,36.95,0.003532150061801076,150155,0.0,35.0,1
150.25523700,150255237,0,-0.565143883228302,98933.875,36.94,0.0441519133746624,150255,0.0,35.0,1
150.35527900,150355279,0,-0.6781727075576782,98935.1640625,36.95,-0.051216114312410355,150355,0.0,35.0,1
150.45568800,150455688,0,-0.6612183451652527,98934.984375,36.94,-0.04415184259414673,150455,0.0,35.0,1
150.55525700,150555257,0,-0.6781727075576782,98935.125,36.94,-0.012362531386315823,150555,0.0,35.0,1
150.65525100,150655251,0,-0.7572928071022034,98936.0234375,36.94,-0.10949664562940598,150655,0.0,35.0,1
150.75525500,150755255,0,-0.6216583251953125,98934.515625,36.95,-0.1960342973470688,150755,0.0,35.0,1
150.85531900,150855319,0,-0.734687089920044,98935.7734375,36.95,-0.13245561718940735,150855,0.0,35.0,1
150.95524300,150955243,0,-0.6103554368019104,98934.3828125,36.94,0.01766068860888481,150955,0.0,35.0,1
151.05526000,151055260,0,-0.6160068511962891,98934.4453125,36.94,0.134221613407135,151055,0.0,35.0,1
151.15527700,151155277,0,-0.5877496600151062,98934.1640625,36.95,0.22252540290355682,151155,0.0,35.0,1
151.25524400,151255244,0,-0.6160068511962891,98934.4609375,36.94,0.2719755470752716,151255,0.0,35.0,1
151.35524300,151355243,0,-0.6103554368019104,98934.4140625,36.95,0.18720398843288422,151355,0.0,35.0,1
151.45572400,151455724,0,-0.8420644402503967,98936.9296875,36.95,-0.033555421978235245,151455,0.0,35.0,1
151.55577200,151555772,0,-0.8307615518569946,98936.8125,36.95,-0.38677042722702026,151555,0.0,35.0,1
151.65523300,151655233,0,-0.7177327871322632,98935.5546875,36.95,-0.6887692213058472,151655,0.0,35.0,1
151.75525000,151755250,0,-0.8364129662513733,98936.859375,36.95,-0.5492492318153381,151755,0.0,35.0,1
151.85534100,151855341,0,-0.7177327871322632,98935.609375,36.95,-0.12009305506944656,151855,0.0,35.0,1
151.95529500,151955295,0,-0.8251100778579712,98936.765625,36.95,0.07947340607643127,151955,0.0,35.0,1
152.05566700,152055667,0,-0.4803723096847534,98932.9765625,36.95,0.12009312957525253,152055,0.0,35.0,1
152.15571400,152155714,0,-0.6725212335586548,98935.1015625,36.95,0.3638114333152771,152155,0.0,35.0,1
152.25573500,152255735,0,-0.6781727075576782,98935.171875,36.95,0.5881029367446899,152255,0.0,35.0,1
152.35535000,152355350,0,-0.7912014722824097,98936.40625,36.95,0.3019987642765045,152355,0.0,35.0,1
152.45536000,152455360,0,-0.7007784247398376,98935.390625,36.95,-0.2613791227340698,152455,0.0,35.0,1
152.55534100,152555341,0,-0.655566930770874,98934.890625,36.95,-0.4079633057117462,152555,0.0,35.0,1
152.65532600,152655326,0,-0.6781727075576782,98935.125,36.95,-0.07594117522239685,152655,0.0,35.0,1
152.75523800,152755238,0,-0.6838241219520569,98935.234375,36.95,0.2083968073129654,152755,0.0,35.0,1
152.85533800,152855338,0,-0.655566930770874,98934.921875,36.95,0.1766074150800705,152855,0.0,35.0,1
152.95571400,152955714,0,-0.8816245198249817,98937.3984375,36.95,-0.0158946942538023,152955,0.0,35.0,1
153.05564000,153055640,0,-0.6103554368019104,98934.4375,36.95,-0.21899330615997314,153055,0.0,35.0,1
153.15562800,153155628,0,-0.565143883228302,98933.875,36.95,-0.19603434205055237,153155,0.0,35.0,1
153.25563700,153255637,0,-0.6329611539840698,98934.65625,36.95,0.2331218719482422,153255,0.0,35.0,1
153.35568400,153355684,0,-0.7233842015266418,98935.65625,36.95,0.5103956460952759,153355,0.0,35.0,1
153.45565100,153455651,0,-0.6273097395896912,98934.5859375,36.95,0.17130935192108154,153455,0.0,35.0,1
153.55562900,153555629,0,-0.7290356159210205,98935.7265625,36.95,-0.2207593321800232,153555,0.0,35.0,1
153.65567400,153655674,0,-0.5594924688339233,98933.8671875,36.95,-0.1801396608352661,153655,0.0,35.0,1
153.75564500,153755645,0,-0.7403385043144226,98935.8125,36.95,0.028257204219698906,153755,0.0,35.0,1
153.85563300,153855633,0,-0.604703962802887,98934.34375,36.95,0.09360197931528091,153855,0.0,35.0,1
153.95563800,153955638,0,-0.7290356159210205,98935.71875,36.95,0.008830392733216286,153955,0.0,35.0,1
154.05563600,154055636,0,-0.7516413927078247,98935.9609375,36.95,-0.1094966009259224,154055,0.0,35.0,1
154.15564700,154155647,0,-0.695127010345459,98935.3203125,36.95,-0.21192896366119385,154155,0.0,35.0,1
154.25567600,154255676,0,-0.565143883228302,98933.9296875,36.95,-0.17484141886234283,154255,0.0,35.0,1
154.35571100,154355711,0,-0.5086295008659363,98933.3046875,36.95,0.17484135925769806,154355,0.0,35.0,1
154.45568400,154455684,0,-0.6668698191642761,98935.0,36.95,0.5474832057952881,154455,0.0,35.0,1
154.55527000,154555270,0,-0.5425381660461426,98933.6796875,36.95,0.4556472599506378,154555,0.0,35.0,1
154.65531200,154655312,0,-0.7912014722824097,98936.4140625,36.96,0.019426759332418442,154655,0.0,35.0,1
154.75527000,154755270,0,-0.7233842015266418,98935.640625,36.96,-0.34438467025756836,154755,0.0,35.0,1
154.85532600,154855326,0,-0.6442640423774719,98934.7734375,36.96,-0.4874366223812103,154855,0.0,35.0,1
154.95523800,154955238,0,-0.7968528866767883,98936.4453125,36.96,-0.3443845212459564,154955,0.0,35.0,1
155.05524600,155055246,0,-0.7516413927078247,98935.9296875,36.96,-0.1147947832942009,155055,0.0,35.0,1
155.15525300,155155253,0,-0.8081557750701904,98936.6015625,36.96,-0.14835022389888763,155155,0.0,35.0,1
155.25523800,155255238,0,-0.8025043606758118,98936.5390625,36.96,-0.2772737443447113,155255,0.0,35.0,1
155.35524900,155355249,0,-0.6386126279830933,98934.7109375,36.96,-0.18897002935409546,155355,0.0,35.0,1
155.45524100,155455241,0,-0.7290356159210205,98935.6953125,36.96,0.09183582663536072,155455,0.0,35.0,1
155.55523900,155555239,0,-0.7120813131332397,98935.5,36.96,0.3196595013141632,155555,0.0,35.0,1
155.65524600,155655246,0,-0.7064298987388611,98935.46875,36.96,0.24901659786701202,155655,0.0,35.0,1
155.75527000,155755270,0,-0.8025043606758118,98936.484375,36.96,0.007064324337989092,155755,0.0,35.0,1
155.85526300,155855263,0,-0.8872759342193604,98937.46875,36.96,-0.19603435695171356,155855,0.0,35.0,1
155.95578400,155955784,0,-0.7572928071022034,98936.0390625,36.96,-0.3761739730834961,155955,0.0,35.0,1
156.05527400,156055274,0,-0.734687089920044,98935.78125,36.96,-0.34085237979888916,156055,0.0,35.0,1
156.15524800,156155248,0,-0.6499155163764954,98934.8515625,36.96,0.05474837124347687,156155,0.0,35.0,1
156.25525000,156255250,0,-0.932487428188324,98937.953125,36.96,0.35851314663887024,156255,0.0,35.0,1
156.35527000,156355270,0,-0.7290356159210205,98935.6875,36.96,0.1342216283082962,156355,0.0,35.0,1
156.45527400,156455274,0,-0.7685956954956055,98936.125,36.96,-0.23665396869182587,156455,0.0,35.0,1
156.55527600,156555276,0,-0.7177327871322632,98935.59375,36.96,-0.15364840626716614,156555,0.0,35.0,1
156.65526300,156655263,0,-0.6838241219520569,98935.203125,36.96,0.18720391392707825,156655,0.0,35.0,1
156.75523500,156755235,0,-0.8251100778579712,98936.765625,36.96,0.2737415134906769,156755,0.0,35.0,1
156.85535800,156855358,0,-0.7064298987388611,98935.4296875,36.96,0.08300548046827316,156855,0.0,35.0,1
156.95533400,156955334,0,-0.785550057888031,98936.3203125,36.96,-0.10773053765296936,156955,0.0,35.0,1
157.05524400,157055244,0,-0.6894755959510803,98935.265625,36.96,-0.09536808729171753,157055,0.0,35.0,1
157.15527700,157155277,0,-0.6273097395896912,98934.5859375,36.96,0.083005391061306,157155,0.0,35.0,1
157.25524300,157255243,0,-0.5990525484085083,98934.2890625,36.96,0.3002326488494873,157255,0.0,35.0,1
157.35534400,157355344,0,-0.5820982456207275,98934.125,36.96,0.45741337537765503,157355,0.0,35.0,1
157.45532000,157455320,0,-0.6781727075576782,98935.140625,36.96,0.40443116426467896,157455,0.0,35.0,1
157.55530300,157555303,0,-0.7912014722824097,98936.3671875,36.96,0.08300551027059555,157555,0.0,35.0,1
157.65528900,157655289,0,-0.5538410544395447,98933.7578125,36.96,-0.28610414266586304,157655,0.0,35.0,1
157.75524500,157755245,0,-0.6329611539840698,98934.640625,36.96,-0.27197548747062683,157755,0.0,35.0,1
157.85525900,157855259,0,-0.695127010345459,98935.3671875,36.96,0.10066631436347961,157855,0.0,35.0,1
157.95524500,157955245,0,-0.8025043606758118,98936.53125,36.97,0.15718068182468414,157955,0.0,35.0,1
158.05529200,158055292,0,-0.6273097395896912,98934.625,36.96,-0.21899324655532837,158055,0.0,35.0,1
158.15524200,158155242,0,-0.5877496600151062,98934.1484375,36.96,-0.29316845536231995,158155,0.0,35.0,1
158.25524500,158255245,0,-0.8025043606758118,98936.53125,36.97,0.08477157354354858,158255,0.0,35.0,1
158.35520600,158355206,0,-0.7290356159210205,98935.6953125,36.96,0.17130926251411438,158355,0.0,35.0,1
158.45521000,158455210,0,-0.6612183451652527,98934.9921875,36.96,-0.1713092178106308,158455,0.0,35.0,1
158.55520700,158555207,0,-0.7007784247398376,98935.3828125,36.97,-0.2313557267189026,158555,0.0,35.0,1
158.65521100,158655211,0,-0.655566930770874,98934.8984375,36.96,0.07064306735992432,158655,0.0,35.0,1
158.75522000,158755220,0,-0.4803723096847534,98933.0078125,36.96,0.26137906312942505,158755,0.0,35.0,1
158.85521100,158855211,0,-0.6781727075576782,98935.1640625,36.96,0.35851311683654785,158855,0.0,35.0,1
158.95521200,158955212,0,-0.892927348613739,98937.53125,36.97,0.27197542786598206,158955,0.0,35.0,1
159.05520700,159055207,0,-0.604703962802887,98934.328125,36.97,-0.2578469216823578,159055,0.0,35.0,1
159.15520400,159155204,0,-0.7572928071022034,98936.0,36.97,-0.5986992716789246,159155,0.0,35.0,1
159.25521000,159255210,0,-0.6668698191642761,98935.0078125,36.97,-0.23488788306713104,159255,0.0,35.0,1
159.35521300,159355213,0,-0.7064298987388611,98935.484375,36.97,0.15541458129882812,159355,0.0,35.0,1
159.45520500,159455205,0,-0.5934010744094849,98934.234375,36.97,0.16247880458831787,159455,0.0,35.0,1
159.62712900,159627129,0,-0.7629442811012268,98936.0703125,36.97,0.1298695057630539,159627,0.0,35.0,1
159.72714000,159727140,0,-0.6499155163764954,98934.8046875,36.97,0.0961933583021164,159727,0.0,35.0,1
159.82664600,159826646,0,-0.6612183451652527,98934.9765625,36.97,-0.020122695714235306,159826,0.0,35.0,1
159.92668200,159926682,0,-0.6386126279830933,98934.703125,36.97,-0.0090379873290658,159926,0.0,35.0,1
160.02664600,160026646,0,-0.655566930770874,98934.9140625,36.97,0.125963032245636,160026,0.0,35.0,1
160.12667600,160126676,0,-0.7685956954956055,98936.1328125,36.97,0.10335231572389603,160126,0.0,35.0,1
160.22707700,160227077,0,-0.5764467716217041,98934.0078125,36.97,-0.08161122351884842,160227,0.0,35.0,1
160.32667300,160326673,0,-0.6668698191642761,98935.0078125,36.97,-0.10270539671182632,160326,0.0,35.0,1
160.42664100,160426641,0,-0.655566930770874,98934.890625,36.97,0.0894547700881958,160426,0.0,35.0,1
160.52667300,160526673,0,-0.6386126279830933,98934.734375,36.97,0.1589466780424118,160526,0.0,35.0,1
160.62708300,160627083,0,-0.6894755959510803,98935.2734375,36.97,0.027653520926833153,160627,0.0,35.0,1
160.72710700,160727107,0,-0.8081557750701904,98936.5625,36.97,-0.10947611927986145,160727,0.0,35.0,1
160.82672600,160826726,0,-0.7968528866767883,98936.46875,36.97,-0.29787760972976685,160826,0.0,35.0,1
160.92669900,160926699,0,-0.745989978313446,98935.875,36.97,-0.4649256467819214,160926,0.0,35.0,1
161.02666700,161026667,0,-0.7233842015266418,98935.6484375,36.97,-0.3240346908569336,161026,0.0,35.0,1
161.12671700,161126717,0,-0.6386126279830933,98934.734375,36.97,0.055130183696746826,161126,0.0,35.0,1
161.22665100,161226651,0,-0.5990525484085083,98934.3046875,36.97,0.3555592894554138,161226,0.0,35.0,1
161.32667800,161326678,0,-0.5707953572273254,98933.984375,36.97,0.489326536655426,161326,0.0,35.0,1
161.42670800,161426708,0,-0.7120813131332397,98935.53125,36.97,0.43975257873535156,161426,0.0,35.0,1
161.52669300,161526693,0,-0.7120813131332397,98935.53125,36.97,0.1306895613670349,161526,0.0,35.0,1
161.62667900,161626679,0,-0.5538410544395447,98933.765625,36.97,-0.21546109020709991,161626,0.0,35.0,1
161.72670600,161726706,0,-0.7516413927078247,98935.9453125,36.97,-0.19956642389297485,161726,0.0,35.0,1
161.82669600,161826696,0,-0.7007784247398376,98935.4140625,36.980000000000004,-0.010596479289233685,161826,0.0,35.0,1
161.92664200,161926642,0,-0.6386126279830933,98934.71875,36.97,-0.06887690722942352,161926,0.0,35.0,1
162.02672300,162026723,0,-0.7742471694946289,98936.2109375,36.980000000000004,-0.15718062222003937,162026,0.0,35.0,1
162.12666900,162126669,0,-0.5538410544395447,98933.78125,36.97,-0.04945013299584389,162126,0.0,35.0,1
162.22669800,162226698,0,-0.7290356159210205,98935.6875,36.97,0.07770722359418869,162226,0.0,35.0,1
162.32669900,162326699,0,-0.7007784247398376,98935.40625,36.97,0.11302877217531204,162326,0.0,35.0,1
162.42668400,162426684,0,-0.7572928071022034,98936.0,36.97,-0.024724943563342094,162426,0.0,35.0,1
162.52668700,162526687,0,-0.6442640423774719,98934.796875,36.97,-0.21016274392604828,162526,0.0,35.0,1
162.62671900,162626719,0,-0.6894755959510803,98935.2421875,36.980000000000004,-0.13068947196006775,162626,0.0,35.0,1
162.72665700,162726657,0,-0.6838241219520569,98935.2109375,36.980000000000004,0.09713403135538101,162726,0.0,35.0,1
162.82710900,162827109,0,-0.8251100778579712,98936.7890625,36.980000000000004,0.097183957695961,162827,0.0,35.0,1
162.92719500,162927195,0,-0.5764467716217041,98934.0390625,36.980000000000004,-0.10758382081985474,162927,0.0,35.0,1
163.02718300,163027183,0,-0.7742471694946289,98936.1875,36.97,-0.13160373270511627,163027,0.0,35.0,1
163.12670100,163126701,0,-0.8194586634635925,98936.703125,36.980000000000004,0.006493861321359873,163126,0.0,35.0,1
163.22669000,163226690,0,-0.7912014722824097,98936.40625,36.980000000000004,-0.12185921519994736,163226,0.0,35.0,1
163.32669100,163326691,0,-0.655566930770874,98934.90625,36.980000000000004,-0.33029183745384216,163326,0.0,35.0,1
163.42670600,163426706,0,-0.6781727075576782,98935.1328125,36.980000000000004,-0.07977770268917084,163426,0.0,35.0,1
163.52703100,163527031,0,-0.5312352776527405,98933.5546875,36.980000000000004,0.3906034827232361,163527,0.0,35.0,1
163.62670500,163626705,0,-0.6838241219520569,98935.234375,36.980000000000004,0.5642926096916199,163626,0.0,35.0,1
163.72691100,163726911,0,-0.745989978313446,98935.875,36.980000000000004,0.35048234462738037,163726,0.0,35.0,1
163.82691700,163826917,0,-0.6103554368019104,98934.40625,36.980000000000004,-0.06534475833177567,163826,0.0,35.0,1
163.92690900,163926909,0,-0.9211845397949219,98937.8359375,36.980000000000004,-0.3354743421077728,163926,0.0,35.0,1
164.02691000,164026910,0,-0.8251100778579712,98936.78125,36.980000000000004,-0.41978129744529724,164026,0.0,35.0,1
164.12691400,164126914,0,-0.7572928071022034,98936.03125,36.980000000000004,-0.5211098194122314,164126,0.0,35.0,1
164.22690400,164226904,0,-0.6668698191642761,98935.046875,36.980000000000004,-0.34438443183898926,164226,0.0,35.0,1
164.32688800,164326888,0,-0.6160068511962891,98934.453125,36.980000000000004,0.22605757415294647,164326,0.0,35.0,1
164.42692600,164426926,0,-0.4803723096847534,98932.984375,36.980000000000004,0.6693422198295593,164426,0.0,35.0,1
164.91088500,164910885,0,-0.7290356159210205,98935.71875,36.980000000000004,0.6882952451705933,164910,0.0,35.0,1
165.01094000,165010940,0,-0.604703962802887,98934.3359375,36.980000000000004,0.35142165422439575,165010,0.0,35.0,1
165.11087700,165110877,0,-0.565143883228302,98933.921875,36.980000000000004,0.015778332948684692,165110,0.0,35.0,1
165.21092000,165210920,0,-0.7685956954956055,98936.1640625,36.980000000000004,-0.05347583070397377,165210,0.0,35.0,1
165.31090200,165310902,0,-0.745989978313446,98935.890625,36.99,0.04749675840139389,165310,0.0,35.0,1
165.41086300,165410863,0,-0.7120813131332397,98935.515625,36.99,-0.3214256465435028,165410,0.0,35.0,1
165.51086800,165510868,0,-0.7120813131332397,98935.515625,36.99,-0.41149550676345825,165510,0.0,35.0,1
165.61093100,165610931,0,-0.9042302370071411,98937.6484375,36.99,-0.18897002935409546,165610,0.0,35.0,1
165.71087400,165710874,0,-0.5764467716217041,98934.0234375,36.980000000000004,-0.12009303271770477,165710,0.0,35.0,1
165.81095000,165810950,0,-0.8590187430381775,98937.140625,36.99,-0.11656088382005692,165810,0.0,35.0,1
165.91097300,165910973,0,-0.7629442811012268,98936.046875,36.99,0.022958965972065926,165910,0.0,35.0,1
166.01096000,166010960,0,-0.7120813131332397,98935.515625,36.99,0.007064248900860548,166010,0.0,35.0,1
166.11140500,166111405,0,-0.734687089920044,98935.7421875,36.99,-0.05826875567436218,166111,0.0,35.0,1
166.21086200,166210862,0,-0.734687089920044,98935.78125,36.99,0.08526482433080673,166210,0.0,35.0,1
166.31094500,166310945,0,-0.8364129662513733,98936.859375,36.99,0.11810734122991562,166310,0.0,35.0,1
166.41091500,166410915,0,-0.695127010345459,98935.3671875,36.99,-0.07594121992588043,166410,0.0,35.0,1
166.51087100,166510871,0,-0.7064298987388611,98935.4375,36.99,-0.12089179456233978,166510,0.0,35.0,1
166.61093700,166610937,0,-0.8138072490692139,98936.6640625,36.99,0.06543328613042831,166610,0.0,35.0,1
166.71086600,166710866,0,-0.6781727075576782,98935.125,36.99,0.12188857048749924,166710,0.0,35.0,1
166.81112400,166811124,0,-0.6499155163764954,98934.875,36.99,0.038809485733509064,166811,0.0,35.0,1
166.91114800,166911148,0,-0.5990525484085083,98934.2578125,36.99,0.1745770126581192,166911,0.0,35.0,1
167.01092700,167010927,0,-0.8420644402503967,98936.9453125,36.99,0.34277579188346863,167010,0.0,35.0,1
167.11095400,167110954,0,-0.5312352776527405,98933.5234375,36.99,0.14243702590465546,167110,0.0,35.0,1
167.21094700,167210947,0,-0.7177327871322632,98935.578125,36.99,-0.0880463570356369,167210,0.0,35.0,1
167.31112600,167311126,0,-0.7572928071022034,98935.9921875,36.99,-0.00317097338847816,167311,0.0,35.0,1
167.41092400,167410924,0,-0.7629442811012268,98936.0859375,36.99,-0.0389125719666481,167410,0.0,35.0,1
167.51084300,167510843,0,-0.7233842015266418,98935.6640625,36.99,-0.29147592186927795,167510,0.0,35.0,1
167.61111000,167611110,0,-0.8985788226127625,98937.546875,36.99,-0.3284604847431183,167611,0.0,35.0,1
167.71111400,167711114,0,-0.785550057888031,98936.3203125,36.99,-0.2515864968299866,167711,0.0,35.0,1
167.81085100,167810851,0,-0.7629442811012268,98936.0625,36.99,-0.26032477617263794,167810,0.0,35.0,1
167.91086200,167910862,0,-0.5764467716217041,98934.0390625,36.99,-0.04004216194152832,167910,0.0,35.0,1
168.01092000,168010920,0,-0.7177327871322632,98935.5546875,36.99,0.41079431772232056,168010,0.0,35.0,1
168.11086100,168110861,0,-0.7120813131332397,98935.515625,36.99,0.5585219860076904,168110,0.0,35.0,1
168.21091200,168210912,0,-0.6725212335586548,98935.109375,36.99,0.23346997797489166,168210,0.0,35.0,1
168.31114000,168311140,0,-0.6103554368019104,98934.4375,36.99,-0.04415184631943703,168311,0.0,35.0,1
168.41090800,168410908,0,-0.6386126279830933,98934.734375,36.99,0.06721656024456024,168410,0.0,35.0,1
168.51091400,168510914,0,-0.8251100778579712,98936.734375,36.99,0.17934881150722504,168510,0.0,35.0,1
168.61092300,168610923,0,-0.6329611539840698,98934.65625,36.99,-0.0618126206099987,168610,0.0,35.0,1
168.71113900,168711139,0,-0.7233842015266418,98935.6328125,36.99,-0.2913164794445038,168711,0.0,35.0,1
168.81116200,168811162,0,-0.7177327871322632,98935.5625,36.99,-0.1465606391429901,168811,0.0,35.0,1
168.91099600,168910996,0,-0.6612183451652527,98934.9921875,36.99,0.043581146746873856,168910,0.0,35.0,1
169.01091100,169010911,0,-0.5934010744094849,98934.25,36.99,0.08719658851623535,169010,0.0,35.0,1
169.11089700,169110897,0,-0.5425381660461426,98933.671875,36.99,0.23537608981132507,169110,0.0,35.0,1
169.21090400,169210904,0,-0.6612183451652527,98934.9453125,36.99,0.4130382835865021,169210,0.0,35.0,1
169.31089800,169310898,0,-0.7177327871322632,98935.5859375,36.99,0.2580268979072571,169310,0.0,35.0,1
169.41091500,169410915,0,-0.7742471694946289,98936.1796875,37.0,-0.19429777562618256,169410,0.0,35.0,1
169.51089900,169510899,0,-0.5707953572273254,98933.9765625,37.0,-0.47154203057289124,169510,0.0,35.0,1
170.30323200,170303232,0,-0.734687089920044,98935.7421875,37.0,-0.23241713643074036,170303,0.0,35.0,1
170.40374000,170403740,0,-0.7629442811012268,98936.0625,37.0,0.16401952505111694,170403,0.0,35.0,1
170.50329600,170503296,0,-0.9098817110061646,98937.6640625,37.0,-0.042897552251815796,170503,0.0,35.0,1
170.60336800,170603368,0,-0.695127010345459,98935.359375,37.0,-0.12601016461849213,170603,0.0,35.0,1
170.70330700,170703307,0,-0.8364129662513733,98936.8828125,37.0,-0.33963271975517273,170703,0.0,35.0,1
170.80337100,170803371,0,-0.6612183451652527,98934.9375,37.0,-0.03430523723363876,170803,0.0,35.0,1
170.90337900,170903379,0,-0.7403385043144226,98935.859375,37.0,0.24018627405166626,170903,0.0,35.0,1
171.00331400,171003314,0,-0.8307615518569946,98936.8046875,37.0,0.24371840059757233,171003,0.0,35.0,1
171.10324000,171103240,0,-0.6442640423774719,98934.75,37.0,0.06357870250940323,171103,0.0,35.0,1
171.20329800,171203298,0,-0.8477158546447754,98936.9921875,37.0,-0.07240913063287735,171203,0.0,35.0,1
171.30337900,171303379,0,-0.8759730458259583,98937.3359375,37.0,-0.09536805748939514,171303,0.0,35.0,1
171.40358900,171403589,0,-0.8364129662513733,98936.8828125,37.0,-0.2507825791835785,171403,0.0,35.0,1
171.50381000,171503810,0,-0.7629442811012268,98936.0859375,37.0,-0.37617388367652893,171503,0.0,35.0,1
171.60323800,171603238,0,-0.8138072490692139,98936.6484375,37.0,-0.12539131939411163,171603,0.0,35.0,1
171.70337700,171703377,0,-0.7685956954956055,98936.1640625,37.0,0.18013955652713776,171703,0.0,35.0,1
171.80340800,171803408,0,-0.8364129662513733,98936.8671875,37.0,0.17307527363300323,171803,0.0,35.0,1
171.90329500,171903295,0,-0.7742471694946289,98936.203125,37.0,0.02295900136232376,171903,0.0,35.0,1
172.00340700,172003407,0,-0.695127010345459,98935.3203125,37.0,-0.005298185162246227,172003,0.0,35.0,1
172.10355800,172103558,0,-0.6894755959510803,98935.296875,37.0,0.16247884929180145,172103,0.0,35.0,1
172.20338700,172203387,0,-0.745989978313446,98935.8984375,37.0,0.340852290391922,172203,0.0,35.0,1
172.30338400,172303384,0,-0.7290356159210205,98935.6796875,37.0,0.2578468322753906,172303,0.0,35.0,1
172.40356300,172403563,0,-0.7177327871322632,98935.578125,37.0,0.014128614217042923,172403,0.0,35.0,1
172.50323100,172503231,0,-0.7177327871322632,98935.578125,37.0,-0.0724090114235878,172503,0.0,35.0,1
172.60359000,172603590,0,-0.7912014722824097,98936.3828125,37.0,-0.021192898973822594,172603,0.0,35.0,1
172.70356000,172703560,0,-0.6781727075576782,98935.1796875,37.0,-0.035321544855833054,172703,0.0,35.0,1
172.80361900,172803619,0,-0.655566930770874,98934.8828125,37.0,-0.022958984598517418,172803,0.0,35.0,1
172.90359700,172903597,0,-0.7572928071022034,98936.03125,37.0,0.1306895762681961,172903,0.0,35.0,1
173.00379400,173003794,0,-0.6668698191642761,98935.0,37.0,0.17837361991405487,173003,0.0,35.0,1
173.10335300,173103353,0,-0.6273097395896912,98934.6015625,37.0,0.060046616941690445,173103,0.0,35.0,1
173.20338900,173203389,0,-0.6668698191642761,98935.03125,37.0,0.08477158844470978,173203,0.0,35.0,1
173.30341900,173303419,0,-0.7233842015266418,98935.625,37.0,0.17484134435653687,173303,0.0,35.0,1
173.40339600,173403396,0,-0.7516413927078247,98935.96875,37.0,0.012362486682832241,173403,0.0,35.0,1
173.50338300,173503383,0,-0.745989978313446,98935.9140625,37.0,-0.2525486946105957,173503,0.0,35.0,1
173.60330200,173603302,0,-0.695127010345459,98935.3203125,37.01,-0.2896362245082855,173603,0.0,35.0,1
173.70336800,173703368,0,-0.7516413927078247,98935.9375,37.0,-0.10949666053056717,173703,0.0,35.0,1
173.80385600,173803856,0,-0.7629442811012268,98936.1015625,37.01,0.022958962246775627,173803,0.0,35.0,1
173.90339100,173903391,0,-0.7685956954956055,98936.140625,37.01,-0.037087537348270416,173903,0.0,35.0,1
174.00335500,174003355,0,-0.695127010345459,98935.328125,37.0,-0.11656088382005692,174003,0.0,35.0,1
174.10336400,174103364,0,-0.6273097395896912,98934.5859375,37.01,0.010596477426588535,174103,0.0,35.0,1
174.20333700,174203337,0,-0.7403385043144226,98935.828125,37.01,0.24725045263767242,174203,0.0,35.0,1
174.30332300,174303323,0,-0.745989978313446,98935.8671875,37.01,0.2507826089859009,174303,0.0,35.0,1
174.40334500,174403345,0,-0.8081557750701904,98936.59375,37.01,-0.056514400988817215,174403,0.0,35.0,1
174.50334100,174503341,0,-0.8759730458259583,98937.34375,37.01,-0.36027929186820984,174503,0.0,35.0,1
175.61914800,175619148,0,-0.695127010345459,98935.3203125,37.01,-0.4167936146259308,175619,0.0,35.0,1
175.71914100,175719141,0,-0.4464636743068695,98932.609375,37.01,-0.16615097224712372,175719,0.0,35.0,1
175.81917000,175819170,0,-0.785550057888031,98936.328125,37.02,0.12956644594669342,175819,0.0,35.0,1
175.91942400,175919424,0,-0.7516413927078247,98935.9453125,37.01,0.11770619451999664,175919,0.0,35.0,1
176.01910600,176019106,0,-0.8194586634635925,98936.7109375,37.01,-0.09869503974914551,176019,0.0,35.0,1
176.11913500,176119135,0,-0.7516413927078247,98935.9375,37.01,-0.617828905582428,176119,0.0,35.0,1
176.21914300,176219143,0,-0.6781727075576782,98935.140625,37.01,-0.4291561245918274,176219,0.0,35.0,1
176.31913000,176319130,0,-0.5877496600151062,98934.1796875,37.01,0.09006981551647186,176319,0.0,35.0,1
176.41939600,176419396,0,-0.5764467716217041,98934.015625,37.01,0.4909687638282776,176419,0.0,35.0,1
176.51913400,176519134,0,-0.5538410544395447,98933.8046875,37.01,0.6216582655906677,176519,0.0,35.0,1
176.61909200,176619092,0,-0.7403385043144226,98935.8046875,37.01,0.430922269821167,176619,0.0,35.0,1
176.71909100,176719091,0,-0.5764467716217041,98934.0234375,37.01,0.03002326376736164,176719,0.0,35.0,1
176.81908700,176819087,0,-0.5707953572273254,98933.984375,37.01,-0.208396777510643,176819,0.0,35.0,1
176.91913300,176919133,0,-0.5029780864715576,98933.2421875,37.01,-0.001766051398590207,176919,0.0,35.0,1
177.01916500,177019165,0,-0.6273097395896912,98934.5703125,37.02,0.3125951886177063,177019,0.0,35.0,1
177.11913500,177119135,0,-0.4803723096847534,98932.9609375,37.01,0.27903977036476135,177119,0.0,35.0,1
177.21915500,177219155,0,-0.5255838632583618,98933.4765625,37.01,0.09890018403530121,177219,0.0,35.0,1
177.31915100,177319151,0,-0.7120813131332397,98935.4921875,37.02,0.0494500994682312,177319,0.0,35.0,1
177.41912300,177419123,0,-0.6499155163764954,98934.8046875,37.01,-0.12715740501880646,177419,0.0,35.0,1
177.51942500,177519425,0,-0.5368866920471191,98933.6171875,37.01,-0.4008989930152893,177519,0.0,35.0,1
177.61914500,177619145,0,-0.6329611539840698,98934.6640625,37.01,-0.26667726039886475,177619,0.0,35.0,1
177.71918000,177719180,0,-0.5877496600151062,98934.1484375,37.01,0.10596457123756409,177719,0.0,35.0,1
177.81908900,177819089,0,-0.6103554368019104,98934.3828125,37.02,0.1554146409034729,177819,0.0,35.0,1
177.91943700,177919437,0,-0.7290356159210205,98935.7265625,37.01,-0.03532150760293007,177919,0.0,35.0,1
178.01962100,178019621,0,-0.6499155163764954,98934.8515625,37.01,-0.2048647105693817,178019,0.0,35.0,1
178.11915400,178119154,0,-0.7064298987388611,98935.453125,37.02,-0.2949345111846924,178119,0.0,35.0,1
178.21915400,178219154,0,-0.6838241219520569,98935.21875,37.02,-0.22605760395526886,178219,0.0,35.0,1
178.31913400,178319134,0,-0.7064298987388611,98935.4375,37.02,-0.09360199421644211,178319,0.0,35.0,1
178.41915800,178419158,0,-0.7912014722824097,98936.4140625,37.02,-0.08123943209648132,178419,0.0,35.0,1
178.51913100,178519131,0,-0.5312352776527405,98933.53125,37.02,-0.11479483544826508,178519,0.0,35.0,1
178.61965300,178619653,0,-0.46341800689697266,98932.7890625,37.01,0.10949663817882538,178619,0.0,35.0,1
178.71915900,178719159,0,-0.5481895804405212,98933.7421875,37.02,0.5986993312835693,178719,0.0,35.0,1
178.81913900,178819139,0,-0.604703962802887,98934.3203125,37.02,0.734687089920044,178819,0.0,35.0,1
178.91913700,178919137,0,-0.42950937151908875,98932.4375,37.02,0.29316848516464233,178919,0.0,35.0,1
179.01956400,179019564,0,-0.5934010744094849,98934.1953125,37.02,-0.031789299100637436,179019,0.0,35.0,1
179.11956300,179119563,0,-0.5594924688339233,98933.828125,37.02,0.014128635637462139,179119,0.0,35.0,1
179.21913100,179219131,0,-0.4803723096847534,98932.9765625,37.02,-0.0017660676967352629,179219,0.0,35.0,1
179.31914500,179319145,0,-0.5255838632583618,98933.4921875,37.02,-0.04061971977353096,179319,0.0,35.0,1
179.41913100,179419131,0,-0.7403385043144226,98935.8359375,37.02,0.014128534123301506,179419,0.0,35.0,1
179.51916800,179519168,0,-0.5990525484085083,98934.265625,37.02,-0.18367183208465576,179519,0.0,35.0,1
180.79324500,180793245,0,-0.5312352776527405,98933.53125,37.02,-0.44907674193382263,180793,0.0,35.0,1
180.91243500,180912435,0,-0.46341800689697266,98932.8125,37.02,-0.12090522795915604,180912,0.0,35.0,1
181.01234900,181012349,0,-0.5425381660461426,98933.6796875,37.03,0.06056935340166092,181012,0.0,35.0,1
181.11241300,181112413,0,-0.6329611539840698,98934.65625,37.02,0.08128312975168228,181112,0.0,35.0,1
181.21262900,181212629,0,-0.6103554368019104,98934.421875,37.02,-0.013178790919482708,181212,0.0,35.0,1
181.31283300,181312833,0,-0.5820982456207275,98934.109375,37.02,-0.3575536608695984,181312,0.0,35.0,1
181.41287800,181412878,0,-0.565143883228302,98933.921875,37.02,-0.2645859718322754,181412,0.0,35.0,1
181.51285500,181512855,0,-0.6442640423774719,98934.7578125,37.03,-0.005298243369907141,181512,0.0,35.0,1
181.61237300,181612373,0,-0.6725212335586548,98935.0859375,37.03,0.015894733369350433,181612,0.0,35.0,1
181.71241200,181712412,0,-0.7064298987388611,98935.4375,37.02,-0.19780027866363525,181712,0.0,35.0,1
181.81241100,181812411,0,-0.6329611539840698,98934.65625,37.02,-0.33025598526000977,181812,0.0,35.0,1
181.91243200,181912432,0,-0.6612183451652527,98934.984375,37.02,-0.20663076639175415,181912,0.0,35.0,1
182.01284400,182012844,0,-0.7403385043144226,98935.8515625,37.03,-0.014128574170172215,182012,0.0,35.0,1
182.11282200,182112822,0,-0.6160068511962891,98934.4765625,37.03,-0.005298162344843149,182112,0.0,35.0,1
182.21281900,182212819,0,-0.5199323892593384,98933.4140625,37.03,-0.007064285688102245,182212,0.0,35.0,1
182.31288800,182312888,0,-0.6781727075576782,98935.1796875,37.03,0.2207592874765396,182312,0.0,35.0,1
182.41283100,182412831,0,-0.6838241219520569,98935.2265625,37.03,0.3072969317436218,182412,0.0,35.0,1
182.51286600,182512866,0,-0.6668698191642761,98935.0390625,37.03,-0.028257258236408234,182512,0.0,35.0,1
182.61282400,182612824,0,-0.6442640423774719,98934.796875,37.02,-0.2896362543106079,182612,0.0,35.0,1
182.71234300,182712343,0,-0.5594924688339233,98933.8671875,37.03,-0.12009306997060776,182712,0.0,35.0,1
182.81243000,182812430,0,-0.5764467716217041,98934.0546875,37.03,0.1925021857023239,182812,0.0,35.0,1
182.91240300,182912403,0,-0.7685956954956055,98936.1328125,37.03,0.27374163269996643,182912,0.0,35.0,1
183.01239700,183012397,0,-0.7912014722824097,98936.3671875,37.03,-0.054748278111219406,183012,0.0,35.0,1
183.11244000,183112440,0,-0.6216583251953125,98934.546875,37.03,-0.4962669909000397,183112,0.0,35.0,1
183.21262300,183212623,0,-0.604703962802887,98934.3203125,37.03,-0.4008989930152893,183212,0.0,35.0,1
183.31239100,183312391,0,-0.7572928071022034,98936.0234375,37.03,0.13245554268360138,183312,0.0,35.0,1
183.41238300,183412383,0,-0.745989978313446,98935.90625,37.03,0.2525487244129181,183412,0.0,35.0,1
183.51244100,183512441,0,-0.7516413927078247,98935.9375,37.03,-0.15011629462242126,183512,0.0,35.0,1
183.61261200,183612612,0,-0.7572928071022034,98936.03125,37.03,-0.37264174222946167,183612,0.0,35.0,1
183.71259900,183712599,0,-0.8477158546447754,98936.984375,37.03,-0.2525486946105957,183712,0.0,35.0,1
183.81240000,183812400,0,-0.6838241219520569,98935.1875,37.03,-0.15541450679302216,183812,0.0,35.0,1
183.91239400,183912394,0,-0.695127010345459,98935.3203125,37.03,-0.05298221483826637,183912,0.0,35.0,1
184.01263000,184012630,0,-0.7403385043144226,98935.8359375,37.03,0.18720386922359467,184012,0.0,35.0,1
184.11265200,184112652,0,-0.6499155163764954,98934.8125,37.03,0.29140228033065796,184112,0.0,35.0,1
184.21241300,184212413,0,-0.7516413927078247,98935.9296875,37.03,0.16071276366710663,184212,0.0,35.0,1
184.31289600,184312896,0,-0.745989978313446,98935.890625,37.03,0.017660707235336304,184312,0.0,35.0,1
184.41296900,184412969,0,-0.7572928071022034,98935.9921875,37.03,-0.10419843345880508,184412,0.0,35.0,1
184.51285100,184512851,0,-0.695127010345459,98935.34375,37.03,-0.1713092178106308,184512,0.0,35.0,1
184.61237900,184612379,0,-0.7120813131332397,98935.5234375,37.03,-0.05651433393359184,184612,0.0,35.0,1
184.71238200,184712382,0,-0.7798985838890076,98936.2890625,37.03,0.08830377459526062,184712,0.0,35.0,1
184.81235600,184812356,0,-0.7685956954956055,98936.1640625,37.03,0.02295898087322712,184812,0.0,35.0,1
184.91234900,184912349,0,-0.6160068511962891,98934.4609375,37.03,-0.10596446692943573,184912,0.0,35.0,1
185.87270100,185872701,0,-0.7233842015266418,98935.640625,37.04,0.01495117973536253,185872,0.0,35.0,1
185.97270400,185972704,0,-0.5199323892593384,98933.421875,37.04,0.2740948498249054,185972,0.0,35.0,1
186.07271200,186072712,0,-0.7742471694946289,98936.1953125,37.04,0.10850641876459122,186072,0.0,35.0,1
186.17270000,186172700,0,-0.785550057888031,98936.3125,37.04,0.025355402380228043,186172,0.0,35.0,1
186.27278900,186272789,0,-0.7629442811012268,98936.0859375,37.04,-0.14602665603160858,186272,0.0,35.0,1
186.37229900,186372299,0,-0.7403385043144226,98935.859375,37.04,-0.4804449677467346,186372,0.0,35.0,1
186.47230300,186472303,0,-0.7798985838890076,98936.2890625,37.04,-0.2755076587200165,186472,0.0,35.0,1
186.57242000,186572420,0,-0.7572928071022034,98936.0234375,37.04,-0.010596347972750664,186572,0.0,35.0,1
186.67240400,186672404,0,-0.9211845397949219,98937.828125,37.04,-0.03708746284246445,186672,0.0,35.0,1
186.77239600,186772396,0,-0.7742471694946289,98936.1953125,37.04,-0.22075925767421722,186772,0.0,35.0,1
186.87232800,186872328,0,-0.8251100778579712,98936.796875,37.04,-0.282571941614151,186872,0.0,35.0,1
186.97276600,186972766,0,-0.8533673286437988,98937.078125,37.04,-0.1183270663022995,186972,0.0,35.0,1
187.09009000,187090090,0,-0.6838241219520569,98935.21875,37.04,0.059172000735998154,187090,0.0,35.0,1
187.19007000,187190070,0,-0.7064298987388611,98935.4609375,37.04,0.1757303923368454,187190,0.0,35.0,1
187.29049700,187290497,0,-0.7403385043144226,98935.8359375,37.04,0.33852097392082214,187290,0.0,35.0,1
187.39008200,187390082,0,-0.7685956954956055,98936.125,37.04,0.313748836517334,187390,0.0,35.0,1
187.49013500,187490135,0,-0.8307615518569946,98936.8359375,37.04,0.011383109726011753,187490,0.0,35.0,1
187.59006300,187590063,0,-0.8759730458259583,98937.3125,37.04,-0.28766435384750366,187590,0.0,35.0,1
187.69034800,187690348,0,-0.5990525484085083,98934.265625,37.04,-0.3267238140106201,187690,0.0,35.0,1
187.79038200,187790382,0,-0.7798985838890076,98936.2734375,37.04,-0.014128629118204117,187790,0.0,35.0,1
187.89004500,187890045,0,-0.8533673286437988,98937.046875,37.04,0.3125951886177063,187890,0.0,35.0,1
187.99007300,187990073,0,-0.7064298987388611,98935.4375,37.04,0.1412859410047531,187990,0.0,35.0,1
188.09007300,188090073,0,-0.8138072490692139,98936.609375,37.04,-0.1801397055387497,188090,0.0,35.0,1
188.19010500,188190105,0,-0.6612183451652527,98934.953125,37.04,-0.08653771132230759,188190,0.0,35.0,1
188.29004300,188290043,0,-0.8025043606758118,98936.5234375,37.050000000000004,0.14658424258232117,188290,0.0,35.0,1
188.39009400,188390094,0,-0.7629442811012268,98936.078125,37.04,0.13951997458934784,188390,0.0,35.0,1
188.49035200,188490352,0,-0.7572928071022034,98936.0234375,37.04,-0.022958924993872643,188490,0.0,35.0,1
188.59027400,188590274,0,-0.745989978313446,98935.8828125,37.050000000000004,-0.10066624730825424,188590,0.0,35.0,1
188.69009500,188690095,0,-0.6725212335586548,98935.1015625,37.04,0.008830386213958263,188690,0.0,35.0,1
188.79033400,188790334,0,-0.6442640423774719,98934.7578125,37.04,0.19426822662353516,188790,0.0,35.0,1
188.89039200,188890392,0,-0.734687089920044,98935.7890625,37.050000000000004,0.30199873447418213,188890,0.0,35.0,1
188.99010700,188990107,0,-0.6612183451652527,98934.9609375,37.050000000000004,0.21899327635765076,188990,0.0,35.0,1
189.09039000,189090390,0,-0.7516413927078247,98935.9765625,37.050000000000004,0.010596459731459618,189090,0.0,35.0,1
189.19008200,189190082,0,-0.5481895804405212,98933.7265625,37.050000000000004,-0.06357867270708084,189190,0.0,35.0,1
189.29038900,189290389,0,-0.7290356159210205,98935.703125,37.050000000000004,0.07594123482704163,189290,0.0,35.0,1
189.39006500,189390065,0,-0.695127010345459,98935.3046875,37.050000000000004,0.16777710616588593,189390,0.0,35.0,1
189.49007500,189490075,0,-0.7233842015266418,98935.65625,37.050000000000004,-0.0035321544855833054,189490,0.0,35.0,1
189.59004300,189590043,0,-0.7798985838890076,98936.265625,37.050000000000004,-0.23135581612586975,189590,0.0,35.0,1
189.69007600,189690076,0,-0.8025043606758118,98936.5234375,37.050000000000004,-0.2967005968093872,189690,0.0,35.0,1
189.79008500,189790085,0,-0.7403385043144226,98935.8515625,37.050000000000004,-0.2843380570411682,189790,0.0,35.0,1
189.89026800,189890268,0,-0.6273097395896912,98934.59375,37.050000000000004,-0.1483502835035324,189890,0.0,35.0,1
189.99027000,189990270,0,-0.7798985838890076,98936.28125,37.050000000000004,0.15541456639766693,189990,0.0,35.0,1
190.09025500,190090255,0,-0.655566930770874,98934.890625,37.050000000000004,0.29493448138237,190090,0.0,35.0,1
