timestamp,TimeUS,DesRoll,Roll,DesPitch,Pitch,DesYaw,Yaw,ErrRP,ErrYaw,AEKF
153.47375500,153473755,0.0,-6.03,0.0,17.95,153.99,153.99,0.0,1.0,3
153.52375100,153523751,0.0,-6.04,0.0,17.93,154.03,154.03,0.0,1.0,3
153.52645200,153526452,0.0,-6.04,0.0,17.93,154.03,154.03,0.0,1.0,3
153.52878500,153528785,0.0,-6.04,0.0,17.94,154.03,154.03,0.0,1.0,3
153.55646900,153556469,0.0,-6.04,0.0,17.95,154.04,154.04,0.0,1.0,3
153.55874600,153558746,0.0,-6.04,0.0,17.95,154.04,154.04,0.0,1.0,3
153.56173300,153561733,0.0,-6.04,0.0,17.94,154.05,154.05,0.0,1.0,3
153.58646100,153586461,0.0,-6.04,0.0,17.93,154.08,154.08,0.0,1.0,3
153.58877600,153588776,0.0,-6.04,0.0,17.93,154.08,154.08,0.0,1.0,3
153.59146600,153591466,0.0,-6.04,0.0,17.93,154.09,154.09,0.0,1.0,3
153.59374100,153593741,0.0,-6.04,0.0,17.92,154.09,154.09,0.0,1.0,3
153.62168300,153621683,0.0,-6.04,0.0,17.93,154.13,154.13,0.0,1.0,3
153.62375000,153623750,0.0,-6.04,0.0,17.94,154.13,154.13,0.0,1.0,3
153.62646100,153626461,0.0,-6.04,0.0,17.94,154.13,154.13,0.0,1.0,3
153.62880000,153628800,0.0,-6.04,0.0,17.94,154.14000000000001,154.14000000000001,0.0,1.0,3
153.65146200,153651462,0.0,-6.04,0.0,17.94,154.15,154.15,0.0,1.0,3
153.65373800,153653738,0.0,-6.04,0.0,17.94,154.15,154.15,0.0,1.0,3
153.65646200,153656462,0.0,-6.04,0.0,17.93,154.16,154.16,0.0,1.0,3
153.65875700,153658757,0.0,-6.04,0.0,17.93,154.16,154.16,0.0,1.0,3
153.70146800,153701468,0.0,-6.04,0.0,17.89,154.19,154.19,0.0,1.0,3
153.70373400,153703734,0.0,-6.04,0.0,17.89,154.19,154.19,0.0,1.0,3
153.70645900,153706459,0.0,-6.04,0.0,17.89,154.20000000000002,154.20000000000002,0.0,1.0,3
153.73375900,153733759,0.0,-6.04,0.0,17.91,154.22,154.22,0.0,1.0,3
153.73646400,153736464,0.0,-6.04,0.0,17.92,154.22,154.22,0.0,1.0,3
153.73876200,153738762,0.0,-6.04,0.0,17.92,154.23,154.23,0.0,1.0,3
153.74144500,153741445,0.0,-6.04,0.0,17.92,154.23,154.23,0.0,1.0,3
153.76645500,153766455,0.0,-6.05,0.0,17.94,154.26,154.26,0.0,1.0,3
153.76881100,153768811,0.0,-6.05,0.0,17.94,154.26,154.26,0.0,1.0,3
153.77144500,153771445,0.0,-6.05,0.0,17.93,154.26,154.26,0.0,1.0,3
153.80144500,153801445,0.0,-6.05,0.0,17.900000000000002,154.3,154.3,0.0,1.0,3
153.80375500,153803755,0.0,-6.05,0.0,17.89,154.3,154.3,0.0,1.0,3
153.80645600,153806456,0.0,-6.05,0.0,17.89,154.3,154.3,0.0,1.0,3
153.80894000,153808940,0.0,-6.04,0.0,17.89,154.3,154.3,0.0,1.0,3
153.83146400,153831464,0.0,-6.05,0.0,17.900000000000002,154.31,154.31,0.0,1.0,3
153.83373800,153833738,0.0,-6.05,0.0,17.900000000000002,154.31,154.31,0.0,1.0,3
153.83644900,153836449,0.0,-6.05,0.0,17.900000000000002,154.31,154.31,0.0,1.0,3
153.83875300,153838753,0.0,-6.05,0.0,17.900000000000002,154.31,154.31,0.0,1.0,3
153.86146300,153861463,0.0,-6.05,0.0,17.900000000000002,154.33,154.33,0.0,1.0,3
153.86373200,153863732,0.0,-6.05,0.0,17.900000000000002,154.33,154.33,0.0,1.0,3
153.86646100,153866461,0.0,-6.05,0.0,17.900000000000002,154.34,154.34,0.0,1.0,3
153.86877400,153868774,0.0,-6.05,0.0,17.900000000000002,154.34,154.34,0.0,1.0,3
153.89375500,153893755,0.0,-6.05,0.0,17.88,154.37,154.37,0.0,1.0,3
153.89646100,153896461,0.0,-6.05,0.0,17.88,154.37,154.37,0.0,1.0,3
153.89875700,153898757,0.0,-6.05,0.0,17.88,154.38,154.38,0.0,1.0,3
153.90174100,153901741,0.0,-6.05,0.0,17.88,154.38,154.38,0.0,1.0,3
153.90404900,153904049,0.0,-6.05,0.0,17.88,154.39000000000001,154.39000000000001,0.0,1.0,3
153.92878600,153928786,0.0,-6.04,0.0,17.89,154.41,154.41,0.0,1.0,3
153.93145400,153931454,0.0,-6.04,0.0,17.900000000000002,154.42000000000002,154.42000000000002,0.0,1.0,3
153.93374300,153933743,0.0,-6.05,0.0,17.900000000000002,154.42000000000002,154.42000000000002,0.0,1.0,3
153.93646000,153936460,0.0,-6.05,0.0,17.900000000000002,154.42000000000002,154.42000000000002,0.0,1.0,3
153.93875800,153938758,0.0,-6.05,0.0,17.91,154.42000000000002,154.42000000000002,0.0,1.0,3
153.96146800,153961468,0.0,-6.04,0.0,17.92,154.43,154.43,0.0,1.0,3
153.96375800,153963758,0.0,-6.04,0.0,17.92,154.43,154.43,0.0,1.0,3
153.96646100,153966461,0.0,-6.04,0.0,17.91,154.43,154.43,0.0,1.0,3
153.96877200,153968772,0.0,-6.04,0.0,17.91,154.43,154.43,0.0,1.0,3
153.97145300,153971453,0.0,-6.04,0.0,17.91,154.44,154.44,0.0,1.0,3
153.99888300,153998883,0.0,-6.04,0.0,17.86,154.46,154.46,0.0,1.0,3
154.00147000,154001470,0.0,-6.04,0.0,17.86,154.46,154.46,0.0,1.0,3
154.00374900,154003749,0.0,-6.04,0.0,17.86,154.46,154.46,0.0,1.0,3
154.00644100,154006441,0.0,-6.04,0.0,17.86,154.46,154.46,0.0,1.0,3
154.00892000,154008920,0.0,-6.04,0.0,17.86,154.46,154.46,0.0,1.0,3
154.01195100,154011951,0.0,-6.04,0.0,17.86,154.47,154.47,0.0,1.0,3
154.03645800,154036458,0.0,-6.05,0.0,17.87,154.49,154.49,0.0,1.0,3
154.03874500,154038745,0.0,-6.04,0.0,17.87,154.49,154.49,0.0,1.0,3
154.04146400,154041464,0.0,-6.05,0.0,17.88,154.5,154.5,0.0,1.0,3
154.04373900,154043739,0.0,-6.05,0.0,17.88,154.5,154.5,0.0,1.0,3
154.04650700,154046507,0.0,-6.05,0.0,17.89,154.5,154.5,0.0,1.0,3
154.04886200,154048862,0.0,-6.04,0.0,17.89,154.5,154.5,0.0,1.0,3
154.08878200,154088782,0.0,-6.04,0.0,17.92,154.54,154.54,0.0,1.0,3
154.09143400,154091434,0.0,-6.04,0.0,17.91,154.54,154.54,0.0,1.0,3
154.09373700,154093737,0.0,-6.04,0.0,17.91,154.54,154.54,0.0,1.0,3
154.09646500,154096465,0.0,-6.04,0.0,17.91,154.55,154.55,0.0,1.0,3
154.09874500,154098745,0.0,-6.04,0.0,17.900000000000002,154.55,154.55,0.0,1.0,3
154.10207800,154102078,0.0,-6.04,0.0,17.900000000000002,154.55,154.55,0.0,1.0,3
154.13688900,154136889,0.0,-6.04,0.0,17.85,154.58,154.58,0.0,1.0,3
154.13955600,154139556,0.0,-6.04,0.0,17.85,154.58,154.58,0.0,1.0,3
154.14184300,154141843,0.0,-6.04,0.0,17.85,154.58,154.58,0.0,1.0,3
154.14456900,154144569,0.0,-6.05,0.0,17.85,154.58,154.58,0.0,1.0,3
154.14683800,154146838,0.0,-6.05,0.0,17.86,154.58,154.58,0.0,1.0,3
154.14965700,154149657,0.0,-6.05,0.0,17.86,154.58,154.58,0.0,1.0,3
154.18691300,154186913,0.0,-6.05,0.0,17.900000000000002,154.61,154.61,0.0,1.0,3
154.18966100,154189661,0.0,-6.05,0.0,17.900000000000002,154.61,154.61,0.0,1.0,3
154.19188100,154191881,0.0,-6.05,0.0,17.900000000000002,154.62,154.62,0.0,1.0,3
154.19455900,154194559,0.0,-6.05,0.0,17.900000000000002,154.62,154.62,0.0,1.0,3
154.19690400,154196904,0.0,-6.05,0.0,17.89,154.62,154.62,0.0,1.0,3
154.19955300,154199553,0.0,-6.05,0.0,17.89,154.63,154.63,0.0,1.0,3
154.23485400,154234854,0.0,-6.05,0.0,17.84,154.66,154.66,0.0,1.0,3
154.23729500,154237295,0.0,-6.05,0.0,17.84,154.66,154.66,0.0,1.0,3
154.24024800,154240248,0.0,-6.05,0.0,17.84,154.66,154.66,0.0,1.0,3
154.24294300,154242943,0.0,-6.05,0.0,17.84,154.66,154.66,0.0,1.0,3
154.24542500,154245425,0.0,-6.05,0.0,17.85,154.66,154.66,0.0,1.0,3
154.24769100,154247691,0.0,-6.05,0.0,17.85,154.66,154.66,0.0,1.0,3
154.28502400,154285024,0.0,-6.0600000000000005,0.0,17.91,154.66,154.66,0.0,1.0,3
154.28784000,154287840,0.0,-6.0600000000000005,0.0,17.91,154.67000000000002,154.67000000000002,0.0,1.0,3
154.29057500,154290575,0.0,-6.0600000000000005,0.0,17.91,154.67000000000002,154.67000000000002,0.0,1.0,3
154.29301200,154293012,0.0,-6.05,0.0,17.91,154.68,154.68,0.0,1.0,3
154.29583500,154295835,0.0,-6.05,0.0,17.900000000000002,154.68,154.68,0.0,1.0,3
154.29857300,154298573,0.0,-6.05,0.0,17.900000000000002,154.69,154.69,0.0,1.0,3
154.33604200,154336042,0.0,-6.07,0.0,17.830000000000002,154.74,154.74,0.0,1.0,3
154.33885400,154338854,0.0,-6.07,0.0,17.830000000000002,154.75,154.75,0.0,1.0,3
154.34154200,154341542,0.0,-6.07,0.0,17.830000000000002,154.75,154.75,0.0,1.0,3
154.34398700,154343987,0.0,-6.07,0.0,17.830000000000002,154.75,154.75,0.0,1.0,3
154.34681700,154346817,0.0,-6.07,0.0,17.830000000000002,154.76,154.76,0.0,1.0,3
154.34952300,154349523,0.0,-6.07,0.0,17.830000000000002,154.76,154.76,0.0,1.0,3
154.38985800,154389858,0.0,-6.08,0.0,17.89,154.76,154.76,0.0,1.0,3
154.39257600,154392576,0.0,-6.08,0.0,17.89,154.77,154.77,0.0,1.0,3
154.39503300,154395033,0.0,-6.08,0.0,17.89,154.77,154.77,0.0,1.0,3
154.39791700,154397917,0.0,-6.08,0.0,17.88,154.77,154.77,0.0,1.0,3
154.40066800,154400668,0.0,-6.08,0.0,17.88,154.77,154.77,0.0,1.0,3
154.40308100,154403081,0.0,-6.08,0.0,17.88,154.77,154.77,0.0,1.0,3
154.45314200,154453142,0.0,-6.08,0.0,17.830000000000002,154.83,154.83,0.0,1.0,3
154.45590700,154455907,0.0,-6.08,0.0,17.830000000000002,154.83,154.83,0.0,1.0,3
154.45871400,154458714,0.0,-6.08,0.0,17.830000000000002,154.84,154.84,0.0,1.0,3
154.46132400,154461324,0.0,-6.08,0.0,17.830000000000002,154.84,154.84,0.0,1.0,3
154.46376000,154463760,0.0,-6.08,0.0,17.830000000000002,154.84,154.84,0.0,1.0,3
154.49169100,154491691,0.0,-6.09,0.0,17.87,154.87,154.87,0.0,1.0,3
154.49417200,154494172,0.0,-6.09,0.0,17.87,154.88,154.88,0.0,1.0,3
154.49703800,154497038,0.0,-6.09,0.0,17.87,154.88,154.88,0.0,1.0,3
154.49955600,154499556,0.0,-6.09,0.0,17.87,154.88,154.88,0.0,1.0,3
154.50178200,154501782,0.0,-6.09,0.0,17.87,154.88,154.89000000000001,0.0,1.0,3
154.52946600,154529466,0.0,-6.09,0.0,17.84,154.9,154.9,0.0,1.0,3
154.53175900,154531759,0.0,-6.09,0.0,17.84,154.9,154.9,0.0,1.0,3
154.53451200,154534512,0.0,-6.09,0.0,17.830000000000002,154.9,154.9,0.0,1.0,3
154.53678000,154536780,0.0,-6.1000000000000005,0.0,17.830000000000002,154.9,154.9,0.0,1.0,3
154.53947100,154539471,0.0,-6.1000000000000005,0.0,17.830000000000002,154.91,154.91,0.0,1.0,3
154.56201600,154562016,0.0,-6.09,0.0,17.82,154.92000000000002,154.92000000000002,0.0,1.0,3
154.56446700,154564467,0.0,-6.09,0.0,17.81,154.92000000000002,154.92000000000002,0.0,1.0,3
154.56715700,154567157,0.0,-6.09,0.0,17.81,154.92000000000002,154.92000000000002,0.0,1.0,3
154.56988800,154569888,0.0,-6.1000000000000005,0.0,17.81,154.92000000000002,154.92000000000002,0.0,1.0,3
154.57219300,154572193,0.0,-6.09,0.0,17.81,154.92000000000002,154.92000000000002,0.0,1.0,3
154.60447800,154604478,0.0,-6.11,0.0,17.84,154.95000000000002,154.95000000000002,0.0,1.0,3
154.60677000,154606770,0.0,-6.11,0.0,17.84,154.95000000000002,154.95000000000002,0.0,1.0,3
154.60947000,154609470,0.0,-6.1000000000000005,0.0,17.84,154.96,154.96,0.0,1.0,3
154.61177100,154611771,0.0,-6.1000000000000005,0.0,17.85,154.96,154.96,0.0,1.0,3
154.61474100,154614741,0.0,-6.1000000000000005,0.0,17.85,154.96,154.96,0.0,1.0,3
154.63972200,154639722,0.0,-6.1000000000000005,0.0,17.84,155.0,155.0,0.0,1.0,3
154.64181900,154641819,0.0,-6.11,0.0,17.84,155.0,155.0,0.0,1.0,3
154.64445900,154644459,0.0,-6.1000000000000005,0.0,17.84,155.0,155.0,0.0,1.0,3
154.64676300,154646763,0.0,-6.1000000000000005,0.0,17.84,155.0,155.0,0.0,1.0,3
154.64947300,154649473,0.0,-6.11,0.0,17.830000000000002,155.0,155.0,0.0,1.0,3
154.65175800,154651758,0.0,-6.11,0.0,17.830000000000002,155.0,155.0,0.0,1.0,3
154.67450200,154674502,0.0,-6.11,0.0,17.8,155.02,155.02,0.0,1.0,3
154.67680200,154676802,0.0,-6.11,0.0,17.8,155.02,155.02,0.0,1.0,3
154.67946600,154679466,0.0,-6.11,0.0,17.8,155.02,155.02,0.0,1.0,3
154.68176000,154681760,0.0,-6.11,0.0,17.8,155.02,155.02,0.0,1.0,3
154.68449000,154684490,0.0,-6.11,0.0,17.8,155.02,155.02,0.0,1.0,3
154.68676400,154686764,0.0,-6.11,0.0,17.8,155.02,155.02,0.0,1.0,3
154.70500800,154705008,0.0,-6.11,0.0,17.8,155.02,155.02,0.0,1.0,3
154.71302100,154713021,0.0,-6.11,0.0,17.8,155.02,155.02,0.0,1.0,3
154.72158100,154721581,0.0,-6.11,0.0,17.81,155.02,155.02,0.0,1.0,3
154.72920800,154729208,0.0,-6.11,0.0,17.81,155.02,155.02,0.0,1.0,3
154.73702800,154737028,0.0,-6.11,0.0,17.81,155.02,155.02,0.0,1.0,3
154.74555200,154745552,0.0,-6.11,0.0,17.81,155.02,155.02,0.0,1.0,3
154.75292500,154752925,0.0,-6.11,0.0,17.81,155.02,155.02,0.0,1.0,3
154.76098900,154760989,0.0,-6.11,0.0,17.8,155.02,155.02,0.0,1.0,3
154.76923000,154769230,0.0,-6.11,0.0,17.8,155.02,155.02,0.0,1.0,3
154.77697100,154776971,0.0,-6.11,0.0,17.8,155.02,155.02,0.0,1.0,3
154.78504200,154785042,0.0,-6.11,0.0,17.8,155.02,155.02,0.0,1.0,3
154.79350400,154793504,0.0,-6.11,0.0,17.8,155.02,155.02,0.0,1.0,3
154.80095300,154800953,0.0,-6.11,0.0,17.8,155.02,155.02,0.0,1.0,3
154.80898900,154808989,0.0,-6.11,0.0,17.8,155.02,155.02,0.0,1.0,3
154.81827100,154818271,0.0,-6.11,0.0,17.8,155.02,155.02,0.0,1.0,3
154.82497500,154824975,0.0,-6.11,0.0,17.8,155.02,155.02,0.0,1.0,3
154.83299100,154832991,0.0,-6.11,0.0,17.81,155.02,155.02,0.0,1.0,3
154.84121200,154841212,0.0,-6.11,0.0,17.81,155.02,155.02,0.0,1.0,3
154.84896000,154848960,0.0,-6.11,0.0,17.8,155.02,155.02,0.0,1.0,3
154.85717100,154857171,0.0,-6.11,0.0,17.8,155.02,155.02,0.0,1.0,3
154.86549900,154865499,0.0,-6.11,0.0,17.8,155.03,155.03,0.0,1.0,3
154.87300900,154873009,0.0,-6.11,0.0,17.8,155.03,155.03,0.0,1.0,3
154.88102700,154881027,0.0,-6.11,0.0,17.8,155.03,155.03,0.0,1.0,3
154.88922400,154889224,0.0,-6.12,0.0,17.8,155.03,155.03,0.0,1.0,3
154.89696900,154896969,0.0,-6.12,0.0,17.8,155.03,155.03,0.0,1.0,3
154.90537900,154905379,0.0,-6.12,0.0,17.8,155.03,155.03,0.0,1.0,3
154.91355700,154913557,0.0,-6.12,0.0,17.8,155.03,155.03,0.0,1.0,3
154.92141500,154921415,0.0,-6.12,0.0,17.8,155.03,155.03,0.0,1.0,3
154.92931300,154929313,0.0,-6.12,0.0,17.8,155.03,155.03,0.0,1.0,3
154.95297300,154952973,0.0,-6.12,0.0,17.8,155.03,155.03,0.0,1.0,3
154.96128100,154961281,0.0,-6.12,0.0,17.8,155.03,155.03,0.0,1.0,3
154.97704400,154977044,0.0,-6.12,0.0,17.8,155.03,155.03,0.0,1.0,3
154.98526200,154985262,0.0,-6.12,0.0,17.8,155.03,155.03,0.0,1.0,3
154.99340600,154993406,0.0,-6.12,0.0,17.8,155.03,155.03,0.0,1.0,3
155.00149400,155001494,0.0,-6.12,0.0,17.8,155.03,155.03,0.0,1.0,3
155.00956500,155009565,0.0,-6.12,0.0,17.8,155.03,155.03,0.0,1.0,3
155.01728200,155017282,0.0,-6.12,0.0,17.8,155.03,155.03,0.0,1.0,3
155.02550100,155025501,0.0,-6.12,0.0,17.8,155.04,155.04,0.0,1.0,3
155.03345900,155033459,0.0,-6.12,0.0,17.8,155.04,155.04,0.0,1.0,3
155.04093200,155040932,0.0,-6.12,0.0,17.79,155.04,155.04,0.0,1.0,3
155.04900300,155049003,0.0,-6.12,0.0,17.79,155.04,155.04,0.0,1.0,3
155.05727300,155057273,0.0,-6.12,0.0,17.79,155.04,155.04,0.0,1.0,3
155.06517900,155065179,0.0,-6.12,0.0,17.79,155.04,155.04,0.0,1.0,3
155.07299600,155072996,0.0,-6.12,0.0,17.79,155.04,155.04,0.0,1.0,3
155.08153100,155081531,0.0,-6.12,0.0,17.79,155.04,155.04,0.0,1.0,3
155.08895000,155088950,0.0,-6.12,0.0,17.79,155.04,155.04,0.0,1.0,3
155.09699200,155096992,0.0,-6.12,0.0,17.79,155.04,155.04,0.0,1.0,3
155.10522700,155105227,0.0,-6.12,0.0,17.79,155.04,155.04,0.0,1.0,3
155.11304700,155113047,0.0,-6.12,0.0,17.79,155.04,155.04,0.0,1.0,3
155.12132700,155121327,0.0,-6.12,0.0,17.79,155.04,155.04,0.0,1.0,3
155.12926800,155129268,0.0,-6.12,0.0,17.79,155.04,155.04,0.0,1.0,3
155.13699500,155136995,0.0,-6.12,0.0,17.79,155.04,155.04,0.0,1.0,3
155.14502600,155145026,0.0,-6.12,0.0,17.79,155.04,155.04,0.0,1.0,3
155.15325100,155153251,0.0,-6.12,0.0,17.79,155.04,155.04,0.0,1.0,3
155.16103100,155161031,0.0,-6.12,0.0,17.79,155.04,155.04,0.0,1.0,3
155.16894300,155168943,0.0,-6.12,0.0,17.79,155.04,155.04,0.0,1.0,3
155.17721900,155177219,0.0,-6.13,0.0,17.78,155.04,155.04,0.0,1.0,3
155.18498600,155184986,0.0,-6.13,0.0,17.78,155.04,155.04,0.0,1.0,3
155.19305500,155193055,0.0,-6.13,0.0,17.78,155.04,155.04,0.0,1.0,3
155.20171300,155201713,0.0,-6.13,0.0,17.78,155.04,155.04,0.0,1.0,3
155.20897700,155208977,0.0,-6.13,0.0,17.78,155.04,155.04,0.0,1.0,3
155.21729700,155217297,0.0,-6.13,0.0,17.78,155.04,155.04,0.0,1.0,3
155.22572200,155225722,0.0,-6.13,0.0,17.78,155.04,155.04,0.0,1.0,3
155.23345600,155233456,0.0,-6.13,0.0,17.78,155.04,155.04,0.0,1.0,3
155.24146600,155241466,0.0,-6.13,0.0,17.78,155.04,155.04,0.0,1.0,3
155.24952300,155249523,0.0,-6.13,0.0,17.78,155.04,155.04,0.0,1.0,3
155.25706400,155257064,0.0,-6.13,0.0,17.78,155.04,155.04,0.0,1.0,3
155.26501700,155265017,0.0,-6.13,0.0,17.78,155.04,155.04,0.0,1.0,3
155.27326000,155273260,0.0,-6.13,0.0,17.78,155.04,155.04,0.0,1.0,3
155.28094600,155280946,0.0,-6.13,0.0,17.78,155.04,155.04,0.0,1.0,3
155.28899300,155288993,0.0,-6.13,0.0,17.78,155.04,155.04,0.0,1.0,3
155.29724500,155297245,0.0,-6.13,0.0,17.78,155.04,155.04,0.0,1.0,3
155.30494800,155304948,0.0,-6.13,0.0,17.77,155.04,155.04,0.0,1.0,3
155.31304400,155313044,0.0,-6.13,0.0,17.77,155.03,155.03,0.0,1.0,3
155.32156600,155321566,0.0,-6.13,0.0,17.77,155.03,155.03,0.0,1.0,3
155.32912600,155329126,0.0,-6.13,0.0,17.77,155.03,155.03,0.0,1.0,3
155.33695500,155336955,0.0,-6.13,0.0,17.77,155.03,155.03,0.0,1.0,3
155.34519300,155345193,0.0,-6.13,0.0,17.77,155.03,155.03,0.0,1.0,3
155.35312600,155353126,0.0,-6.13,0.0,17.77,155.03,155.03,0.0,1.0,3
155.36096100,155360961,0.0,-6.13,0.0,17.77,155.03,155.03,0.0,1.0,3
155.36952100,155369521,0.0,-6.140000000000001,0.0,17.77,155.03,155.03,0.0,1.0,3
155.37699900,155376999,0.0,-6.140000000000001,0.0,17.77,155.03,155.03,0.0,1.0,3
155.38519100,155385191,0.0,-6.140000000000001,0.0,17.77,155.03,155.03,0.0,1.0,3
155.39322600,155393226,0.0,-6.140000000000001,0.0,17.77,155.03,155.03,0.0,1.0,3
155.40101700,155401017,0.0,-6.140000000000001,0.0,17.77,155.03,155.03,0.0,1.0,3
155.40900100,155409001,0.0,-6.140000000000001,0.0,17.77,155.03,155.03,0.0,1.0,3
155.41753600,155417536,0.0,-6.140000000000001,0.0,17.76,155.03,155.03,0.0,1.0,3
155.42524500,155425245,0.0,-6.140000000000001,0.0,17.76,155.03,155.03,0.0,1.0,3
155.43295200,155432952,0.0,-6.140000000000001,0.0,17.76,155.03,155.03,0.0,1.0,3
155.44119500,155441195,0.0,-6.140000000000001,0.0,17.76,155.02,155.02,0.0,1.0,3
155.44903500,155449035,0.0,-6.140000000000001,0.0,17.76,155.02,155.02,0.0,1.0,3
155.45704000,155457040,0.0,-6.140000000000001,0.0,17.76,155.02,155.02,0.0,1.0,3
155.46522200,155465222,0.0,-6.140000000000001,0.0,17.76,155.02,155.02,0.0,1.0,3
155.47299700,155472997,0.0,-6.140000000000001,0.0,17.76,155.02,155.02,0.0,1.0,3
155.48095100,155480951,0.0,-6.140000000000001,0.0,17.76,155.02,155.02,0.0,1.0,3
155.48956500,155489565,0.0,-6.140000000000001,0.0,17.76,155.02,155.02,0.0,1.0,3
155.49728100,155497281,0.0,-6.140000000000001,0.0,17.76,155.02,155.02,0.0,1.0,3
155.50523700,155505237,0.0,-6.140000000000001,0.0,17.76,155.02,155.02,0.0,1.0,3
155.51440800,155514408,0.0,-6.15,0.0,17.76,155.02,155.02,0.0,1.0,3
155.52132400,155521324,0.0,-6.15,0.0,17.75,155.02,155.02,0.0,1.0,3
155.52924500,155529245,0.0,-6.15,0.0,17.75,155.02,155.02,0.0,1.0,3
155.53725200,155537252,0.0,-6.15,0.0,17.75,155.01,155.01,0.0,1.0,3
155.54500600,155545006,0.0,-6.15,0.0,17.75,155.01,155.01,0.0,1.0,3
155.55306300,155553063,0.0,-6.15,0.0,17.75,155.01,155.01,0.0,1.0,3
155.56150400,155561504,0.0,-6.15,0.0,17.75,155.01,155.01,0.0,1.0,3
155.56944300,155569443,0.0,-6.15,0.0,17.75,155.01,155.01,0.0,1.0,3
155.57761600,155577616,0.0,-6.15,0.0,17.75,155.01,155.01,0.0,1.0,3
155.58549400,155585494,0.0,-6.15,0.0,17.75,155.01,155.01,0.0,1.0,3
155.59302400,155593024,0.0,-6.15,0.0,17.75,155.01,155.01,0.0,1.0,3
155.60104400,155601044,0.0,-6.15,0.0,17.75,155.0,155.0,0.0,1.0,3
155.60918300,155609183,0.0,-6.15,0.0,17.75,155.0,155.0,0.0,1.0,3
155.61703700,155617037,0.0,-6.15,0.0,17.740000000000002,155.0,155.0,0.0,1.0,3
155.62530200,155625302,0.0,-6.15,0.0,17.740000000000002,155.0,155.0,0.0,1.0,3
155.63347600,155633476,0.0,-6.15,0.0,17.740000000000002,155.0,155.0,0.0,1.0,3
155.64095600,155640956,0.0,-6.15,0.0,17.740000000000002,155.0,155.0,0.0,1.0,3
155.64900300,155649003,0.0,-6.15,0.0,17.740000000000002,155.0,155.0,0.0,1.0,3
155.65753900,155657539,0.0,-6.16,0.0,17.740000000000002,155.0,155.0,0.0,1.0,3
155.66503400,155665034,0.0,-6.16,0.0,17.740000000000002,155.0,155.0,0.0,1.0,3
155.67297400,155672974,0.0,-6.16,0.0,17.740000000000002,155.0,155.0,0.0,1.0,3
155.68125400,155681254,0.0,-6.16,0.0,17.740000000000002,154.99,154.99,0.0,1.0,3
155.68902500,155689025,0.0,-6.16,0.0,17.740000000000002,154.99,154.99,0.0,1.0,3
155.69695800,155696958,0.0,-6.16,0.0,17.740000000000002,154.99,154.99,0.0,1.0,3
155.70549300,155705493,0.0,-6.16,0.0,17.740000000000002,154.99,154.99,0.0,1.0,3
155.71301100,155713011,0.0,-6.16,0.0,17.740000000000002,154.99,154.99,0.0,1.0,3
155.72151000,155721510,0.0,-6.16,0.0,17.73,154.99,154.99,0.0,1.0,3
155.72922700,155729227,0.0,-6.16,0.0,17.73,154.99,154.99,0.0,1.0,3
155.73702600,155737026,0.0,-6.16,0.0,17.73,154.99,154.99,0.0,1.0,3
155.74503000,155745030,0.0,-6.16,0.0,17.72,154.99,154.99,0.0,1.0,3
155.75323200,155753232,0.0,-6.16,0.0,17.72,154.98,154.98,0.0,1.0,3
155.76099500,155760995,0.0,-6.16,0.0,17.72,154.98,154.98,0.0,1.0,3
155.76903400,155769034,0.0,-6.16,0.0,17.72,154.98,154.98,0.0,1.0,3
155.77722200,155777222,0.0,-6.16,0.0,17.72,154.98,154.98,0.0,1.0,3
155.78496200,155784962,0.0,-6.17,0.0,17.73,154.98,154.98,0.0,1.0,3
155.79299500,155792995,0.0,-6.17,0.0,17.73,154.98,154.98,0.0,1.0,3
155.80150800,155801508,0.0,-6.17,0.0,17.72,154.98,154.98,0.0,1.0,3
155.80896400,155808964,0.0,-6.17,0.0,17.72,154.97,154.97,0.0,1.0,3
155.81731100,155817311,0.0,-6.17,0.0,17.72,154.97,154.97,0.0,1.0,3
155.82554000,155825540,0.0,-6.17,0.0,17.72,154.97,154.97,0.0,1.0,3
155.83303400,155833034,0.0,-6.17,0.0,17.72,154.97,154.97,0.0,1.0,3
155.84096700,155840967,0.0,-6.17,0.0,17.71,154.97,154.97,0.0,1.0,3
155.84974700,155849747,0.0,-6.17,0.0,17.71,154.97,154.97,0.0,1.0,3
155.85714700,155857147,0.0,-6.17,0.0,17.71,154.97,154.97,0.0,1.0,3
155.86501400,155865014,0.0,-6.17,0.0,17.71,154.97,154.97,0.0,1.0,3
155.87319100,155873191,0.0,-6.17,0.0,17.71,154.96,154.96,0.0,1.0,3
155.88100900,155881009,0.0,-6.17,0.0,17.71,154.96,154.96,0.0,1.0,3
155.88919200,155889192,0.0,-6.17,0.0,17.71,154.96,154.96,0.0,1.0,3
155.89726300,155897263,0.0,-6.17,0.0,17.71,154.96,154.96,0.0,1.0,3
155.90544600,155905446,0.0,-6.17,0.0,17.71,154.96,154.96,0.0,1.0,3
155.91319400,155913194,0.0,-6.17,0.0,17.71,154.96,154.96,0.0,1.0,3
155.92155900,155921559,0.0,-6.18,0.0,17.71,154.96,154.96,0.0,1.0,3
155.92946100,155929461,0.0,-6.18,0.0,17.7,154.95000000000002,154.95000000000002,0.0,1.0,3
155.93719900,155937199,0.0,-6.18,0.0,17.7,154.95000000000002,154.95000000000002,0.0,1.0,3
155.94547600,155945476,0.0,-6.18,0.0,17.7,154.95000000000002,154.95000000000002,0.0,1.0,3
155.95296700,155952967,0.0,-6.18,0.0,17.7,154.95000000000002,154.95000000000002,0.0,1.0,3
155.96105800,155961058,0.0,-6.18,0.0,17.7,154.95000000000002,154.95000000000002,0.0,1.0,3
155.96921200,155969212,0.0,-6.18,0.0,17.7,154.95000000000002,154.95000000000002,0.0,1.0,3
155.97698400,155976984,0.0,-6.18,0.0,17.7,154.94,154.94,0.0,1.0,3
155.98496900,155984969,0.0,-6.18,0.0,17.7,154.94,154.94,0.0,1.0,3
155.99359100,155993591,0.0,-6.18,0.0,17.7,154.94,154.94,0.0,1.0,3
156.00132100,156001321,0.0,-6.18,0.0,17.7,154.94,154.94,0.0,1.0,3
156.01024300,156010243,0.0,-6.18,0.0,17.7,154.94,154.94,0.0,1.0,3
156.01768200,156017682,0.0,-6.19,0.0,17.7,154.94,154.94,0.0,1.0,3
156.02647600,156026476,0.0,-6.19,0.0,17.69,154.93,154.93,0.0,1.0,3
156.03430900,156034309,0.0,-6.19,0.0,17.69,154.93,154.93,0.0,1.0,3
156.04249300,156042493,0.0,-6.19,0.0,17.69,154.93,154.93,0.0,1.0,3
156.05000100,156050001,0.0,-6.19,0.0,17.69,154.93,154.93,0.0,1.0,3
156.05803700,156058037,0.0,-6.19,0.0,17.68,154.93,154.93,0.0,1.0,3
156.06626900,156066269,0.0,-6.19,0.0,17.68,154.93,154.93,0.0,1.0,3
156.07399300,156073993,0.0,-6.19,0.0,17.68,154.93,154.93,0.0,1.0,3
156.08201000,156082010,0.0,-6.19,0.0,17.68,154.93,154.93,0.0,1.0,3
156.09056700,156090567,0.0,-6.19,0.0,17.68,154.92000000000002,154.92000000000002,0.0,1.0,3
156.09795600,156097956,0.0,-6.19,0.0,17.68,154.92000000000002,154.92000000000002,0.0,1.0,3
156.10596200,156105962,0.0,-6.19,0.0,17.68,154.92000000000002,154.92000000000002,0.0,1.0,3
156.11429100,156114291,0.0,-6.2,0.0,17.68,154.92000000000002,154.92000000000002,0.0,1.0,3
156.12242900,156122429,0.0,-6.2,0.0,17.68,154.92000000000002,154.92000000000002,0.0,1.0,3
156.12997700,156129977,0.0,-6.2,0.0,17.68,154.91,154.91,0.0,1.0,3
156.13825400,156138254,0.0,-6.2,0.0,17.67,154.91,154.91,0.0,1.0,3
156.14593700,156145937,0.0,-6.2,0.0,17.67,154.91,154.91,0.0,1.0,3
156.15405500,156154055,0.0,-6.2,0.0,17.67,154.91,154.91,0.0,1.0,3
156.16274400,156162744,0.0,-6.2,0.0,17.67,154.91,154.91,0.0,1.0,3
156.16993500,156169935,0.0,-6.2,0.0,17.67,154.91,154.91,0.0,1.0,3
156.17797800,156177978,0.0,-6.2,0.0,17.67,154.91,154.91,0.0,1.0,3
156.18620600,156186206,0.0,-6.2,0.0,17.67,154.91,154.91,0.0,1.0,3
156.19400200,156194002,0.0,-6.2,0.0,17.67,154.9,154.9,0.0,1.0,3
156.20204100,156202041,0.0,-6.2,0.0,17.67,154.9,154.9,0.0,1.0,3
156.21028900,156210289,0.0,-6.2,0.0,17.67,154.9,154.9,0.0,1.0,3
156.21852800,156218528,0.0,-6.21,0.0,17.66,154.9,154.9,0.0,1.0,3
156.22602500,156226025,0.0,-6.21,0.0,17.66,154.9,154.9,0.0,1.0,3
156.23481700,156234817,0.0,-6.21,0.0,17.66,154.9,154.9,0.0,1.0,3
156.24231300,156242313,0.0,-6.21,0.0,17.66,154.89000000000001,154.89000000000001,0.0,1.0,3
156.25023700,156250237,0.0,-6.21,0.0,17.650000000000002,154.89000000000001,154.89000000000001,0.0,1.0,3
156.25824000,156258240,0.0,-6.21,0.0,17.650000000000002,154.89000000000001,154.89000000000001,0.0,1.0,3
156.26602100,156266021,0.0,-6.21,0.0,17.650000000000002,154.89000000000001,154.89000000000001,0.0,1.0,3
156.27398700,156273987,0.0,-6.21,0.0,17.650000000000002,154.89000000000001,154.89000000000001,0.0,1.0,3
156.28229400,156282294,0.0,-6.21,0.0,17.650000000000002,154.88,154.88,0.0,1.0,3
156.28999600,156289996,0.0,-6.21,0.0,17.650000000000002,154.88,154.88,0.0,1.0,3
156.29800200,156298002,0.0,-6.21,0.0,17.650000000000002,154.88,154.88,0.0,1.0,3
156.30625600,156306256,0.0,-6.22,0.0,17.650000000000002,154.88,154.88,0.0,1.0,3
156.31404300,156314043,0.0,-6.22,0.0,17.650000000000002,154.88,154.88,0.0,1.0,3
156.32241000,156322410,0.0,-6.22,0.0,17.650000000000002,154.88,154.88,0.0,1.0,3
156.33022800,156330228,0.0,-6.22,0.0,17.650000000000002,154.87,154.87,0.0,1.0,3
156.33797700,156337977,0.0,-6.22,0.0,17.650000000000002,154.87,154.87,0.0,1.0,3
156.34615100,156346151,0.0,-6.22,0.0,17.64,154.87,154.87,0.0,1.0,3
156.35429300,156354293,0.0,-6.22,0.0,17.64,154.87,154.87,0.0,1.0,3
156.36198100,156361981,0.0,-6.22,0.0,17.64,154.87,154.87,0.0,1.0,3
156.36994600,156369946,0.0,-6.22,0.0,17.63,154.87,154.87,0.0,1.0,3
156.37857900,156378579,0.0,-6.22,0.0,17.63,154.87,154.87,0.0,1.0,3
156.38594800,156385948,0.0,-6.22,0.0,17.63,154.86,154.86,0.0,1.0,3
156.39397500,156393975,0.0,-6.22,0.0,17.63,154.86,154.86,0.0,1.0,3
156.40223400,156402234,0.0,-6.23,0.0,17.63,154.86,154.86,0.0,1.0,3
156.41005600,156410056,0.0,-6.23,0.0,17.63,154.86,154.86,0.0,1.0,3
156.41950400,156419504,0.0,-6.18,0.0,17.96,0.0,0.0,0.0,1.0,3
156.42618400,156426184,0.0,-6.18,0.0,17.97,359.99,0.0,0.0,1.0,3
156.43399600,156433996,0.0,-6.17,0.0,17.97,359.99,0.0,0.0,1.0,3
156.44256700,156442567,0.0,-6.17,0.0,17.97,359.99,0.0,0.0,1.0,3
156.44997100,156449971,0.0,-6.17,0.0,17.98,359.99,0.0,0.0,1.0,3
156.45799500,156457995,0.0,-6.17,0.0,17.98,359.99,0.0,0.0,1.0,3
156.46624700,156466247,0.0,-6.17,0.0,17.98,359.99,0.0,0.0,1.0,3
156.47405600,156474056,0.0,-6.16,0.0,17.98,359.99,0.0,0.0,1.0,3
156.48195300,156481953,0.0,-6.16,0.0,17.98,359.99,0.0,0.0,1.0,3
156.49059600,156490596,0.0,-6.16,0.0,17.990000000000002,359.99,0.0,0.0,1.0,3
156.49830400,156498304,0.0,-6.16,0.0,17.990000000000002,359.99,0.0,0.0,1.0,3
156.50647600,156506476,0.0,-6.16,0.0,17.990000000000002,359.99,0.0,0.0,1.0,3
156.51452000,156514520,0.0,-6.16,0.0,18.0,359.99,0.0,0.0,1.0,3
156.52228400,156522284,0.0,-6.15,0.0,18.0,359.98,359.99,0.0,1.0,3
156.53041300,156530413,0.0,-6.15,0.0,18.0,359.98,359.99,0.0,1.0,3
156.53846100,156538461,0.0,-6.15,0.0,18.0,359.98,359.99,0.0,1.0,3
156.54594200,156545942,0.0,-6.15,0.0,18.01,359.98,359.99,0.0,1.0,3
156.55398100,156553981,0.0,-6.15,0.0,18.01,359.98,359.99,0.0,1.0,3
156.56256900,156562569,0.0,-6.140000000000001,0.0,18.01,359.98,359.99,0.0,1.0,3
156.57036600,156570366,0.0,-6.140000000000001,0.0,18.01,359.98,359.99,0.0,1.0,3
156.57842300,156578423,0.0,-6.140000000000001,0.0,18.02,359.98,359.99,0.0,1.0,3
156.58678900,156586789,0.0,-6.140000000000001,0.0,18.02,359.98,359.99,0.0,1.0,3
156.59395800,156593958,0.0,-6.140000000000001,0.0,18.02,359.98,359.99,0.0,1.0,3
156.60203500,156602035,0.0,-6.140000000000001,0.0,18.02,359.98,359.99,0.0,1.0,3
156.61023700,156610237,0.0,-6.13,0.0,18.03,359.97,359.98,0.0,1.0,3
156.61831900,156618319,0.0,-6.13,0.0,18.03,359.97,359.98,0.0,1.0,3
156.62618700,156626187,0.0,-6.13,0.0,18.03,359.97,359.98,0.0,1.0,3
156.63425900,156634259,0.0,-6.13,0.0,18.04,359.97,359.98,0.0,1.0,3
156.64191500,156641915,0.0,-6.13,0.0,18.04,359.99,0.0,0.0,1.0,3
156.64993200,156649932,0.0,-6.13,0.0,18.05,0.0,0.0,0.0,1.0,3
156.65824700,156658247,0.0,-6.13,0.0,18.05,0.01,0.01,0.0,1.0,3
156.66612400,156666124,0.0,-6.12,0.0,18.05,0.02,0.02,0.0,1.0,3
156.67402000,156674020,0.0,-6.12,0.0,18.06,0.04,0.04,0.0,1.0,3
156.68228800,156682288,0.0,-6.12,0.0,18.06,0.05,0.05,0.0,1.0,3
156.68997600,156689976,0.0,-6.12,0.0,18.06,0.06,0.06,0.0,1.0,3
156.69800500,156698005,0.0,-6.12,0.0,18.07,0.08,0.08,0.0,1.0,3
156.70631200,156706312,0.0,-6.12,0.0,18.07,0.09,0.09,0.0,1.0,3
156.71402900,156714029,0.0,-6.11,0.0,18.080000000000002,0.1,0.1,0.0,1.0,3
156.72232400,156722324,0.0,-6.11,0.0,18.080000000000002,0.12,0.12,0.0,1.0,3
156.73065200,156730652,0.0,-6.11,0.0,18.080000000000002,0.13,0.13,0.0,1.0,3
156.73797200,156737972,0.0,-6.11,0.0,18.09,0.15,0.15,0.0,1.0,3
156.74599300,156745993,0.0,-6.11,0.0,18.1,0.17,0.17,0.0,1.0,3
156.75424900,156754249,0.0,-6.11,0.0,18.1,0.19,0.19,0.0,1.0,3
156.76192300,156761923,0.0,-6.1000000000000005,0.0,18.11,0.21,0.21,0.0,1.0,3
156.76997500,156769975,0.0,-6.1000000000000005,0.0,18.11,0.23,0.23,0.0,1.0,3
156.77832800,156778328,0.0,-6.1000000000000005,0.0,18.12,0.25,0.25,0.0,1.0,3
156.78593500,156785935,0.0,-6.1000000000000005,0.0,18.12,0.27,0.27,0.0,1.0,3
156.79400300,156794003,0.0,-6.1000000000000005,0.0,18.12,0.29,0.29,0.0,1.0,3
156.80288100,156802881,0.0,-6.1000000000000005,0.0,18.13,0.31,0.31,0.0,1.0,3
156.80996300,156809963,0.0,-6.09,0.0,18.13,0.33,0.33,0.0,1.0,3
156.81847200,156818472,0.0,-6.09,0.0,18.14,0.35000000000000003,0.35000000000000003,0.0,1.0,3
156.82640800,156826408,0.0,-6.09,0.0,18.14,0.37,0.37,0.0,1.0,3
156.83392700,156833927,0.0,-6.09,0.0,18.150000000000002,0.39,0.39,0.0,1.0,3
156.84197700,156841977,0.0,-6.09,0.0,18.150000000000002,0.41000000000000003,0.41000000000000003,0.0,1.0,3
156.85026400,156850264,0.0,-6.08,0.0,18.16,0.43,0.43,0.0,1.0,3
156.85816000,156858160,0.0,-6.08,0.0,18.16,0.45,0.45,0.0,1.0,3
156.86605600,156866056,0.0,-6.08,0.0,18.17,0.47000000000000003,0.47000000000000003,0.0,1.0,3
156.87450300,156874503,0.0,-6.08,0.0,18.17,0.49,0.49,0.0,1.0,3
156.88198300,156881983,0.0,-6.08,0.0,18.18,0.51,0.51,0.0,1.0,3
156.89017600,156890176,0.0,-6.08,0.0,18.18,0.54,0.54,0.0,1.0,3
156.89858900,156898589,0.0,-6.07,0.0,18.19,0.56,0.56,0.0,1.0,3
156.90624600,156906246,0.0,-6.07,0.0,18.19,0.59,0.59,0.0,1.0,3
156.91428400,156914284,0.0,-6.07,0.0,18.2,0.62,0.62,0.0,1.0,3
156.92262600,156922626,0.0,-6.07,0.0,18.2,0.64,0.64,0.0,1.0,3
156.93029100,156930291,0.0,-6.07,0.0,18.21,0.67,0.67,0.0,1.0,3
156.93800600,156938006,0.0,-6.07,0.0,18.22,0.6900000000000001,0.6900000000000001,0.0,1.0,3
156.94663900,156946639,0.0,-6.07,0.0,18.22,0.72,0.72,0.0,1.0,3
156.95399800,156953998,0.0,-6.0600000000000005,0.0,18.23,0.74,0.74,0.0,1.0,3
156.96202300,156962023,0.0,-6.0600000000000005,0.0,18.240000000000002,0.77,0.77,0.0,1.0,3
156.97030300,156970303,0.0,-6.0600000000000005,0.0,18.240000000000002,0.79,0.79,0.0,1.0,3
156.97798300,156977983,0.0,-6.0600000000000005,0.0,18.25,0.8200000000000001,0.8200000000000001,0.0,1.0,3
156.98613000,156986130,0.0,-6.0600000000000005,0.0,18.25,0.84,0.84,0.0,1.0,3
156.99456100,156994561,0.0,-6.0600000000000005,0.0,18.25,0.87,0.87,0.0,1.0,3
157.00225100,157002251,0.0,-6.05,0.0,18.26,0.89,0.89,0.0,1.0,3
157.01032400,157010324,0.0,-6.05,0.0,18.26,0.91,0.91,0.0,1.0,3
157.01890400,157018904,0.0,-6.05,0.0,18.27,0.9400000000000001,0.9400000000000001,0.0,1.0,3
157.02637800,157026378,0.0,-6.05,0.0,18.27,0.97,0.97,0.0,1.0,3
157.03420400,157034204,0.0,-6.05,0.0,18.28,1.0,1.0,0.0,1.0,3
157.04227000,157042270,0.0,-6.05,0.0,18.29,1.03,1.03,0.0,1.0,3
157.05001300,157050013,0.0,-6.05,0.0,18.29,1.06,1.06,0.0,1.0,3
157.05800800,157058008,0.0,-6.04,0.0,18.3,1.08,1.08,0.0,1.0,3
157.06631000,157066310,0.0,-6.04,0.0,18.3,1.11,1.11,0.0,1.0,3
157.07396300,157073963,0.0,-6.04,0.0,18.31,1.1400000000000001,1.1400000000000001,0.0,1.0,3
157.08200100,157082001,0.0,-6.04,0.0,18.32,1.17,1.17,0.0,1.0,3
157.09029600,157090296,0.0,-6.04,0.0,18.32,1.2,1.2,0.0,1.0,3
157.09798800,157097988,0.0,-6.04,0.0,18.330000000000002,1.23,1.23,0.0,1.0,3
157.10601500,157106015,0.0,-6.04,0.0,18.330000000000002,1.26,1.26,0.0,1.0,3
157.11494900,157114949,0.0,-6.03,0.0,18.34,1.29,1.29,0.0,1.0,3
157.12232000,157122320,0.0,-6.03,0.0,18.34,1.31,1.31,0.0,1.0,3
157.13005400,157130054,0.0,-6.03,0.0,18.35,1.34,1.34,0.0,1.0,3
157.13825500,157138255,0.0,-6.03,0.0,18.35,1.37,1.37,0.0,1.0,3
157.14596200,157145962,0.0,-6.03,0.0,18.36,1.4000000000000001,1.4000000000000001,0.0,1.0,3
157.15400100,157154001,0.0,-6.03,0.0,18.37,1.42,1.42,0.0,1.0,3
157.16251100,157162511,0.0,-6.03,0.0,18.37,1.45,1.45,0.0,1.0,3
157.16999500,157169995,0.0,-6.0200000000000005,0.0,18.38,1.48,1.48,0.0,1.0,3
157.17811200,157178112,0.0,-6.0200000000000005,0.0,18.39,1.52,1.52,0.0,1.0,3
157.18630000,157186300,0.0,-6.0200000000000005,0.0,18.39,1.55,1.55,0.0,1.0,3
157.19393800,157193938,0.0,-6.0200000000000005,0.0,18.400000000000002,1.58,1.58,0.0,1.0,3
157.20196200,157201962,0.0,-6.0200000000000005,0.0,18.400000000000002,1.62,1.62,0.0,1.0,3
157.21028100,157210281,0.0,-6.0200000000000005,0.0,18.41,1.6500000000000001,1.6500000000000001,0.0,1.0,3
157.21825300,157218253,0.0,-6.0200000000000005,0.0,18.41,1.68,1.68,0.0,1.0,3
157.22619800,157226198,0.0,-6.01,0.0,18.42,1.71,1.71,0.0,1.0,3
157.23458000,157234580,0.0,-6.01,0.0,18.43,1.74,1.74,0.0,1.0,3
157.24227300,157242273,0.0,-6.01,0.0,18.43,1.78,1.78,0.0,1.0,3
157.25025300,157250253,0.0,-6.01,0.0,18.44,1.81,1.81,0.0,1.0,3
157.25843700,157258437,0.0,-6.01,0.0,18.45,1.84,1.84,0.0,1.0,3
157.26593300,157265933,0.0,-6.01,0.0,18.45,1.87,1.87,0.0,1.0,3
157.27404300,157274043,0.0,-6.0,0.0,18.46,1.9000000000000001,1.9000000000000001,0.0,1.0,3
157.28229200,157282292,0.0,-6.0,0.0,18.47,1.93,1.93,0.0,1.0,3
157.28994600,157289946,0.0,-6.0,0.0,18.47,1.96,1.96,0.0,1.0,3
157.29799500,157297995,0.0,-6.0,0.0,18.48,1.99,1.99,0.0,1.0,3
157.30683200,157306832,0.0,-6.0,0.0,18.48,2.02,2.02,0.0,1.0,3
157.31404500,157314045,0.0,-6.0,0.0,18.490000000000002,2.06,2.06,0.0,1.0,3
157.32240200,157322402,0.0,-6.0,0.0,18.490000000000002,2.09,2.09,0.0,1.0,3
157.33027100,157330271,0.0,-5.99,0.0,18.5,2.13,2.13,0.0,1.0,3
157.33798600,157337986,0.0,-5.99,0.0,18.5,2.16,2.16,0.0,1.0,3
157.34597800,157345978,0.0,-5.99,0.0,18.51,2.2,2.2,0.0,1.0,3
157.35431700,157354317,0.0,-5.99,0.0,18.52,2.23,2.23,0.0,1.0,3
157.36196200,157361962,0.0,-5.99,0.0,18.52,2.27,2.27,0.0,1.0,3
157.37002300,157370023,0.0,-5.99,0.0,18.53,2.3000000000000003,2.3000000000000003,0.0,1.0,3
157.37826300,157378263,0.0,-5.99,0.0,18.54,2.33,2.33,0.0,1.0,3
157.38594000,157385940,0.0,-5.98,0.0,18.54,2.37,2.37,0.0,1.0,3
157.39398100,157393981,0.0,-5.98,0.0,18.55,2.4,2.4,0.0,1.0,3
157.40223100,157402231,0.0,-5.98,0.0,18.56,2.43,2.43,0.0,1.0,3
157.41000600,157410006,0.0,-5.98,0.0,18.56,2.47,2.47,0.0,1.0,3
157.41849300,157418493,0.0,-5.98,0.0,18.57,2.5,2.5,0.0,1.0,3
157.42631100,157426311,0.0,-5.98,0.0,18.57,2.5300000000000002,2.5300000000000002,0.0,1.0,3
157.43404900,157434049,0.0,-5.97,0.0,18.580000000000002,2.57,2.57,0.0,1.0,3
157.44195400,157441954,0.0,-5.97,0.0,18.580000000000002,2.6,2.6,0.0,1.0,3
157.45105200,157451052,0.0,-5.97,0.0,18.59,2.63,2.63,0.0,1.0,3
157.45799900,157457999,0.0,-5.97,0.0,18.6,2.67,2.67,0.0,1.0,3
157.46601700,157466017,0.0,-5.97,0.0,18.61,2.7,2.7,0.0,1.0,3
157.47428100,157474281,0.0,-5.97,0.0,18.61,2.74,2.74,0.0,1.0,3
157.48192300,157481923,0.0,-5.97,0.0,18.62,2.7800000000000002,2.7800000000000002,0.0,1.0,3
157.49041200,157490412,0.0,-5.96,0.0,18.62,2.81,2.81,0.0,1.0,3
157.49858100,157498581,0.0,-5.96,0.0,18.63,2.85,2.85,0.0,1.0,3
157.50641400,157506414,0.0,-5.96,0.0,18.63,2.89,2.89,0.0,1.0,3
157.51441300,157514413,0.0,-5.96,0.0,18.64,2.92,2.92,0.0,1.0,3
157.52262300,157522623,0.0,-5.96,0.0,18.650000000000002,2.96,2.96,0.0,1.0,3
157.53027900,157530279,0.0,-5.96,0.0,18.650000000000002,3.0,3.0,0.0,1.0,3
157.53801500,157538015,0.0,-5.95,0.0,18.66,3.0300000000000002,3.0300000000000002,0.0,1.0,3
157.54628400,157546284,0.0,-5.95,0.0,18.67,3.0700000000000003,3.0700000000000003,0.0,1.0,3
157.55395300,157553953,0.0,-5.95,0.0,18.67,3.1,3.1,0.0,1.0,3
157.56224700,157562247,0.0,-5.95,0.0,18.68,3.14,3.14,0.0,1.0,3
157.57063000,157570630,0.0,-5.95,0.0,18.69,3.17,3.17,0.0,1.0,3
157.57841200,157578412,0.0,-5.95,0.0,18.69,3.2,3.2,0.0,1.0,3
157.58625600,157586256,0.0,-5.94,0.0,18.7,3.24,3.24,0.0,1.0,3
157.59466800,157594668,0.0,-5.94,0.0,18.7,3.27,3.27,0.0,1.0,3
157.60192000,157601920,0.0,-5.94,0.0,18.71,3.31,3.31,0.0,1.0,3
157.60995500,157609955,0.0,-5.94,0.0,18.72,3.35,3.35,0.0,1.0,3
157.61861700,157618617,0.0,-5.94,0.0,18.72,3.39,3.39,0.0,1.0,3
157.62644700,157626447,0.0,-5.94,0.0,18.73,3.43,3.43,0.0,1.0,3
157.63393300,157633933,0.0,-5.94,0.0,18.740000000000002,3.46,3.46,0.0,1.0,3
157.64226300,157642263,0.0,-5.93,0.0,18.740000000000002,3.5,3.5,0.0,1.0,3
157.64993400,157649934,0.0,-5.93,0.0,18.75,3.54,3.54,0.0,1.0,3
157.65797900,157657979,0.0,-5.93,0.0,18.75,3.58,3.58,0.0,1.0,3
157.66625700,157666257,0.0,-5.93,0.0,18.76,3.62,3.62,0.0,1.0,3
157.67395000,157673950,0.0,-5.93,0.0,18.77,3.65,3.65,0.0,1.0,3
157.68200800,157682008,0.0,-5.93,0.0,18.77,3.69,3.69,0.0,1.0,3
157.69031800,157690318,0.0,-5.93,0.0,18.78,3.73,3.73,0.0,1.0,3
157.69799900,157697999,0.0,-5.92,0.0,18.79,3.7600000000000002,3.7600000000000002,0.0,1.0,3
157.70600300,157706003,0.0,-5.92,0.0,18.79,3.8000000000000003,3.8000000000000003,0.0,1.0,3
157.71441800,157714418,0.0,-5.92,0.0,18.8,3.83,3.83,0.0,1.0,3
157.72249600,157722496,0.0,-5.92,0.0,18.8,3.87,3.87,0.0,1.0,3
157.73000500,157730005,0.0,-5.92,0.0,18.81,3.9,3.9,0.0,1.0,3
157.73858100,157738581,0.0,-5.92,0.0,18.82,3.94,3.94,0.0,1.0,3
157.74597800,157745978,0.0,-5.92,0.0,18.82,3.98,3.98,0.0,1.0,3
157.75402200,157754022,0.0,-5.91,0.0,18.830000000000002,4.0200000000000005,4.0200000000000005,0.0,1.0,3
157.76287300,157762873,0.0,-5.91,0.0,18.830000000000002,4.0600000000000005,4.0600000000000005,0.0,1.0,3
157.76994000,157769940,0.0,-5.91,0.0,18.84,4.1,4.1,0.0,1.0,3
157.77797100,157777971,0.0,-5.91,0.0,18.85,4.14,4.14,0.0,1.0,3
157.78623800,157786238,0.0,-5.91,0.0,18.85,4.17,4.17,0.0,1.0,3
157.79404000,157794040,0.0,-5.91,0.0,18.86,4.21,4.21,0.0,1.0,3
157.80199200,157801992,0.0,-5.9,0.0,18.86,4.25,4.25,0.0,1.0,3
157.81024400,157810244,0.0,-5.9,0.0,18.87,4.29,4.29,0.0,1.0,3
157.81829600,157818296,0.0,-5.9,0.0,18.87,4.33,4.33,0.0,1.0,3
157.82613200,157826132,0.0,-5.9,0.0,18.88,4.37,4.37,0.0,1.0,3
157.83429800,157834298,0.0,-5.9,0.0,18.88,4.4,4.4,0.0,1.0,3
157.84197700,157841977,0.0,-5.9,0.0,18.89,4.44,4.44,0.0,1.0,3
157.85116800,157851168,0.0,-5.89,0.0,18.900000000000002,4.48,4.48,0.0,1.0,3
157.85930700,157859307,0.0,-5.89,0.0,18.900000000000002,4.51,4.51,0.0,1.0,3
157.86697600,157866976,0.0,-5.89,0.0,18.900000000000002,4.55,4.55,0.0,1.0,3
157.87497900,157874979,0.0,-5.89,0.0,18.91,4.59,4.59,0.0,1.0,3
157.88359200,157883592,0.0,-5.89,0.0,18.92,4.62,4.62,0.0,1.0,3
157.89110600,157891106,0.0,-5.89,0.0,18.92,4.66,4.66,0.0,1.0,3
157.89941900,157899419,0.0,-5.89,0.0,18.93,4.7,4.7,0.0,1.0,3
157.90748900,157907489,0.0,-5.88,0.0,18.93,4.74,4.74,0.0,1.0,3
157.91529200,157915292,0.0,-5.88,0.0,18.94,4.78,4.78,0.0,1.0,3
157.92331700,157923317,0.0,-5.88,0.0,18.95,4.82,4.82,0.0,1.0,3
157.93154500,157931545,0.0,-5.88,0.0,18.95,4.86,4.86,0.0,1.0,3
157.93891900,157938919,0.0,-5.88,0.0,18.96,4.9,4.9,0.0,1.0,3
157.94710900,157947109,0.0,-5.88,0.0,18.96,4.94,4.94,0.0,1.0,3
157.95528900,157955289,0.0,-5.88,0.0,18.97,4.98,4.98,0.0,1.0,3
157.96294200,157962942,0.0,-5.87,0.0,18.97,5.0200000000000005,5.0200000000000005,0.0,1.0,3
157.97098700,157970987,0.0,-5.87,0.0,18.98,5.05,5.05,0.0,1.0,3
157.97923200,157979232,0.0,-5.87,0.0,18.98,5.09,5.09,0.0,1.0,3
157.98749000,157987490,0.0,-5.87,0.0,18.990000000000002,5.13,5.13,0.0,1.0,3
157.99529700,157995297,0.0,-5.87,0.0,18.990000000000002,5.17,5.17,0.0,1.0,3
158.00361600,158003616,0.0,-5.87,0.0,19.0,5.2,5.2,0.0,1.0,3
158.01142500,158011425,0.0,-5.87,0.0,19.01,5.24,5.24,0.0,1.0,3
158.01946700,158019467,0.0,-5.86,0.0,19.01,5.28,5.28,0.0,1.0,3
158.02774400,158027744,0.0,-5.86,0.0,19.02,5.3100000000000005,5.3100000000000005,0.0,1.0,3
158.03499100,158034991,0.0,-5.86,0.0,19.02,5.36,5.36,0.0,1.0,3
158.04296700,158042967,0.0,-5.86,0.0,19.03,5.4,5.4,0.0,1.0,3
158.05132500,158051325,0.0,-5.86,0.0,19.03,5.44,5.44,0.0,1.0,3
158.05899400,158058994,0.0,-5.86,0.0,19.04,5.48,5.48,0.0,1.0,3
158.06701300,158067013,0.0,-5.8500000000000005,0.0,19.04,5.5200000000000005,5.5200000000000005,0.0,1.0,3
158.07588100,158075881,0.0,-5.8500000000000005,0.0,19.05,5.5600000000000005,5.5600000000000005,0.0,1.0,3
158.08294900,158082949,0.0,-5.8500000000000005,0.0,19.05,5.6000000000000005,5.6000000000000005,0.0,1.0,3
158.09096500,158090965,0.0,-5.8500000000000005,0.0,19.06,5.64,5.64,0.0,1.0,3
158.09927800,158099278,0.0,-5.8500000000000005,0.0,19.06,5.68,5.68,0.0,1.0,3
158.10692800,158106928,0.0,-5.8500000000000005,0.0,19.07,5.72,5.72,0.0,1.0,3
158.11500700,158115007,0.0,-5.8500000000000005,0.0,19.07,5.75,5.75,0.0,1.0,3
158.12362800,158123628,0.0,-5.84,0.0,19.080000000000002,5.79,5.79,0.0,1.0,3
158.13113400,158131134,0.0,-5.84,0.0,19.080000000000002,5.83,5.83,0.0,1.0,3
158.13899800,158138998,0.0,-5.84,0.0,19.080000000000002,5.87,5.87,0.0,1.0,3
158.14728400,158147284,0.0,-5.84,0.0,19.09,5.91,5.91,0.0,1.0,3
158.15497800,158154978,0.0,-5.84,0.0,19.09,5.94,5.94,0.0,1.0,3
158.16295100,158162951,0.0,-5.84,0.0,19.09,5.98,5.98,0.0,1.0,3
158.17150900,158171509,0.0,-5.84,0.0,19.1,6.0200000000000005,6.0200000000000005,0.0,1.0,3
158.17900600,158179006,0.0,-5.83,0.0,19.1,6.0600000000000005,6.0600000000000005,0.0,1.0,3
158.18702500,158187025,0.0,-5.83,0.0,19.1,6.1000000000000005,6.1000000000000005,0.0,1.0,3
158.19531800,158195318,0.0,-5.83,0.0,19.11,6.140000000000001,6.140000000000001,0.0,1.0,3
158.20306400,158203064,0.0,-5.83,0.0,19.11,6.18,6.18,0.0,1.0,3
158.21098100,158210981,0.0,-5.83,0.0,19.12,6.22,6.22,0.0,1.0,3
158.21962800,158219628,0.0,-5.83,0.0,19.12,6.26,6.26,0.0,1.0,3
158.22710300,158227103,0.0,-5.83,0.0,19.13,6.3,6.3,0.0,1.0,3
158.23545900,158235459,0.0,-5.82,0.0,19.13,6.34,6.34,0.0,1.0,3
158.24348200,158243482,0.0,-5.82,0.0,19.14,6.38,6.38,0.0,1.0,3
158.25122500,158251225,0.0,-5.82,0.0,19.14,6.42,6.42,0.0,1.0,3
158.25911600,158259116,0.0,-5.82,0.0,19.14,6.46,6.46,0.0,1.0,3
158.26756600,158267566,0.0,-5.82,0.0,19.150000000000002,6.5,6.5,0.0,1.0,3
158.27494700,158274947,0.0,-5.82,0.0,19.150000000000002,6.54,6.54,0.0,1.0,3
158.28295300,158282953,0.0,-5.8100000000000005,0.0,19.150000000000002,6.58,6.58,0.0,1.0,3
158.29123500,158291235,0.0,-5.8100000000000005,0.0,19.16,6.61,6.61,0.0,1.0,3
158.29894600,158298946,0.0,-5.8100000000000005,0.0,19.16,6.65,6.65,0.0,1.0,3
158.30699700,158306997,0.0,-5.8100000000000005,0.0,19.17,6.69,6.69,0.0,1.0,3
158.31555400,158315554,0.0,-5.8100000000000005,0.0,19.17,6.73,6.73,0.0,1.0,3
158.32345300,158323453,0.0,-5.8100000000000005,0.0,19.17,6.7700000000000005,6.7700000000000005,0.0,1.0,3
158.33101300,158331013,0.0,-5.8100000000000005,0.0,19.18,6.8100000000000005,6.8100000000000005,0.0,1.0,3
158.33929000,158339290,0.0,-5.8,0.0,19.18,6.8500000000000005,6.8500000000000005,0.0,1.0,3
158.34703900,158347039,0.0,-5.8,0.0,19.19,6.890000000000001,6.890000000000001,0.0,1.0,3
158.35495400,158354954,0.0,-5.8,0.0,19.19,6.93,6.93,0.0,1.0,3
158.36322300,158363223,0.0,-5.8,0.0,19.2,6.97,6.97,0.0,1.0,3
158.37102500,158371025,0.0,-5.8,0.0,19.2,7.01,7.01,0.0,1.0,3
158.37900600,158379006,0.0,-5.8,0.0,19.2,7.05,7.05,0.0,1.0,3
158.38729200,158387292,0.0,-5.79,0.0,19.21,7.09,7.09,0.0,1.0,3
158.39498100,158394981,0.0,-5.79,0.0,19.21,7.13,7.13,0.0,1.0,3
158.40299300,158402993,0.0,-5.79,0.0,19.21,7.17,7.17,0.0,1.0,3
158.41185500,158411855,0.0,-5.79,0.0,19.22,7.21,7.21,0.0,1.0,3
158.41930000,158419300,0.0,-5.79,0.0,19.22,7.25,7.25,0.0,1.0,3
158.42714800,158427148,0.0,-5.79,0.0,19.22,7.28,7.28,0.0,1.0,3
158.43524900,158435249,0.0,-5.79,0.0,19.22,7.32,7.32,0.0,1.0,3
158.44294400,158442944,0.0,-5.79,0.0,19.23,7.36,7.36,0.0,1.0,3
158.45104400,158451044,0.0,-5.78,0.0,19.23,7.4,7.4,0.0,1.0,3
158.45953700,158459537,0.0,-5.78,0.0,19.23,7.43,7.43,0.0,1.0,3
158.46691900,158466919,0.0,-5.78,0.0,19.23,7.48,7.48,0.0,1.0,3
158.47500200,158475002,0.0,-5.78,0.0,19.240000000000002,7.5200000000000005,7.5200000000000005,0.0,1.0,3
158.48327400,158483274,0.0,-5.78,0.0,19.240000000000002,7.5600000000000005,7.5600000000000005,0.0,1.0,3
158.49136800,158491368,0.0,-5.78,0.0,19.240000000000002,7.6000000000000005,7.6000000000000005,0.0,1.0,3
158.49943700,158499437,0.0,-5.7700000000000005,0.0,19.240000000000002,7.640000000000001,7.640000000000001,0.0,1.0,3
158.50765200,158507652,0.0,-5.7700000000000005,0.0,19.240000000000002,7.68,7.68,0.0,1.0,3
158.51526100,158515261,0.0,-5.7700000000000005,0.0,19.240000000000002,7.72,7.72,0.0,1.0,3
158.52341700,158523417,0.0,-5.7700000000000005,0.0,19.240000000000002,7.76,7.76,0.0,1.0,3
158.53157900,158531579,0.0,-5.7700000000000005,0.0,19.25,7.8,7.8,0.0,1.0,3
158.53891900,158538919,0.0,-5.7700000000000005,0.0,19.25,7.84,7.84,0.0,1.0,3
158.54694200,158546942,0.0,-5.7700000000000005,0.0,19.26,7.88,7.88,0.0,1.0,3
158.55523700,158555237,0.0,-5.76,0.0,19.26,7.92,7.92,0.0,1.0,3
158.56330400,158563304,0.0,-5.76,0.0,19.26,7.96,7.96,0.0,1.0,3
158.57126000,158571260,0.0,-5.76,0.0,19.26,7.99,7.99,0.0,1.0,3
158.57959700,158579597,0.0,-5.76,0.0,19.26,8.03,8.03,0.0,1.0,3
158.58747500,158587475,0.0,-5.76,0.0,19.27,8.07,8.07,0.0,1.0,3
158.59493700,158594937,0.0,-5.76,0.0,19.27,8.11,8.11,0.0,1.0,3
158.60361400,158603614,0.0,-5.76,0.0,19.27,8.14,8.14,0.0,1.0,3
158.61100900,158611009,0.0,-5.75,0.0,19.27,8.19,8.19,0.0,1.0,3
158.61951200,158619512,0.0,-5.75,0.0,19.27,8.23,8.23,0.0,1.0,3
158.62744300,158627443,0.0,-5.75,0.0,19.27,8.27,8.27,0.0,1.0,3
158.63499100,158634991,0.0,-5.75,0.0,19.27,8.31,8.31,0.0,1.0,3
158.64293600,158642936,0.0,-5.75,0.0,19.28,8.35,8.35,0.0,1.0,3
158.65132200,158651322,0.0,-5.75,0.0,19.28,8.39,8.39,0.0,1.0,3
158.65899200,158658992,0.0,-5.74,0.0,19.28,8.43,8.43,0.0,1.0,3
158.66699600,158666996,0.0,-5.74,0.0,19.29,8.47,8.47,0.0,1.0,3
158.67525000,158675250,0.0,-5.74,0.0,19.29,8.51,8.51,0.0,1.0,3
158.68304200,158683042,0.0,-5.74,0.0,19.29,8.540000000000001,8.540000000000001,0.0,1.0,3
158.69095000,158690950,0.0,-5.74,0.0,19.3,8.58,8.58,0.0,1.0,3
158.69925900,158699259,0.0,-5.74,0.0,19.3,8.620000000000001,8.620000000000001,0.0,1.0,3
158.70692700,158706927,0.0,-5.74,0.0,19.3,8.66,8.66,0.0,1.0,3
158.71502900,158715029,0.0,-5.73,0.0,19.3,8.700000000000001,8.700000000000001,0.0,1.0,3
158.72418600,158724186,0.0,-5.73,0.0,19.3,8.74,8.74,0.0,1.0,3
158.73100000,158731000,0.0,-5.73,0.0,19.3,8.77,8.77,0.0,1.0,3
158.73897400,158738974,0.0,-5.73,0.0,19.3,8.81,8.81,0.0,1.0,3
158.74758100,158747581,0.0,-5.73,0.0,19.3,8.85,8.85,0.0,1.0,3
158.75511700,158755117,0.0,-5.73,0.0,19.3,8.89,8.89,0.0,1.0,3
158.76301500,158763015,0.0,-5.73,0.0,19.3,8.93,8.93,0.0,1.0,3
158.77127400,158771274,0.0,-5.72,0.0,19.3,8.97,8.97,0.0,1.0,3
158.77903200,158779032,0.0,-5.72,0.0,19.31,9.01,9.01,0.0,1.0,3
158.78694900,158786949,0.0,-5.72,0.0,19.31,9.05,9.05,0.0,1.0,3
158.79522000,158795220,0.0,-5.72,0.0,19.31,9.09,9.09,0.0,1.0,3
158.80301000,158803010,0.0,-5.72,0.0,19.31,9.13,9.13,0.0,1.0,3
158.81102700,158811027,0.0,-5.72,0.0,19.31,9.17,9.17,0.0,1.0,3
158.81956200,158819562,0.0,-5.71,0.0,19.31,9.21,9.21,0.0,1.0,3
158.82715300,158827153,0.0,-5.71,0.0,19.31,9.25,9.25,0.0,1.0,3
158.83498300,158834983,0.0,-5.71,0.0,19.3,9.290000000000001,9.290000000000001,0.0,1.0,3
158.84322800,158843228,0.0,-5.71,0.0,19.3,9.32,9.32,0.0,1.0,3
158.85114400,158851144,0.0,-5.71,0.0,19.3,9.36,9.36,0.0,1.0,3
158.85914600,158859146,0.0,-5.71,0.0,19.31,9.4,9.4,0.0,1.0,3
158.86719100,158867191,0.0,-5.7,0.0,19.31,9.44,9.44,0.0,1.0,3
158.87498800,158874988,0.0,-5.7,0.0,19.31,9.47,9.47,0.0,1.0,3
158.88301600,158883016,0.0,-5.7,0.0,19.31,9.51,9.51,0.0,1.0,3
158.89154900,158891549,0.0,-5.7,0.0,19.31,9.55,9.55,0.0,1.0,3
158.89948200,158899482,0.0,-5.7,0.0,19.32,9.59,9.59,0.0,1.0,3
158.90747800,158907478,0.0,-5.7,0.0,19.32,9.63,9.63,0.0,1.0,3
158.91561900,158915619,0.0,-5.7,0.0,19.32,9.67,9.67,0.0,1.0,3
158.92344000,158923440,0.0,-5.69,0.0,19.31,9.71,9.71,0.0,1.0,3
158.93120800,158931208,0.0,-5.69,0.0,19.31,9.75,9.75,0.0,1.0,3
158.93927100,158939271,0.0,-5.69,0.0,19.31,9.790000000000001,9.790000000000001,0.0,1.0,3
158.94693500,158946935,0.0,-5.69,0.0,19.31,9.83,9.83,0.0,1.0,3
158.95496800,158954968,0.0,-5.69,0.0,19.31,9.870000000000001,9.870000000000001,0.0,1.0,3
158.96323000,158963230,0.0,-5.69,0.0,19.31,9.9,9.9,0.0,1.0,3
158.97108000,158971080,0.0,-5.68,0.0,19.31,9.94,9.94,0.0,1.0,3
158.97898100,158978981,0.0,-5.68,0.0,19.32,9.98,9.98,0.0,1.0,3
158.98754800,158987548,0.0,-5.68,0.0,19.32,10.02,10.02,0.0,1.0,3
158.99540400,158995404,0.0,-5.68,0.0,19.32,10.06,10.06,0.0,1.0,3
159.00347800,159003478,0.0,-5.68,0.0,19.330000000000002,10.09,10.09,0.0,1.0,3
159.01164000,159011640,0.0,-5.68,0.0,19.330000000000002,10.13,10.13,0.0,1.0,3
159.01952600,159019526,0.0,-5.68,0.0,19.330000000000002,10.17,10.17,0.0,1.0,3
159.02722500,159027225,0.0,-5.67,0.0,19.330000000000002,10.200000000000001,10.200000000000001,0.0,1.0,3
159.03598400,159035984,0.0,-5.67,0.0,19.330000000000002,10.24,10.24,0.0,1.0,3
159.04300500,159043005,0.0,-5.67,0.0,19.32,10.28,10.28,0.0,1.0,3
159.05105900,159051059,0.0,-5.67,0.0,19.32,10.32,10.32,0.0,1.0,3
159.05920300,159059203,0.0,-5.67,0.0,19.32,10.36,10.36,0.0,1.0,3
159.06700300,159067003,0.0,-5.67,0.0,19.32,10.4,10.4,0.0,1.0,3
159.07504800,159075048,0.0,-5.67,0.0,19.32,10.44,10.44,0.0,1.0,3
159.08319700,159083197,0.0,-5.67,0.0,19.32,10.48,10.48,0.0,1.0,3
159.09096500,159090965,0.0,-5.66,0.0,19.32,10.52,10.52,0.0,1.0,3
159.09902800,159099028,0.0,-5.66,0.0,19.32,10.56,10.56,0.0,1.0,3
159.10729100,159107291,0.0,-5.66,0.0,19.32,10.59,10.59,0.0,1.0,3
159.11497500,159114975,0.0,-5.66,0.0,19.32,10.63,10.63,0.0,1.0,3
159.12332100,159123321,0.0,-5.66,0.0,19.32,10.67,10.67,0.0,1.0,3
159.13128800,159131288,0.0,-5.66,0.0,19.32,10.71,10.71,0.0,1.0,3
159.13897200,159138972,0.0,-5.65,0.0,19.32,10.74,10.74,0.0,1.0,3
159.14699100,159146991,0.0,-5.65,0.0,19.32,10.78,10.78,0.0,1.0,3
159.15521800,159155218,0.0,-5.65,0.0,19.32,10.82,10.82,0.0,1.0,3
159.16305700,159163057,0.0,-5.65,0.0,19.31,10.86,10.86,0.0,1.0,3
159.17095600,159170956,0.0,-5.65,0.0,19.31,10.89,10.89,0.0,1.0,3
159.17948500,159179485,0.0,-5.65,0.0,19.31,10.93,10.93,0.0,1.0,3
159.18696900,159186969,0.0,-5.65,0.0,19.31,10.97,10.97,0.0,1.0,3
159.19502500,159195025,0.0,-5.64,0.0,19.31,11.01,11.01,0.0,1.0,3
159.20325400,159203254,0.0,-5.64,0.0,19.31,11.05,11.05,0.0,1.0,3
159.21091000,159210910,0.0,-5.64,0.0,19.32,11.09,11.09,0.0,1.0,3
159.21944200,159219442,0.0,-5.64,0.0,19.32,11.13,11.13,0.0,1.0,3
159.22761800,159227618,0.0,-5.64,0.0,19.32,11.17,11.17,0.0,1.0,3
159.23542100,159235421,0.0,-5.64,0.0,19.32,11.200000000000001,11.200000000000001,0.0,1.0,3
159.24328200,159243282,0.0,-5.64,0.0,19.32,11.24,11.24,0.0,1.0,3
159.25150700,159251507,0.0,-5.63,0.0,19.32,11.28,11.28,0.0,1.0,3
159.25901500,159259015,0.0,-5.63,0.0,19.32,11.32,11.32,0.0,1.0,3
159.26704600,159267046,0.0,-5.63,0.0,19.31,11.36,11.36,0.0,1.0,3
159.27519800,159275198,0.0,-5.63,0.0,19.31,11.4,11.4,0.0,1.0,3
159.28299100,159282991,0.0,-5.63,0.0,19.31,11.43,11.43,0.0,1.0,3
159.29105000,159291050,0.0,-5.63,0.0,19.31,11.47,11.47,0.0,1.0,3
159.29918800,159299188,0.0,-5.62,0.0,19.31,11.51,11.51,0.0,1.0,3
159.30702600,159307026,0.0,-5.62,0.0,19.31,11.540000000000001,11.540000000000001,0.0,1.0,3
159.31507800,159315078,0.0,-5.62,0.0,19.31,11.58,11.58,0.0,1.0,3
159.32387900,159323879,0.0,-5.62,0.0,19.32,11.620000000000001,11.620000000000001,0.0,1.0,3
159.33100500,159331005,0.0,-5.62,0.0,19.32,11.65,11.65,0.0,1.0,3
159.33900000,159339000,0.0,-5.62,0.0,19.32,11.69,11.69,0.0,1.0,3
159.34731000,159347310,0.0,-5.62,0.0,19.32,11.74,11.74,0.0,1.0,3
159.35503000,159355030,0.0,-5.62,0.0,19.32,11.77,11.77,0.0,1.0,3
159.36294500,159362945,0.0,-5.61,0.0,19.32,11.81,11.81,0.0,1.0,3
159.37175200,159371752,0.0,-5.61,0.0,19.31,11.85,11.85,0.0,1.0,3
159.37899100,159378991,0.0,-5.61,0.0,19.31,11.89,11.89,0.0,1.0,3
159.38702900,159387029,0.0,-5.61,0.0,19.31,11.93,11.93,0.0,1.0,3
159.39520100,159395201,0.0,-5.61,0.0,19.31,11.97,11.97,0.0,1.0,3
159.40301800,159403018,0.0,-5.61,0.0,19.31,12.01,12.01,0.0,1.0,3
159.41103300,159411033,0.0,-5.6000000000000005,0.0,19.31,12.05,12.05,0.0,1.0,3
159.41961000,159419610,0.0,-5.6000000000000005,0.0,19.31,12.08,12.08,0.0,1.0,3
159.42712800,159427128,0.0,-5.6000000000000005,0.0,19.31,12.120000000000001,12.120000000000001,0.0,1.0,3
159.43497600,159434976,0.0,-5.6000000000000005,0.0,19.31,12.16,12.16,0.0,1.0,3
159.44324300,159443243,0.0,-5.6000000000000005,0.0,19.31,12.19,12.19,0.0,1.0,3
159.45102500,159451025,0.0,-5.6000000000000005,0.0,19.31,12.23,12.23,0.0,1.0,3
159.45893000,159458930,0.0,-5.6000000000000005,0.0,19.31,12.27,12.27,0.0,1.0,3
159.46750200,159467502,0.0,-5.59,0.0,19.31,12.3,12.3,0.0,1.0,3
159.47495500,159474955,0.0,-5.59,0.0,19.3,12.34,12.34,0.0,1.0,3
159.48304800,159483048,0.0,-5.59,0.0,19.3,12.38,12.38,0.0,1.0,3
159.49151800,159491518,0.0,-5.59,0.0,19.3,12.42,12.42,0.0,1.0,3
159.49941900,159499419,0.0,-5.59,0.0,19.3,12.46,12.46,0.0,1.0,3
159.50729500,159507295,0.0,-5.59,0.0,19.3,12.5,12.5,0.0,1.0,3
159.51561800,159515618,0.0,-5.59,0.0,19.3,12.540000000000001,12.540000000000001,0.0,1.0,3
159.52346400,159523464,0.0,-5.59,0.0,19.3,12.58,12.58,0.0,1.0,3
159.53141700,159531417,0.0,-5.58,0.0,19.3,12.620000000000001,12.620000000000001,0.0,1.0,3
159.53926900,159539269,0.0,-5.58,0.0,19.3,12.66,12.66,0.0,1.0,3
159.54712200,159547122,0.0,-5.58,0.0,19.3,12.700000000000001,12.700000000000001,0.0,1.0,3
159.55495400,159554954,0.0,-5.58,0.0,19.3,12.73,12.73,0.0,1.0,3
159.56350100,159563501,0.0,-5.58,0.0,19.3,12.77,12.77,0.0,1.0,3
159.57144200,159571442,0.0,-5.58,0.0,19.3,12.81,12.81,0.0,1.0,3
159.57929800,159579298,0.0,-5.58,0.0,19.3,12.85,12.85,0.0,1.0,3
159.58750800,159587508,0.0,-5.57,0.0,19.3,12.89,12.89,0.0,1.0,3
159.59501000,159595010,0.0,-5.57,0.0,19.29,12.92,12.92,0.0,1.0,3
159.60304600,159603046,0.0,-5.57,0.0,19.29,12.96,12.96,0.0,1.0,3
159.61152100,159611521,0.0,-5.57,0.0,19.3,13.0,13.0,0.0,1.0,3
159.61921000,159619210,0.0,-5.57,0.0,19.3,13.040000000000001,13.040000000000001,0.0,1.0,3
159.62717600,159627176,0.0,-5.57,0.0,19.3,13.08,13.08,0.0,1.0,3
159.63520800,159635208,0.0,-5.5600000000000005,0.0,19.3,13.120000000000001,13.120000000000001,0.0,1.0,3
159.64298900,159642989,0.0,-5.5600000000000005,0.0,19.3,13.16,13.16,0.0,1.0,3
159.65101800,159651018,0.0,-5.5600000000000005,0.0,19.3,13.200000000000001,13.200000000000001,0.0,1.0,3
159.65919700,159659197,0.0,-5.5600000000000005,0.0,19.3,13.24,13.24,0.0,1.0,3
159.66702600,159667026,0.0,-5.5600000000000005,0.0,19.3,13.280000000000001,13.280000000000001,0.0,1.0,3
159.67506600,159675066,0.0,-5.5600000000000005,0.0,19.3,13.32,13.32,0.0,1.0,3
159.68477200,159684772,0.0,-5.5600000000000005,0.0,19.29,13.35,13.35,0.0,1.0,3
159.69201800,159692018,0.0,-5.55,0.0,19.29,13.39,13.39,0.0,1.0,3
159.70001400,159700014,0.0,-5.55,0.0,19.29,13.43,13.43,0.0,1.0,3
159.70825000,159708250,0.0,-5.55,0.0,19.29,13.47,13.47,0.0,1.0,3
159.71599000,159715990,0.0,-5.55,0.0,19.29,13.51,13.51,0.0,1.0,3
159.72440600,159724406,0.0,-5.55,0.0,19.29,13.540000000000001,13.540000000000001,0.0,1.0,3
159.73231700,159732317,0.0,-5.55,0.0,19.3,13.58,13.58,0.0,1.0,3
159.74006300,159740063,0.0,-5.55,0.0,19.3,13.620000000000001,13.620000000000001,0.0,1.0,3
159.74795900,159747959,0.0,-5.55,0.0,19.29,13.65,13.65,0.0,1.0,3
159.75654400,159756544,0.0,-5.54,0.0,19.29,13.69,13.69,0.0,1.0,3
159.76391500,159763915,0.0,-5.54,0.0,19.29,13.73,13.73,0.0,1.0,3
159.77196600,159771966,0.0,-5.54,0.0,19.29,13.77,13.77,0.0,1.0,3
159.78023900,159780239,0.0,-5.54,0.0,19.29,13.81,13.81,0.0,1.0,3
159.78794800,159787948,0.0,-5.54,0.0,19.28,13.85,13.85,0.0,1.0,3
159.79599100,159795991,0.0,-5.54,0.0,19.28,13.89,13.89,0.0,1.0,3
159.80428100,159804281,0.0,-5.54,0.0,19.28,13.93,13.93,0.0,1.0,3
159.81190600,159811906,0.0,-5.53,0.0,19.28,13.97,13.97,0.0,1.0,3
159.82040500,159820405,0.0,-5.53,0.0,19.29,14.01,14.01,0.0,1.0,3
159.82830500,159828305,0.0,-5.53,0.0,19.29,14.05,14.05,0.0,1.0,3
159.83601100,159836011,0.0,-5.53,0.0,19.29,14.09,14.09,0.0,1.0,3
159.84404100,159844041,0.0,-5.53,0.0,19.29,14.13,14.13,0.0,1.0,3
159.85228700,159852287,0.0,-5.53,0.0,19.29,14.17,14.17,0.0,1.0,3
159.85993100,159859931,0.0,-5.53,0.0,19.29,14.21,14.21,0.0,1.0,3
159.86823700,159868237,0.0,-5.5200000000000005,0.0,19.28,14.24,14.24,0.0,1.0,3
159.87628600,159876286,0.0,-5.5200000000000005,0.0,19.28,14.280000000000001,14.280000000000001,0.0,1.0,3
159.88417000,159884170,0.0,-5.5200000000000005,0.0,19.28,14.32,14.32,0.0,1.0,3
159.89198000,159891980,0.0,-5.5200000000000005,0.0,19.28,14.36,14.36,0.0,1.0,3
159.90087000,159900870,0.0,-5.5200000000000005,0.0,19.28,14.39,14.39,0.0,1.0,3
159.90845300,159908453,0.0,-5.5200000000000005,0.0,19.28,14.44,14.44,0.0,1.0,3
159.91624200,159916242,0.0,-5.5200000000000005,0.0,19.28,14.48,14.48,0.0,1.0,3
159.92453800,159924538,0.0,-5.5200000000000005,0.0,19.28,14.52,14.52,0.0,1.0,3
159.93220700,159932207,0.0,-5.51,0.0,19.28,14.56,14.56,0.0,1.0,3
159.93997300,159939973,0.0,-5.51,0.0,19.28,14.6,14.6,0.0,1.0,3
159.94825800,159948258,0.0,-5.51,0.0,19.28,14.64,14.64,0.0,1.0,3
159.95595900,159955959,0.0,-5.51,0.0,19.28,14.68,14.68,0.0,1.0,3
159.96397600,159963976,0.0,-5.51,0.0,19.28,14.72,14.72,0.0,1.0,3
159.97220800,159972208,0.0,-5.51,0.0,19.28,14.76,14.76,0.0,1.0,3
159.97998900,159979989,0.0,-5.5,0.0,19.28,14.8,14.8,0.0,1.0,3
159.98842600,159988426,0.0,-5.5,0.0,19.28,14.84,14.84,0.0,1.0,3
159.99709200,159997092,0.0,-5.5,0.0,19.28,14.88,14.88,0.0,1.0,3
160.00426300,160004263,0.0,-5.5,0.0,19.28,14.92,14.92,0.0,1.0,3
160.01226300,160012263,0.0,-5.5,0.0,19.28,14.96,14.96,0.0,1.0,3
160.02055200,160020552,0.0,-5.5,0.0,19.28,15.0,15.0,0.0,1.0,3
160.02822300,160028223,0.0,-5.5,0.0,19.28,15.040000000000001,15.040000000000001,0.0,1.0,3
160.03608300,160036083,0.0,-5.5,0.0,19.28,15.08,15.08,0.0,1.0,3
160.04453100,160044531,0.0,-5.49,0.0,19.28,15.11,15.11,0.0,1.0,3
160.05194800,160051948,0.0,-5.49,0.0,19.28,15.16,15.16,0.0,1.0,3
160.06022300,160060223,0.0,-5.49,0.0,19.28,15.200000000000001,15.200000000000001,0.0,1.0,3
160.06824500,160068245,0.0,-5.49,0.0,19.28,15.24,15.24,0.0,1.0,3
160.07595900,160075959,0.0,-5.49,0.0,19.28,15.280000000000001,15.280000000000001,0.0,1.0,3
160.08400600,160084006,0.0,-5.49,0.0,19.28,15.33,15.33,0.0,1.0,3
160.09224800,160092248,0.0,-5.49,0.0,19.27,15.370000000000001,15.370000000000001,0.0,1.0,3
160.10003500,160100035,0.0,-5.49,0.0,19.27,15.41,15.41,0.0,1.0,3
160.10802000,160108020,0.0,-5.48,0.0,19.27,15.450000000000001,15.450000000000001,0.0,1.0,3
160.11621300,160116213,0.0,-5.48,0.0,19.27,15.49,15.49,0.0,1.0,3
160.12454100,160124541,0.0,-5.48,0.0,19.27,15.530000000000001,15.530000000000001,0.0,1.0,3
160.13202400,160132024,0.0,-5.48,0.0,19.27,15.57,15.57,0.0,1.0,3
160.14028600,160140286,0.0,-5.48,0.0,19.27,15.610000000000001,15.610000000000001,0.0,1.0,3
160.14797500,160147975,0.0,-5.48,0.0,19.27,15.65,15.65,0.0,1.0,3
160.15605600,160156056,0.0,-5.48,0.0,19.27,15.69,15.69,0.0,1.0,3
160.16424300,160164243,0.0,-5.47,0.0,19.27,15.73,15.73,0.0,1.0,3
160.17192700,160171927,0.0,-5.47,0.0,19.27,15.77,15.77,0.0,1.0,3
160.17996200,160179962,0.0,-5.47,0.0,19.27,15.81,15.81,0.0,1.0,3
160.18870900,160188709,0.0,-5.47,0.0,19.27,15.85,15.85,0.0,1.0,3
160.19595400,160195954,0.0,-5.47,0.0,19.27,15.89,15.89,0.0,1.0,3
160.20402400,160204024,0.0,-5.47,0.0,19.27,15.94,15.94,0.0,1.0,3
160.21232200,160212322,0.0,-5.47,0.0,19.27,15.98,15.98,0.0,1.0,3
160.22025300,160220253,0.0,-5.47,0.0,19.27,16.02,16.02,0.0,1.0,3
160.22822200,160228222,0.0,-5.46,0.0,19.27,16.07,16.07,0.0,1.0,3
160.23656900,160236569,0.0,-5.46,0.0,19.27,16.11,16.11,0.0,1.0,3
160.24429300,160244293,0.0,-5.46,0.0,19.27,16.15,16.15,0.0,1.0,3
160.25225200,160252252,0.0,-5.46,0.0,19.27,16.2,16.2,0.0,1.0,3
160.26018300,160260183,0.0,-5.46,0.0,19.27,16.240000000000002,16.240000000000002,0.0,1.0,3
160.26799300,160267993,0.0,-5.46,0.0,19.27,16.28,16.28,0.0,1.0,3
160.27598400,160275984,0.0,-5.46,0.0,19.27,16.32,16.32,0.0,1.0,3
160.28427200,160284272,0.0,-5.45,0.0,19.27,16.36,16.36,0.0,1.0,3
