timestamp,TimeUS,DesRoll,Roll,DesPitch,Pitch,DesYaw,Yaw,ErrRP,ErrYaw,AEKF
5.26924500,5269245,0.0,-1.96,0.0,39.24,0.01,0.01,1.0,1.0,0
5.44185500,5441855,0.0,-1.96,0.0,39.24,0.0,0.0,0.8,1.0,0
5.44425200,5444252,0.0,-1.96,0.0,39.24,0.0,0.0,0.8,1.0,0
5.44682000,5446820,0.0,-1.96,0.0,39.24,0.0,0.0,0.8,1.0,0
5.44925100,5449251,0.0,-1.96,0.0,39.24,0.0,0.0,0.8,1.0,0
5.47681000,5476810,0.0,-1.96,0.0,39.24,0.0,0.0,0.8,1.0,0
5.47926600,5479266,0.0,-1.96,0.0,39.24,0.0,0.0,0.8,1.0,0
5.48185400,5481854,0.0,-1.96,0.0,39.24,0.01,0.01,0.8,1.0,0
5.48425900,5484259,0.0,-1.96,0.0,39.24,0.01,0.01,0.8,1.0,0
5.48680900,5486809,0.0,-1.96,0.0,39.24,0.0,0.0,0.8,1.0,0
5.51181800,5511818,0.0,-1.96,0.0,39.24,0.01,0.01,0.8,1.0,0
5.51426100,5514261,0.0,-1.95,0.0,39.24,0.01,0.01,0.8,1.0,0
5.51680800,5516808,0.0,-1.95,0.0,39.24,0.01,0.01,0.8,1.0,0
5.51925900,5519259,0.0,-1.95,0.0,39.24,0.01,0.01,0.8,1.0,0
5.52198600,5521986,0.0,-1.95,0.0,39.24,0.01,0.01,0.8,1.0,0
5.54423400,5544234,0.0,-1.95,0.0,39.230000000000004,0.01,0.01,0.8,1.0,0
5.54681800,5546818,0.0,-1.95,0.0,39.230000000000004,0.01,0.01,0.8,1.0,0
5.54924500,5549245,0.0,-1.95,0.0,39.230000000000004,0.01,0.01,0.8,1.0,0
5.55182800,5551828,0.0,-1.95,0.0,39.230000000000004,0.01,0.01,0.8,1.0,0
5.57681200,5576812,0.0,-1.95,0.0,39.230000000000004,0.01,0.01,0.8,1.0,0
5.57926600,5579266,0.0,-1.95,0.0,39.230000000000004,0.01,0.01,0.8,1.0,0
5.58184400,5581844,0.0,-1.95,0.0,39.230000000000004,0.01,0.01,0.8,1.0,0
5.58426900,5584269,0.0,-1.95,0.0,39.230000000000004,0.01,0.01,0.8,1.0,0
5.60923700,5609237,0.0,-1.95,0.0,39.230000000000004,0.01,0.01,0.8,1.0,0
5.61182700,5611827,0.0,-1.95,0.0,39.230000000000004,0.01,0.01,0.8,1.0,0
5.61424000,5614240,0.0,-1.95,0.0,39.230000000000004,0.01,0.01,0.8,1.0,0
5.61681300,5616813,0.0,-1.95,0.0,39.230000000000004,0.01,0.01,0.8,1.0,0
5.64186900,5641869,0.0,-1.94,0.0,39.230000000000004,0.01,0.01,0.64,1.0,0
5.64423600,5644236,0.0,-1.94,0.0,39.230000000000004,0.01,0.01,0.64,1.0,0
5.64682700,5646827,0.0,-1.94,0.0,39.230000000000004,0.01,0.01,0.64,1.0,0
5.64924200,5649242,0.0,-1.94,0.0,39.230000000000004,0.01,0.01,0.64,1.0,0
5.65182800,5651828,0.0,-1.94,0.0,39.230000000000004,0.01,0.01,0.64,1.0,0
5.65423400,5654234,0.0,-1.94,0.0,39.230000000000004,0.01,0.01,0.64,1.0,0
5.67681000,5676810,0.0,-1.94,0.0,39.230000000000004,0.01,0.01,0.64,1.0,0
5.67925800,5679258,0.0,-1.94,0.0,39.22,0.01,0.01,0.64,1.0,0
5.68185200,5681852,0.0,-1.94,0.0,39.22,0.01,0.01,0.64,1.0,0
5.68426000,5684260,0.0,-1.94,0.0,39.22,0.01,0.01,0.64,1.0,0
5.68681400,5686814,0.0,-1.94,0.0,39.22,0.01,0.01,0.64,1.0,0
5.75425200,5754252,0.0,-1.94,0.0,39.230000000000004,0.02,0.02,0.64,1.0,0
5.75682100,5756821,0.0,-1.94,0.0,39.230000000000004,0.02,0.02,0.64,1.0,0
5.75924700,5759247,0.0,-1.94,0.0,39.230000000000004,0.02,0.02,0.64,1.0,0
5.76185900,5761859,0.0,-1.94,0.0,39.230000000000004,0.02,0.02,0.64,1.0,0
5.76422200,5764222,0.0,-1.94,0.0,39.230000000000004,0.02,0.02,0.64,1.0,0
5.76786300,5767863,0.0,-1.94,0.0,39.230000000000004,0.02,0.02,0.64,1.0,0
5.76974400,5769744,0.0,-1.94,0.0,39.230000000000004,0.02,0.02,0.64,1.0,0
5.77183200,5771832,0.0,-1.94,0.0,39.230000000000004,0.02,0.02,0.64,1.0,0
5.79424100,5794241,0.0,-1.94,0.0,39.230000000000004,0.02,0.02,0.64,1.0,0
5.79681600,5796816,0.0,-1.94,0.0,39.230000000000004,0.02,0.02,0.64,1.0,0
5.79923800,5799238,0.0,-1.94,0.0,39.230000000000004,0.02,0.02,0.64,1.0,0
5.80186700,5801867,0.0,-1.93,0.0,39.230000000000004,0.02,0.02,0.64,1.0,0
5.80423400,5804234,0.0,-1.93,0.0,39.230000000000004,0.02,0.02,0.64,1.0,0
5.80681700,5806817,0.0,-1.93,0.0,39.230000000000004,0.02,0.02,0.64,1.0,0
5.80921400,5809214,0.0,-1.93,0.0,39.230000000000004,0.02,0.02,0.64,1.0,0
5.81183400,5811834,0.0,-1.93,0.0,39.230000000000004,0.02,0.02,0.64,1.0,0
5.81441300,5814413,0.0,-1.93,0.0,39.230000000000004,0.02,0.02,0.64,1.0,0
5.82928300,5829283,0.0,-1.94,0.0,39.230000000000004,0.02,0.02,0.51,1.0,0
5.83182000,5831820,0.0,-1.94,0.0,39.22,0.02,0.02,0.51,1.0,0
5.83426100,5834261,0.0,-1.94,0.0,39.22,0.02,0.02,0.51,1.0,0
5.83681200,5836812,0.0,-1.94,0.0,39.22,0.02,0.02,0.51,1.0,0
5.83925700,5839257,0.0,-1.94,0.0,39.22,0.02,0.02,0.51,1.0,0
5.84185600,5841856,0.0,-1.94,0.0,39.22,0.02,0.02,0.51,1.0,0
5.84421700,5844217,0.0,-1.93,0.0,39.22,0.02,0.02,0.51,1.0,0
5.84679600,5846796,0.0,-1.93,0.0,39.22,0.02,0.02,0.51,1.0,0
5.84922600,5849226,0.0,-1.93,0.0,39.22,0.02,0.02,0.51,1.0,0
5.87181600,5871816,0.0,-1.93,0.0,39.22,0.02,0.02,0.51,1.0,0
5.87424500,5874245,0.0,-1.93,0.0,39.22,0.02,0.02,0.51,1.0,0
5.87677400,5876774,0.0,-1.93,0.0,39.22,0.02,0.02,0.51,1.0,0
5.87926500,5879265,0.0,-1.93,0.0,39.22,0.02,0.02,0.51,1.0,0
5.88184500,5881845,0.0,-1.93,0.0,39.22,0.02,0.02,0.51,1.0,0
5.88426200,5884262,0.0,-1.93,0.0,39.22,0.02,0.02,0.51,1.0,0
5.88680100,5886801,0.0,-1.93,0.0,39.22,0.02,0.02,0.51,1.0,0
5.88926400,5889264,0.0,-1.93,0.0,39.22,0.02,0.02,0.51,1.0,0
5.89178800,5891788,0.0,-1.93,0.0,39.22,0.02,0.02,0.51,1.0,0
5.89425100,5894251,0.0,-1.93,0.0,39.22,0.02,0.02,0.51,1.0,0
5.89681400,5896814,0.0,-1.93,0.0,39.22,0.02,0.02,0.51,1.0,0
5.91180200,5911802,0.0,-1.93,0.0,39.230000000000004,0.02,0.02,0.51,1.0,0
5.91423700,5914237,0.0,-1.93,0.0,39.230000000000004,0.02,0.02,0.51,1.0,0
5.91682900,5916829,0.0,-1.93,0.0,39.230000000000004,0.02,0.02,0.51,1.0,0
5.91923200,5919232,0.0,-1.93,0.0,39.230000000000004,0.02,0.02,0.51,1.0,0
5.92200000,5922000,0.0,-1.93,0.0,39.230000000000004,0.02,0.02,0.51,1.0,0
5.92423300,5924233,0.0,-1.93,0.0,39.230000000000004,0.02,0.02,0.51,1.0,0
5.92679000,5926790,0.0,-1.93,0.0,39.230000000000004,0.02,0.02,0.51,1.0,0
5.92925500,5929255,0.0,-1.93,0.0,39.230000000000004,0.02,0.02,0.51,1.0,0
5.93179200,5931792,0.0,-1.93,0.0,39.230000000000004,0.02,0.02,0.51,1.0,0
5.93424800,5934248,0.0,-1.93,0.0,39.230000000000004,0.02,0.02,0.51,1.0,0
5.93680500,5936805,0.0,-1.93,0.0,39.230000000000004,0.02,0.02,0.51,1.0,0
5.95421400,5954214,0.0,-1.93,0.0,39.22,0.02,0.02,0.51,1.0,0
5.95681900,5956819,0.0,-1.93,0.0,39.22,0.02,0.02,0.51,1.0,0
5.95921400,5959214,0.0,-1.93,0.0,39.22,0.02,0.02,0.51,1.0,0
5.96185100,5961851,0.0,-1.93,0.0,39.22,0.02,0.02,0.51,1.0,0
5.96422100,5964221,0.0,-1.93,0.0,39.22,0.02,0.02,0.51,1.0,0
5.96795000,5967950,0.0,-1.93,0.0,39.22,0.02,0.02,0.51,1.0,0
5.97007200,5970072,0.0,-1.93,0.0,39.22,0.02,0.02,0.51,1.0,0
5.97273400,5972734,0.0,-1.93,0.0,39.21,0.02,0.02,0.51,1.0,0
5.97507300,5975073,0.0,-1.93,0.0,39.21,0.03,0.03,0.51,1.0,0
5.97769700,5977697,0.0,-1.93,0.0,39.21,0.03,0.03,0.51,1.0,0
5.98007700,5980077,0.0,-1.93,0.0,39.21,0.02,0.02,0.51,1.0,0
5.98273400,5982734,0.0,-1.93,0.0,39.21,0.02,0.02,0.51,1.0,0
6.00506200,6005062,0.0,-1.93,0.0,39.21,0.02,0.02,0.51,1.0,0
6.00770900,6007709,0.0,-1.93,0.0,39.21,0.02,0.02,0.51,1.0,0
6.01006500,6010065,0.0,-1.93,0.0,39.21,0.02,0.02,0.51,1.0,0
6.01271900,6012719,0.0,-1.93,0.0,39.21,0.02,0.02,0.51,1.0,0
6.01506100,6015061,0.0,-1.93,0.0,39.21,0.02,0.02,0.51,1.0,0
6.01771200,6017712,0.0,-1.93,0.0,39.21,0.02,0.02,0.51,1.0,0
6.02006000,6020060,0.0,-1.93,0.0,39.21,0.02,0.02,0.51,1.0,0
6.02291200,6022912,0.0,-1.93,0.0,39.21,0.02,0.02,0.51,1.0,0
6.02507900,6025079,0.0,-1.93,0.0,39.21,0.02,0.02,0.51,1.0,0
6.02769100,6027691,0.0,-1.93,0.0,39.21,0.02,0.02,0.51,1.0,0
6.03009300,6030093,0.0,-1.93,0.0,39.21,0.02,0.02,0.4,1.0,0
6.05505300,6055053,0.0,-1.93,0.0,39.22,0.02,0.02,0.4,1.0,0
6.05772100,6057721,0.0,-1.93,0.0,39.22,0.02,0.02,0.4,1.0,0
6.06007500,6060075,0.0,-1.93,0.0,39.22,0.02,0.02,0.4,1.0,0
6.06278400,6062784,0.0,-1.93,0.0,39.22,0.02,0.02,0.4,1.0,0
6.06505500,6065055,0.0,-1.93,0.0,39.22,0.02,0.02,0.4,1.0,0
6.06886800,6068868,0.0,-1.92,0.0,39.22,0.02,0.02,0.4,1.0,0
6.07066500,6070665,0.0,-1.92,0.0,39.22,0.02,0.02,0.4,1.0,0
6.09065600,6090656,0.0,-1.92,0.0,39.230000000000004,0.02,0.02,0.4,1.0,0
6.09300100,6093001,0.0,-1.92,0.0,39.230000000000004,0.02,0.02,0.4,1.0,0
6.09566000,6095660,0.0,-1.92,0.0,39.230000000000004,0.02,0.02,0.4,1.0,0
6.09798200,6097982,0.0,-1.92,0.0,39.230000000000004,0.02,0.02,0.4,1.0,0
6.10065900,6100659,0.0,-1.92,0.0,39.230000000000004,0.02,0.02,0.4,1.0,0
6.10305000,6103050,0.0,-1.92,0.0,39.230000000000004,0.02,0.02,0.4,1.0,0
6.10571600,6105716,0.0,-1.92,0.0,39.230000000000004,0.02,0.02,0.4,1.0,0
6.10798200,6107982,0.0,-1.92,0.0,39.22,0.02,0.02,0.4,1.0,0
6.12799800,6127998,0.0,-1.92,0.0,39.21,0.02,0.02,0.4,1.0,0
6.13063800,6130638,0.0,-1.92,0.0,39.21,0.02,0.02,0.4,1.0,0
6.13302800,6133028,0.0,-1.92,0.0,39.21,0.02,0.02,0.4,1.0,0
6.13564600,6135646,0.0,-1.92,0.0,39.21,0.02,0.02,0.4,1.0,0
6.13802400,6138024,0.0,-1.92,0.0,39.21,0.02,0.02,0.4,1.0,0
6.14064900,6140649,0.0,-1.93,0.0,39.21,0.02,0.02,0.4,1.0,0
6.14305800,6143058,0.0,-1.93,0.0,39.2,0.02,0.02,0.4,1.0,0
6.14567700,6145677,0.0,-1.92,0.0,39.2,0.02,0.02,0.4,1.0,0
6.14800300,6148003,0.0,-1.93,0.0,39.2,0.02,0.02,0.4,1.0,0
6.16568800,6165688,0.0,-1.93,0.0,39.2,0.02,0.02,0.4,1.0,0
6.16908800,6169088,0.0,-1.93,0.0,39.2,0.02,0.02,0.4,1.0,0
6.17083600,6170836,0.0,-1.93,0.0,39.2,0.02,0.02,0.4,1.0,0
6.17299700,6172997,0.0,-1.93,0.0,39.2,0.02,0.02,0.4,1.0,0
6.17567200,6175672,0.0,-1.93,0.0,39.2,0.02,0.02,0.4,1.0,0
6.17798800,6177988,0.0,-1.93,0.0,39.2,0.02,0.02,0.4,1.0,0
6.18065900,6180659,0.0,-1.93,0.0,39.2,0.02,0.02,0.4,1.0,0
6.18305000,6183050,0.0,-1.92,0.0,39.21,0.02,0.02,0.4,1.0,0
6.18566700,6185667,0.0,-1.92,0.0,39.21,0.02,0.02,0.4,1.0,0
6.21567800,6215678,0.0,-1.92,0.0,39.230000000000004,0.02,0.02,0.4,1.0,0
6.21798000,6217980,0.0,-1.92,0.0,39.230000000000004,0.02,0.02,0.4,1.0,0
6.22068100,6220681,0.0,-1.92,0.0,39.230000000000004,0.02,0.02,0.4,1.0,0
6.22325900,6223259,0.0,-1.92,0.0,39.230000000000004,0.02,0.02,0.4,1.0,0
6.22641300,6226413,0.0,-1.92,0.0,39.230000000000004,0.02,0.02,0.4,1.0,0
6.22864400,6228644,0.0,-1.92,0.0,39.230000000000004,0.02,0.02,0.4,1.0,0
6.23102800,6231028,0.0,-1.92,0.0,39.230000000000004,0.02,0.02,0.32,1.0,0
6.25605400,6256054,0.0,-1.92,0.0,39.21,0.03,0.03,0.32,1.0,0
6.25864100,6258641,0.0,-1.92,0.0,39.21,0.03,0.03,0.32,1.0,0
6.26103400,6261034,0.0,-1.92,0.0,39.21,0.02,0.02,0.32,1.0,0
6.26369600,6263696,0.0,-1.92,0.0,39.21,0.03,0.03,0.32,1.0,0
6.26715400,6267154,0.0,-1.92,0.0,39.21,0.03,0.03,0.32,1.0,0
6.26907700,6269077,0.0,-1.92,0.0,39.2,0.02,0.02,0.32,1.0,0
6.29411400,6294114,0.0,-1.92,0.0,39.2,0.02,0.02,0.32,1.0,0
6.29675000,6296750,0.0,-1.92,0.0,39.2,0.02,0.02,0.32,1.0,0
6.29912400,6299124,0.0,-1.92,0.0,39.2,0.02,0.02,0.32,1.0,0
6.30173200,6301732,0.0,-1.92,0.0,39.2,0.02,0.02,0.32,1.0,0
6.30415400,6304154,0.0,-1.92,0.0,39.2,0.02,0.02,0.32,1.0,0
6.30672600,6306726,0.0,-1.92,0.0,39.21,0.02,0.02,0.32,1.0,0
6.33174400,6331744,0.0,-1.92,0.0,39.22,0.02,0.02,0.32,1.0,0
6.33409800,6334098,0.0,-1.92,0.0,39.22,0.02,0.02,0.32,1.0,0
6.33674100,6336741,0.0,-1.92,0.0,39.22,0.02,0.02,0.32,1.0,0
6.33909300,6339093,0.0,-1.92,0.0,39.22,0.02,0.02,0.32,1.0,0
6.34174200,6341742,0.0,-1.92,0.0,39.22,0.02,0.02,0.32,1.0,0
6.34415700,6344157,0.0,-1.92,0.0,39.22,0.02,0.02,0.32,1.0,0
6.37676000,6376760,0.0,-1.92,0.0,39.22,0.02,0.02,0.32,1.0,0
6.37908600,6379086,0.0,-1.92,0.0,39.21,0.02,0.02,0.32,1.0,0
6.38175100,6381751,0.0,-1.92,0.0,39.21,0.02,0.02,0.32,1.0,0
6.38412500,6384125,0.0,-1.92,0.0,39.21,0.02,0.02,0.32,1.0,0
6.38678100,6386781,0.0,-1.92,0.0,39.21,0.02,0.02,0.32,1.0,0
6.40911300,6409113,0.0,-1.92,0.0,39.21,0.02,0.02,0.32,1.0,0
6.41175800,6411758,0.0,-1.92,0.0,39.21,0.02,0.02,0.32,1.0,0
6.44419600,6444196,0.0,-1.92,0.0,39.21,0.02,0.02,0.26,1.0,0
6.44673000,6446730,0.0,-1.92,0.0,39.21,0.02,0.02,0.26,1.0,0
6.47912300,6479123,0.0,-1.92,0.0,39.22,0.02,0.02,0.26,1.0,0
6.48177700,6481777,0.0,-1.92,0.0,39.22,0.02,0.02,0.26,1.0,0
6.63677200,6636772,0.0,-1.93,0.0,39.21,0.02,0.02,0.21,1.0,0
6.63911800,6639118,0.0,-1.93,0.0,39.21,0.02,0.02,0.21,1.0,0
6.64176500,6641765,0.0,-1.93,0.0,39.21,0.02,0.02,0.21,1.0,0
6.64414700,6644147,0.0,-1.93,0.0,39.21,0.01,0.01,0.21,1.0,0
6.66781000,6667810,0.0,-1.93,0.0,39.22,0.01,0.01,0.21,1.0,0
6.66911500,6669115,0.0,-1.93,0.0,39.22,0.01,0.01,0.21,1.0,0
6.67174700,6671747,0.0,-1.93,0.0,39.22,0.01,0.01,0.21,1.0,0
6.67413700,6674137,0.0,-1.93,0.0,39.22,0.01,0.01,0.21,1.0,0
6.67675400,6676754,0.0,-1.93,0.0,39.22,0.01,0.01,0.21,1.0,0
6.67908300,6679083,0.0,-1.93,0.0,39.22,0.01,0.01,0.21,1.0,0
6.68175100,6681751,0.0,-1.93,0.0,39.22,0.01,0.01,0.21,1.0,0
6.71912500,6719125,0.0,-1.93,0.0,39.21,0.01,0.01,0.21,1.0,0
6.72174600,6721746,0.0,-1.93,0.0,39.21,0.01,0.01,0.21,1.0,0
6.72438400,6724384,0.0,-1.93,0.0,39.21,0.01,0.01,0.21,1.0,0
6.72672100,6726721,0.0,-1.93,0.0,39.21,0.01,0.01,0.21,1.0,0
6.72909500,6729095,0.0,-1.93,0.0,39.2,0.01,0.01,0.21,1.0,0
6.73174400,6731744,0.0,-1.93,0.0,39.2,0.01,0.01,0.21,1.0,0
6.73410300,6734103,0.0,-1.93,0.0,39.2,0.01,0.01,0.21,1.0,0
6.74913200,6749132,0.0,-1.93,0.0,39.2,0.01,0.01,0.21,1.0,0
6.75175500,6751755,0.0,-1.93,0.0,39.2,0.01,0.01,0.21,1.0,0
6.75409400,6754094,0.0,-1.93,0.0,39.2,0.01,0.01,0.21,1.0,0
6.75676400,6756764,0.0,-1.93,0.0,39.21,0.01,0.01,0.21,1.0,0
6.75910100,6759101,0.0,-1.93,0.0,39.21,0.01,0.01,0.21,1.0,0
6.76176300,6761763,0.0,-1.93,0.0,39.21,0.01,0.01,0.21,1.0,0
6.76414600,6764146,0.0,-1.93,0.0,39.21,0.01,0.01,0.21,1.0,0
6.78174300,6781743,0.0,-1.93,0.0,39.21,0.01,0.01,0.21,1.0,0
6.78415800,6784158,0.0,-1.93,0.0,39.22,0.01,0.01,0.21,1.0,0
6.78673900,6786739,0.0,-1.93,0.0,39.22,0.01,0.01,0.21,1.0,0
6.78911200,6789112,0.0,-1.93,0.0,39.22,0.01,0.01,0.21,1.0,0
6.79174200,6791742,0.0,-1.93,0.0,39.22,0.01,0.01,0.21,1.0,0
6.79409200,6794092,0.0,-1.93,0.0,39.22,0.01,0.01,0.21,1.0,0
6.79675500,6796755,0.0,-1.93,0.0,39.22,0.01,0.01,0.21,1.0,0
6.81188100,6811881,0.0,-1.93,0.0,39.22,0.01,0.01,0.21,1.0,0
6.81408800,6814088,0.0,-1.93,0.0,39.22,0.01,0.01,0.21,1.0,0
6.81676000,6816760,0.0,-1.93,0.0,39.22,0.01,0.01,0.21,1.0,0
6.81908000,6819080,0.0,-1.93,0.0,39.22,0.01,0.01,0.21,1.0,0
6.82176900,6821769,0.0,-1.93,0.0,39.22,0.01,0.01,0.21,1.0,0
6.82439500,6824395,0.0,-1.93,0.0,39.22,0.01,0.01,0.21,1.0,0
6.82672300,6826723,0.0,-1.93,0.0,39.22,0.01,0.01,0.21,1.0,0
6.84416500,6844165,0.0,-1.93,0.0,39.21,0.01,0.01,0.16,1.0,0
6.84674700,6846747,0.0,-1.93,0.0,39.21,0.01,0.01,0.16,1.0,0
6.84909400,6849094,0.0,-1.93,0.0,39.21,0.01,0.01,0.16,1.0,0
6.85174700,6851747,0.0,-1.93,0.0,39.21,0.01,0.01,0.16,1.0,0
6.85408700,6854087,0.0,-1.93,0.0,39.21,0.01,0.01,0.16,1.0,0
6.85676900,6856769,0.0,-1.93,0.0,39.21,0.01,0.01,0.16,1.0,0
6.85908100,6859081,0.0,-1.93,0.0,39.21,0.01,0.01,0.16,1.0,0
6.87676300,6876763,0.0,-1.93,0.0,39.2,0.02,0.02,0.16,1.0,0
6.87910500,6879105,0.0,-1.93,0.0,39.2,0.02,0.02,0.16,1.0,0
6.88174400,6881744,0.0,-1.93,0.0,39.2,0.02,0.02,0.16,1.0,0
6.88416500,6884165,0.0,-1.92,0.0,39.2,0.02,0.02,0.16,1.0,0
6.88675400,6886754,0.0,-1.92,0.0,39.2,0.02,0.02,0.16,1.0,0
6.88911200,6889112,0.0,-1.92,0.0,39.2,0.02,0.02,0.16,1.0,0
6.89174500,6891745,0.0,-1.92,0.0,39.2,0.02,0.02,0.16,1.0,0
6.90911500,6909115,0.0,-1.92,0.0,39.21,0.02,0.02,0.16,1.0,0
6.91175700,6911757,0.0,-1.92,0.0,39.21,0.02,0.02,0.16,1.0,0
6.91409200,6914092,0.0,-1.92,0.0,39.21,0.02,0.02,0.16,1.0,0
6.91676100,6916761,0.0,-1.92,0.0,39.21,0.02,0.02,0.16,1.0,0
6.91908900,6919089,0.0,-1.92,0.0,39.21,0.02,0.02,0.16,1.0,0
6.92176200,6921762,0.0,-1.92,0.0,39.21,0.02,0.02,0.16,1.0,0
6.92438300,6924383,0.0,-1.92,0.0,39.21,0.02,0.02,0.16,1.0,0
6.93913100,6939131,0.0,-1.92,0.0,39.21,0.02,0.02,0.16,1.0,0
6.94174300,6941743,0.0,-1.92,0.0,39.21,0.02,0.02,0.16,1.0,0
6.94416400,6944164,0.0,-1.92,0.0,39.21,0.02,0.02,0.16,1.0,0
6.94674000,6946740,0.0,-1.92,0.0,39.21,0.02,0.02,0.16,1.0,0
6.94911700,6949117,0.0,-1.92,0.0,39.21,0.02,0.02,0.16,1.0,0
6.95179600,6951796,0.0,-1.92,0.0,39.21,0.02,0.02,0.16,1.0,0
6.95410300,6954103,0.0,-1.92,0.0,39.21,0.02,0.02,0.16,1.0,0
6.97676000,6976760,0.0,-1.92,0.0,39.21,0.02,0.02,0.16,1.0,0
6.97908000,6979080,0.0,-1.92,0.0,39.21,0.02,0.02,0.16,1.0,0
6.98176800,6981768,0.0,-1.92,0.0,39.21,0.02,0.02,0.16,1.0,0
6.98412700,6984127,0.0,-1.92,0.0,39.21,0.02,0.02,0.16,1.0,0
6.98676000,6986760,0.0,-1.92,0.0,39.21,0.02,0.02,0.16,1.0,0
6.98910400,6989104,0.0,-1.92,0.0,39.21,0.02,0.02,0.16,1.0,0
6.99174100,6991741,0.0,-1.92,0.0,39.21,0.02,0.02,0.16,1.0,0
7.00674400,7006744,0.0,-1.92,0.0,39.21,0.02,0.02,0.16,1.0,0
7.00909600,7009096,0.0,-1.92,0.0,39.21,0.02,0.02,0.16,1.0,0
7.01173800,7011738,0.0,-1.92,0.0,39.21,0.02,0.02,0.16,1.0,0
7.01408800,7014088,0.0,-1.92,0.0,39.21,0.02,0.02,0.16,1.0,0
7.01674900,7016749,0.0,-1.92,0.0,39.21,0.02,0.02,0.16,1.0,0
7.01908500,7019085,0.0,-1.92,0.0,39.21,0.02,0.02,0.16,1.0,0
7.02176700,7021767,0.0,-1.92,0.0,39.21,0.02,0.02,0.16,1.0,0
7.03913700,7039137,0.0,-1.92,0.0,39.21,0.02,0.02,0.13,1.0,0
7.04176900,7041769,0.0,-1.92,0.0,39.21,0.02,0.02,0.13,1.0,0
7.04416200,7044162,0.0,-1.92,0.0,39.21,0.02,0.02,0.13,1.0,0
7.04673700,7046737,0.0,-1.92,0.0,39.21,0.02,0.02,0.13,1.0,0
7.04913400,7049134,0.0,-1.92,0.0,39.21,0.02,0.02,0.13,1.0,0
7.05173600,7051736,0.0,-1.92,0.0,39.21,0.02,0.02,0.13,1.0,0
7.05411500,7054115,0.0,-1.92,0.0,39.21,0.02,0.02,0.13,1.0,0
7.08675300,7086753,0.0,-1.92,0.0,39.21,0.02,0.02,0.13,1.0,0
7.08909800,7089098,0.0,-1.92,0.0,39.21,0.02,0.02,0.13,1.0,0
7.09175500,7091755,0.0,-1.92,0.0,39.21,0.02,0.02,0.13,1.0,0
7.09409900,7094099,0.0,-1.92,0.0,39.21,0.02,0.02,0.13,1.0,0
7.09675700,7096757,0.0,-1.92,0.0,39.21,0.02,0.02,0.13,1.0,0
7.09911300,7099113,0.0,-1.92,0.0,39.21,0.02,0.02,0.13,1.0,0
7.10173800,7101738,0.0,-1.92,0.0,39.21,0.02,0.02,0.13,1.0,0
7.11912900,7119129,0.0,-1.92,0.0,39.21,0.02,0.02,0.13,1.0,0
7.12174900,7121749,0.0,-1.92,0.0,39.21,0.02,0.02,0.13,1.0,0
7.12439400,7124394,0.0,-1.92,0.0,39.21,0.02,0.02,0.13,1.0,0
7.12672100,7126721,0.0,-1.92,0.0,39.21,0.02,0.02,0.13,1.0,0
7.12909100,7129091,0.0,-1.92,0.0,39.21,0.02,0.02,0.13,1.0,0
7.13177200,7131772,0.0,-1.92,0.0,39.21,0.02,0.02,0.13,1.0,0
7.13409200,7134092,0.0,-1.92,0.0,39.21,0.02,0.02,0.13,1.0,0
7.15180600,7151806,0.0,-1.9100000000000001,0.0,39.21,0.02,0.02,0.13,1.0,0
7.15411200,7154112,0.0,-1.9100000000000001,0.0,39.21,0.02,0.02,0.13,1.0,0
7.15674900,7156749,0.0,-1.9100000000000001,0.0,39.21,0.02,0.02,0.13,1.0,0
7.15910500,7159105,0.0,-1.9100000000000001,0.0,39.21,0.02,0.02,0.13,1.0,0
7.16175100,7161751,0.0,-1.9100000000000001,0.0,39.21,0.02,0.02,0.13,1.0,0
7.16415700,7164157,0.0,-1.9100000000000001,0.0,39.21,0.02,0.02,0.13,1.0,0
7.16788800,7167888,0.0,-1.9100000000000001,0.0,39.21,0.02,0.02,0.13,1.0,0
7.18416300,7184163,0.0,-1.9100000000000001,0.0,39.21,0.02,0.02,0.13,1.0,0
7.18661000,7186610,0.0,-1.9100000000000001,0.0,39.21,0.02,0.02,0.13,1.0,0
7.43607100,7436071,0.0,-1.8900000000000001,0.0,39.2,359.99,0.0,0.13,1.0,3
7.43918100,7439181,0.0,-1.8800000000000001,0.0,39.18,359.99,0.0,0.13,1.0,3
7.44063800,7440638,0.0,-1.8800000000000001,0.0,39.19,359.99,0.0,0.13,1.0,3
7.44310300,7443103,0.0,-1.9000000000000001,0.0,39.21,0.0,0.0,0.13,1.0,3
7.44546000,7445460,0.0,-1.93,0.0,39.25,0.01,0.01,0.13,1.0,3
7.44814600,7448146,0.0,-1.94,0.0,39.27,0.02,0.02,0.13,1.0,3
7.45084400,7450844,0.0,-1.96,0.0,39.300000000000004,0.04,0.04,0.13,1.0,3
7.45313200,7453132,0.0,-1.98,0.0,39.33,0.05,0.05,0.13,1.0,3
7.45545800,7455458,0.0,-2.0,0.0,39.36,0.06,0.06,0.13,1.0,3
7.45809400,7458094,0.0,-2.02,0.0,39.39,0.07,0.07,0.13,1.0,3
7.46023200,7460232,0.0,-2.05,0.0,39.43,0.09,0.09,0.1,1.0,3
7.46308600,7463086,0.0,-2.06,0.0,39.45,0.1,0.1,0.1,1.0,3
7.46517400,7465174,0.0,-2.08,0.0,39.49,0.11,0.11,0.1,1.0,3
7.46808600,7468086,0.0,-2.1,0.0,39.52,0.12,0.12,0.1,1.0,3
7.47019900,7470199,0.0,-2.12,0.0,39.56,0.14,0.14,0.1,1.0,3
7.47281100,7472811,0.0,-2.14,0.0,39.59,0.15,0.15,0.1,1.0,3
7.47551700,7475517,0.0,-2.16,0.0,39.63,0.17,0.17,0.1,1.0,3
7.47780700,7477807,0.0,-2.18,0.0,39.660000000000004,0.17,0.17,0.1,1.0,3
7.48017200,7480172,0.0,-2.2,0.0,39.7,0.19,0.19,0.1,1.0,3
7.48283400,7482834,0.0,-2.22,0.0,39.730000000000004,0.2,0.2,0.1,1.0,3
7.48517400,7485174,0.0,-2.24,0.0,39.78,0.21,0.21,0.1,1.0,3
7.48812300,7488123,0.0,-2.2600000000000002,0.0,39.81,0.22,0.22,0.1,1.0,3
7.49017200,7490172,0.0,-2.2800000000000002,0.0,39.86,0.23,0.23,0.1,1.0,3
7.49283700,7492837,0.0,-2.3000000000000003,0.0,39.89,0.24,0.24,0.1,1.0,3
7.49517400,7495174,0.0,-2.31,0.0,39.94,0.25,0.25,0.1,1.0,3
7.49784600,7497846,0.0,-2.33,0.0,39.97,0.26,0.26,0.1,1.0,3
7.50050700,7500507,0.0,-2.35,0.0,40.02,0.27,0.27,0.1,1.0,3
7.50281200,7502812,0.0,-2.37,0.0,40.06,0.29,0.29,0.1,1.0,3
7.50517400,7505174,0.0,-2.39,0.0,40.1,0.3,0.3,0.1,1.0,3
7.50788000,7507880,0.0,-2.4,0.0,40.14,0.31,0.31,0.1,1.0,3
7.51019500,7510195,0.0,-2.42,0.0,40.19,0.33,0.33,0.1,1.0,3
7.51307800,7513078,0.0,-2.44,0.0,40.22,0.34,0.34,0.1,1.0,3
7.51786900,7517869,0.0,-2.47,0.0,40.300000000000004,0.37,0.37,0.1,1.0,3
7.52019400,7520194,0.0,-2.5,0.0,40.34,0.38,0.38,0.1,1.0,3
7.52281500,7522815,0.0,-2.5100000000000002,0.0,40.37,0.39,0.39,0.1,1.0,3
7.52552800,7525528,0.0,-2.54,0.0,40.42,0.4,0.4,0.1,1.0,3
7.52783700,7527837,0.0,-2.5500000000000003,0.0,40.45,0.41000000000000003,0.41000000000000003,0.1,1.0,3
7.53019200,7530192,0.0,-2.57,0.0,40.5,0.43,0.43,0.1,1.0,3
7.57285600,7572856,0.0,-2.59,0.0,40.53,0.44,0.44,0.1,1.0,3
7.57560700,7575607,0.0,-2.59,0.0,40.53,0.44,0.44,0.1,1.0,3
7.57780700,7577807,0.0,-2.59,0.0,40.53,0.44,0.44,0.1,1.0,3
7.58017700,7580177,0.0,-2.59,0.0,40.53,0.44,0.44,0.1,1.0,3
7.58282300,7582823,0.0,-2.59,0.0,40.53,0.44,0.44,0.1,1.0,3
7.58516100,7585161,0.0,-2.59,0.0,40.53,0.44,0.44,0.1,1.0,3
7.60789400,7607894,0.0,-2.59,0.0,40.53,0.44,0.44,0.1,1.0,3
7.61015800,7610158,0.0,-2.59,0.0,40.53,0.44,0.44,0.1,1.0,3
7.61374500,7613745,0.0,-2.59,0.0,40.53,0.44,0.44,0.1,1.0,3
7.61520900,7615209,0.0,-2.59,0.0,40.53,0.44,0.44,0.1,1.0,3
7.61784200,7617842,0.0,-2.59,0.0,40.53,0.44,0.44,0.1,1.0,3
7.62018100,7620181,0.0,-2.59,0.0,40.53,0.44,0.44,0.1,1.0,3
7.64281800,7642818,0.0,-2.59,0.0,40.53,0.44,0.44,0.1,1.0,3
7.64517700,7645177,0.0,-2.59,0.0,40.53,0.44,0.44,0.1,1.0,3
7.64789800,7647898,0.0,-2.59,0.0,40.53,0.44,0.44,0.1,1.0,3
7.65061800,7650618,0.0,-2.59,0.0,40.53,0.44,0.44,0.1,1.0,3
7.65281800,7652818,0.0,-2.59,0.0,40.53,0.44,0.44,0.1,1.0,3
7.65517400,7655174,0.0,-2.59,0.0,40.53,0.44,0.44,0.1,1.0,3
7.67779900,7677799,0.0,-2.59,0.0,40.53,0.44,0.44,0.09,1.0,3
7.68018700,7680187,0.0,-2.59,0.0,40.53,0.44,0.44,0.09,1.0,3
7.68282100,7682821,0.0,-2.59,0.0,40.53,0.44,0.44,0.09,1.0,3
7.68519100,7685191,0.0,-2.59,0.0,40.53,0.44,0.44,0.09,1.0,3
7.68816100,7688161,0.0,-2.59,0.0,40.53,0.44,0.44,0.09,1.0,3
7.69019200,7690192,0.0,-2.59,0.0,40.53,0.44,0.44,0.09,1.0,3
7.71016200,7710162,0.0,-2.59,0.0,40.53,0.44,0.44,0.09,1.0,3
7.71379100,7713791,0.0,-2.59,0.0,40.53,0.44,0.44,0.09,1.0,3
7.71517000,7715170,0.0,-2.59,0.0,40.53,0.44,0.44,0.09,1.0,3
7.71785600,7717856,0.0,-2.59,0.0,40.53,0.44,0.44,0.09,1.0,3
7.72015800,7720158,0.0,-2.59,0.0,40.53,0.44,0.44,0.09,1.0,3
7.72288100,7722881,0.0,-2.59,0.0,40.53,0.44,0.44,0.09,1.0,3
7.74520000,7745200,0.0,-2.59,0.0,40.53,0.44,0.44,0.09,1.0,3
7.74786900,7747869,0.0,-2.59,0.0,40.53,0.44,0.44,0.09,1.0,3
7.75062000,7750620,0.0,-2.59,0.0,40.53,0.44,0.44,0.09,1.0,3
7.75280000,7752800,0.0,-2.59,0.0,40.53,0.44,0.44,0.09,1.0,3
7.75516500,7755165,0.0,-2.59,0.0,40.53,0.44,0.44,0.09,1.0,3
7.75788700,7757887,0.0,-2.59,0.0,40.53,0.44,0.44,0.09,1.0,3
7.77559900,7775599,0.0,-2.58,0.0,40.52,0.44,0.44,0.09,1.0,3
7.77782100,7777821,0.0,-2.58,0.0,40.52,0.44,0.44,0.09,1.0,3
7.78018200,7780182,0.0,-2.58,0.0,40.52,0.44,0.44,0.09,1.0,3
7.78282600,7782826,0.0,-2.58,0.0,40.52,0.44,0.44,0.09,1.0,3
7.78519700,7785197,0.0,-2.58,0.0,40.52,0.44,0.44,0.09,1.0,3
7.78815100,7788151,0.0,-2.58,0.0,40.52,0.44,0.44,0.09,1.0,3
7.80786400,7807864,0.0,-2.59,0.0,40.53,0.44,0.44,0.09,1.0,3
7.81037300,7810373,0.0,-2.59,0.0,40.53,0.44,0.44,0.09,1.0,3
7.81373300,7813733,0.0,-2.59,0.0,40.53,0.44,0.44,0.09,1.0,3
7.81519900,7815199,0.0,-2.59,0.0,40.53,0.44,0.44,0.09,1.0,3
7.81784700,7817847,0.0,-2.59,0.0,40.53,0.44,0.44,0.09,1.0,3
7.82017300,7820173,0.0,-2.59,0.0,40.53,0.44,0.44,0.09,1.0,3
7.87312200,7873122,0.0,-2.58,0.0,40.53,0.44,0.44,0.07,1.0,3
7.87576900,7875769,0.0,-2.58,0.0,40.53,0.44,0.44,0.07,1.0,3
7.87782300,7877823,0.0,-2.58,0.0,40.53,0.44,0.44,0.07,1.0,3
7.88016500,7880165,0.0,-2.58,0.0,40.52,0.44,0.44,0.07,1.0,3
7.88283700,7882837,0.0,-2.58,0.0,40.52,0.44,0.44,0.07,1.0,3
7.88516100,7885161,0.0,-2.58,0.0,40.52,0.44,0.44,0.07,1.0,3
7.90518300,7905183,0.0,-2.58,0.0,40.52,0.44,0.44,0.07,1.0,3
7.90792100,7907921,0.0,-2.59,0.0,40.52,0.44,0.44,0.07,1.0,3
7.91019500,7910195,0.0,-2.59,0.0,40.52,0.44,0.44,0.07,1.0,3
7.91376000,7913760,0.0,-2.59,0.0,40.52,0.44,0.44,0.07,1.0,3
7.91520600,7915206,0.0,-2.59,0.0,40.52,0.44,0.44,0.07,1.0,3
7.91791200,7917912,0.0,-2.59,0.0,40.52,0.44,0.44,0.07,1.0,3
7.93627400,7936274,0.0,-2.58,0.0,40.52,0.44,0.44,0.07,1.0,3
7.93814900,7938149,0.0,-2.58,0.0,40.52,0.44,0.44,0.07,1.0,3
7.94018400,7940184,0.0,-2.58,0.0,40.52,0.44,0.44,0.07,1.0,3
7.94282700,7942827,0.0,-2.58,0.0,40.52,0.44,0.44,0.07,1.0,3
7.94519400,7945194,0.0,-2.58,0.0,40.52,0.44,0.44,0.07,1.0,3
7.94787100,7947871,0.0,-2.58,0.0,40.52,0.44,0.44,0.07,1.0,3
7.98519500,7985195,0.0,-2.58,0.0,40.52,0.44,0.44,0.07,1.0,3
7.98815400,7988154,0.0,-2.58,0.0,40.52,0.44,0.44,0.07,1.0,3
7.99019000,7990190,0.0,-2.58,0.0,40.52,0.44,0.44,0.07,1.0,3
7.99281400,7992814,0.0,-2.58,0.0,40.52,0.44,0.44,0.07,1.0,3
7.99519400,7995194,0.0,-2.58,0.0,40.52,0.44,0.44,0.07,1.0,3
7.99781700,7997817,0.0,-2.58,0.0,40.52,0.44,0.44,0.07,1.0,3
8.02017300,8020173,0.0,-2.58,0.0,40.52,0.44,0.44,0.07,1.0,3
8.02284000,8022840,0.0,-2.58,0.0,40.52,0.44,0.44,0.07,1.0,3
8.02560800,8025608,0.0,-2.58,0.0,40.52,0.44,0.44,0.07,1.0,3
8.02786400,8027864,0.0,-2.58,0.0,40.52,0.44,0.44,0.07,1.0,3
8.03051400,8030514,0.0,-2.58,0.0,40.52,0.44,0.44,0.07,1.0,3
8.03310800,8033108,0.0,-2.58,0.0,40.51,0.44,0.44,0.07,1.0,3
8.05520900,8055209,0.0,-2.58,0.0,40.51,0.45,0.45,0.07,1.0,3
8.05783100,8057831,0.0,-2.58,0.0,40.51,0.45,0.45,0.07,1.0,3
8.06018900,8060189,0.0,-2.58,0.0,40.5,0.45,0.45,0.07,1.0,3
8.06310500,8063105,0.0,-2.58,0.0,40.5,0.45,0.45,0.07,1.0,3
8.06520600,8065206,0.0,-2.58,0.0,40.5,0.45,0.45,0.06,1.0,3
8.06800300,8068003,0.0,-2.58,0.0,40.5,0.45,0.45,0.06,1.0,3
8.08518200,8085182,0.0,-2.58,0.0,40.5,0.44,0.44,0.06,1.0,3
8.08820200,8088202,0.0,-2.58,0.0,40.5,0.44,0.44,0.06,1.0,3
8.09018900,8090189,0.0,-2.58,0.0,40.51,0.44,0.44,0.06,1.0,3
8.09289300,8092893,0.0,-2.57,0.0,40.51,0.44,0.44,0.06,1.0,3
8.09517000,8095170,0.0,-2.57,0.0,40.51,0.45,0.45,0.06,1.0,3
8.09789200,8097892,0.0,-2.57,0.0,40.51,0.45,0.45,0.06,1.0,3
8.11521600,8115216,0.0,-2.57,0.0,40.5,0.45,0.45,0.06,1.0,3
8.11783100,8117831,0.0,-2.57,0.0,40.5,0.45,0.45,0.06,1.0,3
8.12019000,8120190,0.0,-2.57,0.0,40.5,0.45,0.45,0.06,1.0,3
8.12282400,8122824,0.0,-2.57,0.0,40.5,0.45,0.45,0.06,1.0,3
8.12560700,8125607,0.0,-2.57,0.0,40.5,0.45,0.45,0.06,1.0,3
8.12786800,8127868,0.0,-2.57,0.0,40.5,0.45,0.45,0.06,1.0,3
8.14798000,8147980,0.0,-2.56,0.0,40.5,0.45,0.45,0.06,1.0,3
8.15061500,8150615,0.0,-2.56,0.0,40.49,0.45,0.45,0.06,1.0,3
8.15279600,8152796,0.0,-2.56,0.0,40.49,0.45,0.45,0.06,1.0,3
8.15518400,8155184,0.0,-2.56,0.0,40.49,0.45,0.45,0.06,1.0,3
8.15782400,8157824,0.0,-2.56,0.0,40.49,0.45,0.45,0.06,1.0,3
8.16017400,8160174,0.0,-2.56,0.0,40.49,0.45,0.45,0.06,1.0,3
8.18017800,8180178,0.0,-2.56,0.0,40.480000000000004,0.46,0.46,0.06,1.0,3
8.18283900,8182839,0.0,-2.56,0.0,40.47,0.46,0.46,0.06,1.0,3
8.18515900,8185159,0.0,-2.56,0.0,40.47,0.46,0.46,0.06,1.0,3
8.18841300,8188413,0.0,-2.56,0.0,40.47,0.45,0.45,0.06,1.0,3
8.19018800,8190188,0.0,-2.56,0.0,40.47,0.45,0.45,0.06,1.0,3
8.19285100,8192851,0.0,-2.56,0.0,40.47,0.45,0.45,0.06,1.0,3
8.21373400,8213734,0.0,-2.5500000000000003,0.0,40.46,0.46,0.46,0.06,1.0,3
8.21521000,8215210,0.0,-2.5500000000000003,0.0,40.46,0.46,0.46,0.06,1.0,3
8.21784500,8217845,0.0,-2.5500000000000003,0.0,40.46,0.46,0.46,0.06,1.0,3
8.22018200,8220182,0.0,-2.5500000000000003,0.0,40.45,0.46,0.46,0.06,1.0,3
8.22283000,8222830,0.0,-2.5500000000000003,0.0,40.45,0.46,0.46,0.06,1.0,3
8.22559900,8225599,0.0,-2.5500000000000003,0.0,40.45,0.46,0.46,0.06,1.0,3
8.24517400,8245174,0.0,-2.54,0.0,40.44,0.47000000000000003,0.47000000000000003,0.06,1.0,3
8.24788600,8247886,0.0,-2.54,0.0,40.44,0.47000000000000003,0.47000000000000003,0.06,1.0,3
8.25053900,8250539,0.0,-2.54,0.0,40.44,0.47000000000000003,0.47000000000000003,0.06,1.0,3
8.25284600,8252846,0.0,-2.54,0.0,40.44,0.47000000000000003,0.47000000000000003,0.06,1.0,3
8.25518300,8255183,0.0,-2.5300000000000002,0.0,40.44,0.47000000000000003,0.47000000000000003,0.06,1.0,3
8.25787500,8257875,0.0,-2.5300000000000002,0.0,40.44,0.47000000000000003,0.47000000000000003,0.06,1.0,3
8.32282700,8322827,0.0,-2.5100000000000002,0.0,40.4,0.49,0.49,0.05,1.0,3
8.32561100,8325611,0.0,-2.5100000000000002,0.0,40.39,0.49,0.49,0.05,1.0,3
8.32785000,8327850,0.0,-2.5100000000000002,0.0,40.39,0.49,0.49,0.05,1.0,3
8.33017800,8330178,0.0,-2.5100000000000002,0.0,40.39,0.49,0.49,0.05,1.0,3
8.33282800,8332828,0.0,-2.5100000000000002,0.0,40.38,0.49,0.49,0.05,1.0,3
8.33626900,8336269,0.0,-2.5100000000000002,0.0,40.38,0.49,0.49,0.05,1.0,3
8.37017500,8370175,0.0,-2.49,0.0,40.35,0.5,0.5,0.05,1.0,3
8.37282300,8372823,0.0,-2.49,0.0,40.34,0.5,0.5,0.05,1.0,3
8.37559900,8375599,0.0,-2.49,0.0,40.34,0.51,0.51,0.05,1.0,3
8.37781300,8377813,0.0,-2.49,0.0,40.34,0.51,0.51,0.05,1.0,3
8.38019100,8380191,0.0,-2.49,0.0,40.34,0.51,0.51,0.05,1.0,3
8.38282800,8382828,0.0,-2.49,0.0,40.34,0.51,0.51,0.05,1.0,3
8.40060900,8400609,0.0,-2.48,0.0,40.33,0.51,0.51,0.05,1.0,3
8.40281300,8402813,0.0,-2.48,0.0,40.33,0.51,0.51,0.05,1.0,3
8.40517500,8405175,0.0,-2.48,0.0,40.32,0.51,0.51,0.05,1.0,3
8.40788500,8407885,0.0,-2.47,0.0,40.32,0.51,0.51,0.05,1.0,3
8.41017400,8410174,0.0,-2.47,0.0,40.32,0.52,0.52,0.05,1.0,3
8.41374000,8413740,0.0,-2.47,0.0,40.32,0.52,0.52,0.05,1.0,3
8.43285400,8432854,0.0,-2.46,0.0,40.29,0.53,0.53,0.05,1.0,3
8.43628600,8436286,0.0,-2.45,0.0,40.28,0.53,0.53,0.05,1.0,3
8.43818800,8438188,0.0,-2.45,0.0,40.28,0.53,0.53,0.05,1.0,3
8.44020200,8440202,0.0,-2.45,0.0,40.28,0.53,0.53,0.05,1.0,3
8.44285300,8442853,0.0,-2.45,0.0,40.28,0.53,0.53,0.05,1.0,3
8.44517100,8445171,0.0,-2.45,0.0,40.27,0.53,0.53,0.05,1.0,3
8.47286500,8472865,0.0,-2.43,0.0,40.24,0.54,0.54,0.04,1.0,3
8.47561100,8475611,0.0,-2.43,0.0,40.24,0.54,0.54,0.04,1.0,3
8.47780900,8477809,0.0,-2.43,0.0,40.24,0.54,0.54,0.04,1.0,3
8.48018200,8480182,0.0,-2.43,0.0,40.230000000000004,0.54,0.54,0.04,1.0,3
8.48283000,8482830,0.0,-2.43,0.0,40.230000000000004,0.54,0.54,0.04,1.0,3
8.48517500,8485175,0.0,-2.43,0.0,40.230000000000004,0.55,0.55,0.04,1.0,3
8.50517800,8505178,0.0,-2.42,0.0,40.2,0.55,0.55,0.04,1.0,3
8.50789100,8507891,0.0,-2.42,0.0,40.2,0.55,0.55,0.04,1.0,3
8.51016200,8510162,0.0,-2.41,0.0,40.2,0.55,0.55,0.04,1.0,3
8.51375000,8513750,0.0,-2.41,0.0,40.2,0.55,0.55,0.04,1.0,3
8.51519100,8515191,0.0,-2.41,0.0,40.19,0.56,0.56,0.04,1.0,3
8.51786400,8517864,0.0,-2.41,0.0,40.19,0.56,0.56,0.04,1.0,3
8.53633500,8536335,0.0,-2.4,0.0,40.160000000000004,0.5700000000000001,0.5700000000000001,0.04,1.0,3
8.53813200,8538132,0.0,-2.39,0.0,40.160000000000004,0.5700000000000001,0.5700000000000001,0.04,1.0,3
8.54019100,8540191,0.0,-2.39,0.0,40.160000000000004,0.5700000000000001,0.5700000000000001,0.04,1.0,3
8.54283400,8542834,0.0,-2.39,0.0,40.15,0.5700000000000001,0.5700000000000001,0.04,1.0,3
8.54520200,8545202,0.0,-2.39,0.0,40.15,0.5700000000000001,0.5700000000000001,0.04,1.0,3
8.54787200,8547872,0.0,-2.39,0.0,40.15,0.5700000000000001,0.5700000000000001,0.04,1.0,3
8.56802200,8568022,0.0,-2.38,0.0,40.12,0.58,0.58,0.04,1.0,3
8.57017400,8570174,0.0,-2.37,0.0,40.12,0.58,0.58,0.04,1.0,3
8.57283100,8572831,0.0,-2.37,0.0,40.12,0.58,0.58,0.04,1.0,3
8.57561200,8575612,0.0,-2.37,0.0,40.12,0.58,0.58,0.04,1.0,3
8.57781300,8577813,0.0,-2.37,0.0,40.11,0.58,0.58,0.04,1.0,3
8.58016800,8580168,0.0,-2.37,0.0,40.11,0.59,0.59,0.04,1.0,3
8.60519100,8605191,0.0,-2.35,0.0,40.09,0.6,0.6,0.04,1.0,3
8.60790000,8607900,0.0,-2.35,0.0,40.08,0.6,0.6,0.04,1.0,3
8.61018900,8610189,0.0,-2.35,0.0,40.08,0.6,0.6,0.04,1.0,3
8.61376700,8613767,0.0,-2.35,0.0,40.08,0.6,0.6,0.04,1.0,3
8.61518800,8615188,0.0,-2.35,0.0,40.07,0.6,0.6,0.04,1.0,3
8.61785700,8617857,0.0,-2.34,0.0,40.07,0.6,0.6,0.04,1.0,3
8.63627700,8636277,0.0,-2.33,0.0,40.03,0.61,0.61,0.04,1.0,3
8.63843600,8638436,0.0,-2.33,0.0,40.03,0.61,0.61,0.04,1.0,3
8.64020500,8640205,0.0,-2.33,0.0,40.02,0.61,0.61,0.04,1.0,3
8.64286100,8642861,0.0,-2.33,0.0,40.02,0.61,0.61,0.04,1.0,3
8.64518600,8645186,0.0,-2.33,0.0,40.01,0.61,0.61,0.04,1.0,3
8.64787100,8647871,0.0,-2.32,0.0,40.01,0.62,0.62,0.04,1.0,3
8.67016500,8670165,0.0,-2.31,0.0,39.980000000000004,0.62,0.62,0.03,1.0,3
8.67284600,8672846,0.0,-2.31,0.0,39.980000000000004,0.63,0.63,0.03,1.0,3
8.67560300,8675603,0.0,-2.31,0.0,39.980000000000004,0.63,0.63,0.03,1.0,3
8.67782100,8677821,0.0,-2.3000000000000003,0.0,39.980000000000004,0.63,0.63,0.03,1.0,3
8.68017800,8680178,0.0,-2.3000000000000003,0.0,39.980000000000004,0.63,0.63,0.03,1.0,3
8.68285000,8682850,0.0,-2.3000000000000003,0.0,39.97,0.63,0.63,0.03,1.0,3
8.70521700,8705217,0.0,-2.29,0.0,39.95,0.64,0.64,0.03,1.0,3
8.70786800,8707868,0.0,-2.2800000000000002,0.0,39.95,0.64,0.64,0.03,1.0,3
8.71019400,8710194,0.0,-2.2800000000000002,0.0,39.95,0.64,0.64,0.03,1.0,3
8.71372600,8713726,0.0,-2.2800000000000002,0.0,39.95,0.64,0.64,0.03,1.0,3
8.71521700,8715217,0.0,-2.2800000000000002,0.0,39.94,0.64,0.64,0.03,1.0,3
8.71784300,8717843,0.0,-2.2800000000000002,0.0,39.94,0.65,0.65,0.03,1.0,3
8.75786000,8757860,0.0,-2.25,0.0,39.89,0.66,0.66,0.03,1.0,3
8.76018500,8760185,0.0,-2.25,0.0,39.88,0.66,0.66,0.03,1.0,3
8.76313500,8763135,0.0,-2.25,0.0,39.88,0.66,0.66,0.03,1.0,3
8.76516600,8765166,0.0,-2.25,0.0,39.88,0.67,0.67,0.03,1.0,3
8.76800500,8768005,0.0,-2.25,0.0,39.87,0.67,0.67,0.03,1.0,3
8.77016800,8770168,0.0,-2.24,0.0,39.87,0.67,0.67,0.03,1.0,3
8.79019000,8790190,0.0,-2.23,0.0,39.85,0.68,0.68,0.03,1.0,3
8.79284800,8792848,0.0,-2.23,0.0,39.84,0.68,0.68,0.03,1.0,3
8.79517700,8795177,0.0,-2.23,0.0,39.84,0.68,0.68,0.03,1.0,3
8.79783500,8797835,0.0,-2.23,0.0,39.84,0.68,0.68,0.03,1.0,3
8.80061000,8800610,0.0,-2.23,0.0,39.83,0.68,0.68,0.03,1.0,3
8.80299400,8802994,0.0,-2.23,0.0,39.83,0.68,0.68,0.03,1.0,3
8.82019400,8820194,0.0,-2.22,0.0,39.81,0.6900000000000001,0.6900000000000001,0.03,1.0,3
8.82283200,8822832,0.0,-2.22,0.0,39.81,0.6900000000000001,0.6900000000000001,0.03,1.0,3
8.82553100,8825531,0.0,-2.22,0.0,39.81,0.6900000000000001,0.6900000000000001,0.03,1.0,3
8.82786400,8827864,0.0,-2.22,0.0,39.800000000000004,0.6900000000000001,0.6900000000000001,0.03,1.0,3
8.83017400,8830174,0.0,-2.21,0.0,39.800000000000004,0.6900000000000001,0.6900000000000001,0.03,1.0,3
8.83284700,8832847,0.0,-2.21,0.0,39.800000000000004,0.6900000000000001,0.6900000000000001,0.03,1.0,3
8.83625200,8836252,0.0,-2.21,0.0,39.800000000000004,0.6900000000000001,0.6900000000000001,0.03,1.0,3
8.85279300,8852793,0.0,-2.2,0.0,39.78,0.7000000000000001,0.7000000000000001,0.03,1.0,3
8.85520000,8855200,0.0,-2.2,0.0,39.78,0.7000000000000001,0.7000000000000001,0.03,1.0,3
8.85782100,8857821,0.0,-2.2,0.0,39.77,0.7000000000000001,0.7000000000000001,0.03,1.0,3
8.86019100,8860191,0.0,-2.2,0.0,39.77,0.7000000000000001,0.7000000000000001,0.03,1.0,3
8.86310000,8863100,0.0,-2.19,0.0,39.77,0.7000000000000001,0.7000000000000001,0.03,1.0,3
8.86520600,8865206,0.0,-2.19,0.0,39.77,0.7000000000000001,0.7000000000000001,0.03,1.0,3
8.88283700,8882837,0.0,-2.18,0.0,39.76,0.71,0.71,0.02,1.0,3
8.88517600,8885176,0.0,-2.18,0.0,39.76,0.71,0.71,0.02,1.0,3
8.88813500,8888135,0.0,-2.18,0.0,39.75,0.71,0.71,0.02,1.0,3
8.89018200,8890182,0.0,-2.18,0.0,39.75,0.71,0.71,0.02,1.0,3
8.89282400,8892824,0.0,-2.18,0.0,39.75,0.71,0.71,0.02,1.0,3
8.89517900,8895179,0.0,-2.18,0.0,39.75,0.71,0.71,0.02,1.0,3
8.92020100,8920201,0.0,-2.17,0.0,39.72,0.72,0.72,0.02,1.0,3
8.92283100,8922831,0.0,-2.17,0.0,39.72,0.72,0.72,0.02,1.0,3
8.92553800,8925538,0.0,-2.17,0.0,39.72,0.72,0.72,0.02,1.0,3
8.92785200,8927852,0.0,-2.17,0.0,39.71,0.72,0.72,0.02,1.0,3
8.93016300,8930163,0.0,-2.16,0.0,39.71,0.72,0.72,0.02,1.0,3
8.93282900,8932829,0.0,-2.16,0.0,39.71,0.72,0.72,0.02,1.0,3
8.95517000,8955170,0.0,-2.15,0.0,39.68,0.73,0.73,0.02,1.0,3
8.95785100,8957851,0.0,-2.15,0.0,39.67,0.73,0.73,0.02,1.0,3
8.96018000,8960180,0.0,-2.15,0.0,39.67,0.73,0.73,0.02,1.0,3
8.96309000,8963090,0.0,-2.15,0.0,39.67,0.73,0.73,0.02,1.0,3
8.96518300,8965183,0.0,-2.15,0.0,39.67,0.73,0.73,0.02,1.0,3
8.96805900,8968059,0.0,-2.15,0.0,39.660000000000004,0.73,0.73,0.02,1.0,3
8.99017800,8990178,0.0,-2.14,0.0,39.660000000000004,0.74,0.74,0.02,1.0,3
8.99288300,8992883,0.0,-2.14,0.0,39.660000000000004,0.74,0.74,0.02,1.0,3
8.99516900,8995169,0.0,-2.14,0.0,39.660000000000004,0.74,0.74,0.02,1.0,3
8.99783700,8997837,0.0,-2.13,0.0,39.660000000000004,0.74,0.74,0.02,1.0,3
9.00053800,9000538,0.0,-2.13,0.0,39.660000000000004,0.74,0.74,0.02,1.0,3
9.00281200,9002812,0.0,-2.13,0.0,39.65,0.74,0.74,0.02,1.0,3
9.02282100,9022821,0.0,-2.12,0.0,39.65,0.75,0.75,0.02,1.0,3
9.02553200,9025532,0.0,-2.12,0.0,39.64,0.75,0.75,0.02,1.0,3
9.02784400,9027844,0.0,-2.12,0.0,39.64,0.75,0.75,0.02,1.0,3
9.03019100,9030191,0.0,-2.12,0.0,39.64,0.75,0.75,0.02,1.0,3
9.03281900,9032819,0.0,-2.12,0.0,39.64,0.75,0.75,0.02,1.0,3
9.03628000,9036280,0.0,-2.12,0.0,39.64,0.75,0.75,0.02,1.0,3
9.05281000,9052810,0.0,-2.11,0.0,39.62,0.75,0.75,0.02,1.0,3
9.05516700,9055167,0.0,-2.11,0.0,39.62,0.75,0.75,0.02,1.0,3
9.05785000,9057850,0.0,-2.11,0.0,39.62,0.75,0.75,0.02,1.0,3
9.06050900,9060509,0.0,-2.11,0.0,39.61,0.75,0.75,0.02,1.0,3
9.06326500,9063265,0.0,-2.11,0.0,39.61,0.75,0.75,0.02,1.0,3
9.06519600,9065196,0.0,-2.11,0.0,39.61,0.76,0.76,0.02,1.0,3
9.08520600,9085206,0.0,-2.11,0.0,39.59,0.76,0.76,0.02,1.0,3
9.08839500,9088395,0.0,-2.1,0.0,39.59,0.76,0.76,0.02,1.0,3
9.09020400,9090204,0.0,-2.1,0.0,39.59,0.76,0.76,0.02,1.0,3
9.09282800,9092828,0.0,-2.1,0.0,39.58,0.76,0.76,0.02,1.0,3
9.09516300,9095163,0.0,-2.1,0.0,39.58,0.76,0.76,0.02,1.0,3
9.09783600,9097836,0.0,-2.1,0.0,39.58,0.76,0.76,0.02,1.0,3
9.13629000,9136290,0.0,-2.09,0.0,39.56,0.77,0.77,0.02,1.0,3
9.13810900,9138109,0.0,-2.09,0.0,39.550000000000004,0.77,0.77,0.02,1.0,3
9.14018900,9140189,0.0,-2.09,0.0,39.550000000000004,0.77,0.77,0.02,1.0,3
9.14283600,9142836,0.0,-2.09,0.0,39.550000000000004,0.77,0.77,0.02,1.0,3
9.14519300,9145193,0.0,-2.09,0.0,39.550000000000004,0.77,0.77,0.02,1.0,3
9.14791300,9147913,0.0,-2.08,0.0,39.550000000000004,0.77,0.77,0.02,1.0,3
9.17287500,9172875,0.0,-2.08,0.0,39.550000000000004,0.78,0.78,0.02,1.0,3
9.17552800,9175528,0.0,-2.08,0.0,39.550000000000004,0.78,0.78,0.02,1.0,3
9.17781800,9177818,0.0,-2.08,0.0,39.550000000000004,0.78,0.78,0.02,1.0,3
9.18019200,9180192,0.0,-2.08,0.0,39.54,0.78,0.78,0.02,1.0,3
9.18282500,9182825,0.0,-2.08,0.0,39.54,0.78,0.78,0.02,1.0,3
9.18518600,9185186,0.0,-2.07,0.0,39.54,0.78,0.78,0.02,1.0,3
9.20520400,9205204,0.0,-2.07,0.0,39.53,0.78,0.78,0.02,1.0,3
9.20787200,9207872,0.0,-2.07,0.0,39.53,0.78,0.78,0.02,1.0,3
9.21016500,9210165,0.0,-2.07,0.0,39.53,0.78,0.78,0.02,1.0,3
9.21370800,9213708,0.0,-2.07,0.0,39.53,0.78,0.78,0.02,1.0,3
9.21519100,9215191,0.0,-2.07,0.0,39.53,0.78,0.78,0.02,1.0,3
9.21786300,9217863,0.0,-2.07,0.0,39.52,0.78,0.78,0.02,1.0,3
9.23628200,9236282,0.0,-2.06,0.0,39.51,0.78,0.78,0.02,1.0,3
9.23838300,9238383,0.0,-2.06,0.0,39.51,0.79,0.79,0.02,1.0,3
9.24021000,9240210,0.0,-2.06,0.0,39.51,0.79,0.79,0.02,1.0,3
9.24282800,9242828,0.0,-2.06,0.0,39.51,0.79,0.79,0.02,1.0,3
9.24518300,9245183,0.0,-2.06,0.0,39.5,0.79,0.79,0.02,1.0,3
9.24787200,9247872,0.0,-2.06,0.0,39.5,0.79,0.79,0.02,1.0,3
9.27285100,9272851,0.0,-2.06,0.0,39.480000000000004,0.79,0.79,0.02,1.0,3
9.27560700,9275607,0.0,-2.06,0.0,39.480000000000004,0.79,0.79,0.01,1.0,3
9.27782500,9277825,0.0,-2.06,0.0,39.480000000000004,0.79,0.79,0.01,1.0,3
9.28017200,9280172,0.0,-2.06,0.0,39.480000000000004,0.79,0.79,0.01,1.0,3
9.28285500,9282855,0.0,-2.06,0.0,39.480000000000004,0.79,0.79,0.01,1.0,3
9.28517600,9285176,0.0,-2.06,0.0,39.480000000000004,0.79,0.79,0.01,1.0,3
9.42784500,9427845,0.0,-2.0300000000000002,0.0,39.43,0.81,0.81,0.01,1.0,3
9.43019600,9430196,0.0,-2.0300000000000002,0.0,39.43,0.81,0.81,0.01,1.0,3
9.43281900,9432819,0.0,-2.0300000000000002,0.0,39.43,0.81,0.81,0.01,1.0,3
9.43626100,9436261,0.0,-2.02,0.0,39.42,0.81,0.81,0.01,1.0,3
9.43809800,9438098,0.0,-2.02,0.0,39.42,0.81,0.81,0.01,1.0,3
9.44016900,9440169,0.0,-2.02,0.0,39.42,0.81,0.81,0.01,1.0,3
9.46050600,9460506,0.0,-2.02,0.0,39.43,0.81,0.81,0.01,1.0,3
9.46326000,9463260,0.0,-2.02,0.0,39.43,0.81,0.81,0.01,1.0,3
9.46520400,9465204,0.0,-2.02,0.0,39.43,0.81,0.81,0.01,1.0,3
9.46808700,9468087,0.0,-2.02,0.0,39.43,0.81,0.81,0.01,1.0,3
9.47021800,9470218,0.0,-2.02,0.0,39.43,0.81,0.81,0.01,1.0,3
9.47281600,9472816,0.0,-2.02,0.0,39.43,0.81,0.81,0.01,1.0,3
9.49282800,9492828,0.0,-2.02,0.0,39.43,0.81,0.81,0.01,1.0,3
9.49517100,9495171,0.0,-2.02,0.0,39.42,0.81,0.81,0.01,1.0,3
9.49785000,9497850,0.0,-2.02,0.0,39.42,0.81,0.81,0.01,1.0,3
9.50053900,9500539,0.0,-2.02,0.0,39.42,0.81,0.81,0.01,1.0,3
9.50282500,9502825,0.0,-2.02,0.0,39.42,0.81,0.81,0.01,1.0,3
9.50516700,9505167,0.0,-2.02,0.0,39.42,0.81,0.81,0.01,1.0,3
9.61018200,9610182,0.0,-2.0,0.0,39.39,0.8200000000000001,0.8200000000000001,0.01,1.0,3
9.61366700,9613667,0.0,-2.0,0.0,39.39,0.8200000000000001,0.8200000000000001,0.01,1.0,3
9.61520200,9615202,0.0,-2.0,0.0,39.39,0.8200000000000001,0.8200000000000001,0.01,1.0,3
9.61785000,9617850,0.0,-2.0,0.0,39.39,0.8200000000000001,0.8200000000000001,0.01,1.0,3
9.62018000,9620180,0.0,-2.0,0.0,39.39,0.8200000000000001,0.8200000000000001,0.01,1.0,3
9.62283700,9622837,0.0,-2.0,0.0,39.39,0.8200000000000001,0.8200000000000001,0.01,1.0,3
9.64018700,9640187,0.0,-2.0,0.0,39.38,0.8300000000000001,0.8300000000000001,0.01,1.0,3
9.64282400,9642824,0.0,-2.0,0.0,39.38,0.8300000000000001,0.8300000000000001,0.01,1.0,3
9.64518200,9645182,0.0,-2.0,0.0,39.38,0.8300000000000001,0.8300000000000001,0.01,1.0,3
9.64787600,9647876,0.0,-2.0,0.0,39.38,0.8300000000000001,0.8300000000000001,0.01,1.0,3
9.65053700,9650537,0.0,-2.0,0.0,39.38,0.8300000000000001,0.8300000000000001,0.01,1.0,3
9.65280300,9652803,0.0,-2.0,0.0,39.38,0.8300000000000001,0.8300000000000001,0.01,1.0,3
9.68287900,9682879,0.0,-1.99,0.0,39.37,0.8300000000000001,0.8300000000000001,0.01,1.0,3
9.68518600,9685186,0.0,-1.99,0.0,39.37,0.8300000000000001,0.8300000000000001,0.01,1.0,3
9.68842800,9688428,0.0,-1.99,0.0,39.37,0.8300000000000001,0.8300000000000001,0.01,1.0,3
9.69021500,9690215,0.0,-1.99,0.0,39.36,0.8300000000000001,0.8300000000000001,0.01,1.0,3
9.69286100,9692861,0.0,-1.99,0.0,39.36,0.8300000000000001,0.8300000000000001,0.01,1.0,3
9.69518300,9695183,0.0,-1.99,0.0,39.36,0.8300000000000001,0.8300000000000001,0.01,1.0,3
9.71366300,9713663,0.0,-1.99,0.0,39.36,0.8300000000000001,0.8300000000000001,0.01,1.0,3
9.71520400,9715204,0.0,-1.99,0.0,39.36,0.8300000000000001,0.8300000000000001,0.01,1.0,3
9.71786200,9717862,0.0,-1.99,0.0,39.36,0.8300000000000001,0.8300000000000001,0.01,1.0,3
9.72017200,9720172,0.0,-1.99,0.0,39.36,0.8300000000000001,0.8300000000000001,0.01,1.0,3
9.72284400,9722844,0.0,-1.99,0.0,39.36,0.8300000000000001,0.8300000000000001,0.01,1.0,3
9.72552000,9725520,0.0,-1.99,0.0,39.36,0.8300000000000001,0.8300000000000001,0.01,1.0,3
9.74282000,9742820,0.0,-1.99,0.0,39.35,0.8300000000000001,0.8300000000000001,0.01,1.0,3
9.74518900,9745189,0.0,-1.99,0.0,39.35,0.8300000000000001,0.8300000000000001,0.01,1.0,3
9.74786400,9747864,0.0,-1.99,0.0,39.35,0.8300000000000001,0.8300000000000001,0.01,1.0,3
9.75053600,9750536,0.0,-1.99,0.0,39.35,0.8300000000000001,0.8300000000000001,0.01,1.0,3
9.75279400,9752794,0.0,-1.99,0.0,39.35,0.8300000000000001,0.8300000000000001,0.01,1.0,3
9.75518000,9755180,0.0,-1.98,0.0,39.35,0.8300000000000001,0.8300000000000001,0.01,1.0,3
9.78283600,9782836,0.0,-1.98,0.0,39.35,0.8300000000000001,0.8300000000000001,0.01,1.0,3
9.78519400,9785194,0.0,-1.98,0.0,39.35,0.8300000000000001,0.8300000000000001,0.01,1.0,3
9.78812600,9788126,0.0,-1.98,0.0,39.35,0.84,0.84,0.01,1.0,3
9.79019800,9790198,0.0,-1.98,0.0,39.35,0.84,0.84,0.01,1.0,3
9.79283000,9792830,0.0,-1.98,0.0,39.35,0.84,0.84,0.01,1.0,3
9.79518700,9795187,0.0,-1.98,0.0,39.35,0.84,0.84,0.01,1.0,3
9.81017200,9810172,0.0,-1.98,0.0,39.35,0.84,0.84,0.01,1.0,3
9.81366500,9813665,0.0,-1.98,0.0,39.35,0.84,0.84,0.01,1.0,3
9.81518900,9815189,0.0,-1.98,0.0,39.35,0.84,0.84,0.01,1.0,3
9.81786800,9817868,0.0,-1.98,0.0,39.35,0.84,0.84,0.01,1.0,3
9.82016600,9820166,0.0,-1.98,0.0,39.35,0.8300000000000001,0.8300000000000001,0.01,1.0,3
9.82284900,9822849,0.0,-1.98,0.0,39.34,0.84,0.84,0.01,1.0,3
9.84019900,9840199,0.0,-1.98,0.0,39.33,0.84,0.84,0.01,1.0,3
9.84282800,9842828,0.0,-1.98,0.0,39.33,0.84,0.84,0.01,1.0,3
9.84518300,9845183,0.0,-1.98,0.0,39.33,0.84,0.84,0.01,1.0,3
9.84787600,9847876,0.0,-1.98,0.0,39.32,0.84,0.84,0.01,1.0,3
9.85052800,9850528,0.0,-1.98,0.0,39.32,0.84,0.84,0.01,1.0,3
9.85280600,9852806,0.0,-1.98,0.0,39.32,0.84,0.84,0.01,1.0,3
9.89782400,9897824,0.0,-1.98,0.0,39.33,0.84,0.84,0.01,1.0,3
9.90053500,9900535,0.0,-1.98,0.0,39.33,0.84,0.84,0.01,1.0,3
9.90279600,9902796,0.0,-1.98,0.0,39.33,0.84,0.84,0.01,1.0,3
9.90518800,9905188,0.0,-1.98,0.0,39.33,0.84,0.84,0.01,1.0,3
9.90786300,9907863,0.0,-1.98,0.0,39.33,0.84,0.84,0.01,1.0,3
9.91018900,9910189,0.0,-1.97,0.0,39.33,0.84,0.84,0.01,1.0,3
9.92785600,9927856,0.0,-1.97,0.0,39.32,0.84,0.84,0.01,1.0,3
9.93016000,9930160,0.0,-1.97,0.0,39.32,0.84,0.84,0.01,1.0,3
9.93283500,9932835,0.0,-1.97,0.0,39.32,0.84,0.84,0.01,1.0,3
9.93628300,9936283,0.0,-1.97,0.0,39.32,0.84,0.84,0.01,1.0,3
9.93812700,9938127,0.0,-1.97,0.0,39.32,0.84,0.84,0.01,1.0,3
9.94016700,9940167,0.0,-1.97,0.0,39.32,0.84,0.84,0.01,1.0,3
9.95783600,9957836,0.0,-1.97,0.0,39.31,0.85,0.85,0.01,1.0,3
9.96018300,9960183,0.0,-1.97,0.0,39.31,0.85,0.85,0.01,1.0,3
9.96310000,9963100,0.0,-1.97,0.0,39.31,0.84,0.84,0.01,1.0,3
9.96518600,9965186,0.0,-1.97,0.0,39.31,0.84,0.84,0.01,1.0,3
9.96800700,9968007,0.0,-1.97,0.0,39.31,0.84,0.84,0.01,1.0,3
9.97016400,9970164,0.0,-1.97,0.0,39.31,0.84,0.84,0.01,1.0,3
9.98839100,9988391,0.0,-1.97,0.0,39.300000000000004,0.84,0.84,0.01,1.0,3
9.99019100,9990191,0.0,-1.97,0.0,39.300000000000004,0.84,0.84,0.01,1.0,3
9.99284200,9992842,0.0,-1.97,0.0,39.300000000000004,0.84,0.84,0.01,1.0,3
9.99516200,9995162,0.0,-1.97,0.0,39.300000000000004,0.84,0.84,0.01,1.0,3
9.99785100,9997851,0.0,-1.97,0.0,39.300000000000004,0.85,0.85,0.01,1.0,3
10.00050700,10000507,0.0,-1.97,0.0,39.300000000000004,0.85,0.85,0.01,1.0,3
10.01784100,10017841,0.0,-1.96,0.0,39.29,0.85,0.85,0.01,1.0,3
10.02019000,10020190,0.0,-1.96,0.0,39.29,0.85,0.85,0.01,1.0,3
10.02282700,10022827,0.0,-1.96,0.0,39.29,0.85,0.85,0.01,1.0,3
10.02559400,10025594,0.0,-1.96,0.0,39.29,0.85,0.85,0.01,1.0,3
10.02785300,10027853,0.0,-1.96,0.0,39.29,0.85,0.85,0.01,1.0,3
10.03017600,10030176,0.0,-1.96,0.0,39.29,0.85,0.85,0.01,1.0,3
10.06312300,10063123,0.0,-1.96,0.0,39.29,0.85,0.85,0.01,1.0,3
10.06518500,10065185,0.0,-1.96,0.0,39.29,0.85,0.85,0.01,1.0,3
10.06805100,10068051,0.0,-1.96,0.0,39.29,0.85,0.85,0.01,1.0,3
10.07018900,10070189,0.0,-1.96,0.0,39.29,0.85,0.85,0.01,1.0,3
10.07286200,10072862,0.0,-1.96,0.0,39.29,0.85,0.85,0.01,1.0,3
10.07553800,10075538,0.0,-1.96,0.0,39.29,0.85,0.85,0.01,1.0,3
10.09284300,10092843,0.0,-1.96,0.0,39.29,0.85,0.85,0.0,1.0,3
10.09516600,10095166,0.0,-1.96,0.0,39.29,0.85,0.85,0.0,1.0,3
10.09785800,10097858,0.0,-1.96,0.0,39.29,0.85,0.85,0.0,1.0,3
10.10052100,10100521,0.0,-1.96,0.0,39.29,0.85,0.85,0.0,1.0,3
10.10282000,10102820,0.0,-1.96,0.0,39.29,0.85,0.85,0.0,1.0,3
10.10516700,10105167,0.0,-1.96,0.0,39.29,0.85,0.85,0.0,1.0,3
10.12284400,10122844,0.0,-1.96,0.0,39.28,0.85,0.85,0.0,1.0,3
10.12554000,10125540,0.0,-1.95,0.0,39.28,0.86,0.86,0.0,1.0,3
10.12785100,10127851,0.0,-1.95,0.0,39.28,0.86,0.86,0.0,1.0,3
10.13018300,10130183,0.0,-1.95,0.0,39.28,0.86,0.86,0.0,1.0,3
10.13283100,10132831,0.0,-1.95,0.0,39.28,0.86,0.86,0.0,1.0,3
10.13629200,10136292,0.0,-1.95,0.0,39.27,0.86,0.86,0.0,1.0,3
10.15053000,10150530,0.0,-1.95,0.0,39.26,0.86,0.86,0.0,1.0,3
10.15282300,10152823,0.0,-1.95,0.0,39.26,0.86,0.86,0.0,1.0,3
10.15516000,10155160,0.0,-1.95,0.0,39.26,0.86,0.86,0.0,1.0,3
10.15784900,10157849,0.0,-1.95,0.0,39.26,0.86,0.86,0.0,1.0,3
10.16016600,10160166,0.0,-1.95,0.0,39.26,0.86,0.86,0.0,1.0,3
10.16311900,10163119,0.0,-1.95,0.0,39.26,0.86,0.86,0.0,1.0,3
10.18285200,10182852,0.0,-1.95,0.0,39.27,0.86,0.86,0.0,1.0,3
10.18518800,10185188,0.0,-1.95,0.0,39.27,0.86,0.86,0.0,1.0,3
10.18816900,10188169,0.0,-1.95,0.0,39.27,0.86,0.86,0.0,1.0,3
10.19019000,10190190,0.0,-1.95,0.0,39.27,0.86,0.86,0.0,1.0,3
10.19286100,10192861,0.0,-1.95,0.0,39.27,0.86,0.86,0.0,1.0,3
10.19517600,10195176,0.0,-1.95,0.0,39.27,0.86,0.86,0.0,1.0,3
10.20788500,10207885,0.0,-1.95,0.0,39.27,0.86,0.86,0.0,1.0,3
10.21017500,10210175,0.0,-1.95,0.0,39.27,0.86,0.86,0.0,1.0,3
10.21367400,10213674,0.0,-1.95,0.0,39.27,0.86,0.86,0.0,1.0,3
10.21520300,10215203,0.0,-1.94,0.0,39.27,0.86,0.86,0.0,1.0,3
10.21785100,10217851,0.0,-1.94,0.0,39.27,0.86,0.86,0.0,1.0,3
10.22017600,10220176,0.0,-1.94,0.0,39.27,0.86,0.86,0.0,1.0,3
10.24018700,10240187,0.0,-1.94,0.0,39.26,0.86,0.86,0.0,1.0,3
10.24282900,10242829,0.0,-1.94,0.0,39.26,0.86,0.86,0.0,1.0,3
10.24518400,10245184,0.0,-1.94,0.0,39.26,0.86,0.86,0.0,1.0,3
10.24787500,10247875,0.0,-1.94,0.0,39.26,0.86,0.86,0.0,1.0,3
10.25054200,10250542,0.0,-1.94,0.0,39.26,0.86,0.86,0.0,1.0,3
10.25280700,10252807,0.0,-1.94,0.0,39.26,0.86,0.86,0.0,1.0,3
10.27016300,10270163,0.0,-1.94,0.0,39.25,0.86,0.86,0.0,1.0,3
10.27285000,10272850,0.0,-1.94,0.0,39.25,0.86,0.86,0.0,1.0,3
10.27552000,10275520,0.0,-1.94,0.0,39.25,0.86,0.86,0.0,1.0,3
10.27782100,10277821,0.0,-1.94,0.0,39.24,0.86,0.86,0.0,1.0,3
10.28017400,10280174,0.0,-1.94,0.0,39.24,0.86,0.86,0.0,1.0,3
10.28283600,10282836,0.0,-1.94,0.0,39.24,0.86,0.86,0.0,1.0,3
10.29783300,10297833,0.0,-1.94,0.0,39.24,0.87,0.87,0.0,1.0,3
10.30052500,10300525,0.0,-1.94,0.0,39.24,0.87,0.87,0.0,1.0,3
10.30280400,10302804,0.0,-1.94,0.0,39.24,0.87,0.87,0.0,1.0,3
10.30518500,10305185,0.0,-1.94,0.0,39.24,0.87,0.87,0.0,1.0,3
10.30788000,10307880,0.0,-1.94,0.0,39.24,0.87,0.87,0.0,1.0,3
10.31017800,10310178,0.0,-1.94,0.0,39.24,0.87,0.87,0.0,1.0,3
10.32786400,10327864,0.0,-1.94,0.0,39.24,0.87,0.87,0.0,1.0,3
10.33017900,10330179,0.0,-1.94,0.0,39.24,0.87,0.87,0.0,1.0,3
10.33283700,10332837,0.0,-1.94,0.0,39.24,0.87,0.87,0.0,1.0,3
10.33627100,10336271,0.0,-1.94,0.0,39.24,0.87,0.87,0.0,1.0,3
10.33810300,10338103,0.0,-1.94,0.0,39.24,0.87,0.87,0.0,1.0,3
10.34019700,10340197,0.0,-1.94,0.0,39.24,0.87,0.87,0.0,1.0,3
10.36021500,10360215,0.0,-1.93,0.0,39.24,0.87,0.87,0.0,1.0,3
10.36309200,10363092,0.0,-1.93,0.0,39.24,0.87,0.87,0.0,1.0,3
10.36517100,10365171,0.0,-1.93,0.0,39.24,0.87,0.87,0.0,1.0,3
10.36802300,10368023,0.0,-1.93,0.0,39.24,0.87,0.87,0.0,1.0,3
10.37017200,10370172,0.0,-1.93,0.0,39.24,0.87,0.87,0.0,1.0,3
10.37283900,10372839,0.0,-1.93,0.0,39.24,0.87,0.87,0.0,1.0,3
10.38816200,10388162,0.0,-1.93,0.0,39.230000000000004,0.87,0.87,0.0,1.0,3
10.39018000,10390180,0.0,-1.93,0.0,39.230000000000004,0.87,0.87,0.0,1.0,3
10.39282100,10392821,0.0,-1.93,0.0,39.230000000000004,0.87,0.87,0.0,1.0,3
10.39518300,10395183,0.0,-1.93,0.0,39.230000000000004,0.87,0.87,0.0,1.0,3
10.39786800,10397868,0.0,-1.93,0.0,39.230000000000004,0.87,0.87,0.0,1.0,3
10.40054200,10400542,0.0,-1.93,0.0,39.230000000000004,0.87,0.87,0.0,1.0,3
10.41789200,10417892,0.0,-1.93,0.0,39.22,0.87,0.87,0.0,1.0,3
10.42017700,10420177,0.0,-1.93,0.0,39.22,0.87,0.87,0.0,1.0,3
10.42288100,10422881,0.0,-1.93,0.0,39.22,0.87,0.87,0.0,1.0,3
10.42553700,10425537,0.0,-1.93,0.0,39.22,0.87,0.87,0.0,1.0,3
10.42790300,10427903,0.0,-1.93,0.0,39.21,0.87,0.87,0.0,1.0,3
10.43017000,10430170,0.0,-1.93,0.0,39.21,0.87,0.87,0.0,1.0,3
10.44519700,10445197,0.0,-1.93,0.0,39.2,0.87,0.87,0.0,1.0,3
10.44788800,10447888,0.0,-1.93,0.0,39.2,0.87,0.87,0.0,1.0,3
10.45052900,10450529,0.0,-1.93,0.0,39.2,0.87,0.87,0.0,1.0,3
10.45280300,10452803,0.0,-1.93,0.0,39.2,0.87,0.87,0.0,1.0,3
10.45519700,10455197,0.0,-1.93,0.0,39.2,0.87,0.87,0.0,1.0,3
10.45782800,10457828,0.0,-1.93,0.0,39.2,0.87,0.87,0.0,1.0,3
10.49018000,10490180,0.0,-1.92,0.0,39.2,0.88,0.88,0.0,1.0,3
10.49283800,10492838,0.0,-1.92,0.0,39.2,0.88,0.88,0.0,1.0,3
10.49517900,10495179,0.0,-1.92,0.0,39.2,0.88,0.88,0.0,1.0,3
10.49783600,10497836,0.0,-1.92,0.0,39.2,0.88,0.88,0.0,1.0,3
10.50052500,10500525,0.0,-1.92,0.0,39.2,0.88,0.88,0.0,1.0,3
10.50281300,10502813,0.0,-1.92,0.0,39.2,0.88,0.88,0.0,1.0,3
10.52021100,10520211,0.0,-1.92,0.0,39.21,0.87,0.87,0.0,1.0,3
10.52281900,10522819,0.0,-1.92,0.0,39.21,0.87,0.87,0.0,1.0,3
10.52559500,10525595,0.0,-1.92,0.0,39.21,0.87,0.87,0.0,1.0,3
10.52783700,10527837,0.0,-1.92,0.0,39.2,0.87,0.87,0.0,1.0,3
10.53017300,10530173,0.0,-1.92,0.0,39.2,0.87,0.87,0.0,1.0,3
10.53283600,10532836,0.0,-1.92,0.0,39.2,0.87,0.87,0.0,1.0,3
10.55316700,10553167,0.0,-1.92,0.0,39.19,0.88,0.88,0.0,1.0,3
10.55520400,10555204,0.0,-1.92,0.0,39.19,0.88,0.88,0.0,1.0,3
10.55783800,10557838,0.0,-1.92,0.0,39.19,0.88,0.88,0.0,1.0,3
10.56018300,10560183,0.0,-1.92,0.0,39.18,0.88,0.88,0.0,1.0,3
10.56308600,10563086,0.0,-1.92,0.0,39.18,0.88,0.88,0.0,1.0,3
10.56518300,10565183,0.0,-1.92,0.0,39.18,0.88,0.88,0.0,1.0,3
10.58017300,10580173,0.0,-1.92,0.0,39.17,0.88,0.88,0.0,1.0,3
10.58288400,10582884,0.0,-1.92,0.0,39.17,0.88,0.88,0.0,1.0,3
10.58517000,10585170,0.0,-1.92,0.0,39.17,0.88,0.88,0.0,1.0,3
10.58843300,10588433,0.0,-1.9100000000000001,0.0,39.17,0.88,0.88,0.0,1.0,3
10.59019600,10590196,0.0,-1.92,0.0,39.17,0.88,0.88,0.0,1.0,3
10.59288100,10592881,0.0,-1.92,0.0,39.17,0.88,0.88,0.0,1.0,3
10.60792900,10607929,0.0,-1.92,0.0,39.17,0.88,0.88,0.0,1.0,3
10.61018600,10610186,0.0,-1.92,0.0,39.17,0.88,0.88,0.0,1.0,3
10.61365000,10613650,0.0,-1.92,0.0,39.17,0.88,0.88,0.0,1.0,3
10.61522500,10615225,0.0,-1.9100000000000001,0.0,39.17,0.88,0.88,0.0,1.0,3
10.61784200,10617842,0.0,-1.9100000000000001,0.0,39.17,0.88,0.88,0.0,1.0,3
10.62019600,10620196,0.0,-1.9100000000000001,0.0,39.17,0.88,0.88,0.0,1.0,3
10.63644200,10636442,0.0,-1.9100000000000001,0.0,39.17,0.88,0.88,0.0,1.0,3
10.63811000,10638110,0.0,-1.9100000000000001,0.0,39.17,0.88,0.88,0.0,1.0,3
10.64017600,10640176,0.0,-1.9100000000000001,0.0,39.17,0.88,0.88,0.0,1.0,3
10.64284100,10642841,0.0,-1.9100000000000001,0.0,39.17,0.88,0.88,0.0,1.0,3
10.64517400,10645174,0.0,-1.9100000000000001,0.0,39.17,0.88,0.88,0.0,1.0,3
10.64788200,10647882,0.0,-1.9100000000000001,0.0,39.17,0.88,0.88,0.0,1.0,3
10.66801900,10668019,0.0,-1.9100000000000001,0.0,39.17,0.88,0.88,0.0,1.0,3
10.67019100,10670191,0.0,-1.9100000000000001,0.0,39.160000000000004,0.88,0.88,0.0,1.0,3
10.67281900,10672819,0.0,-1.9100000000000001,0.0,39.160000000000004,0.88,0.88,0.0,1.0,3
10.67560200,10675602,0.0,-1.9100000000000001,0.0,39.160000000000004,0.88,0.88,0.0,1.0,3
10.67780000,10677800,0.0,-1.9100000000000001,0.0,39.160000000000004,0.88,0.88,0.0,1.0,3
10.68019200,10680192,0.0,-1.9100000000000001,0.0,39.160000000000004,0.88,0.88,0.0,1.0,3
10.69810700,10698107,0.0,-1.9100000000000001,0.0,39.160000000000004,0.88,0.88,0.0,1.0,3
10.70067300,10700673,0.0,-1.9100000000000001,0.0,39.160000000000004,0.88,0.88,0.0,1.0,3
10.70282000,10702820,0.0,-1.9100000000000001,0.0,39.160000000000004,0.88,0.88,0.0,1.0,3
10.70516700,10705167,0.0,-1.9100000000000001,0.0,39.160000000000004,0.88,0.88,0.0,1.0,3
10.70789100,10707891,0.0,-1.9100000000000001,0.0,39.160000000000004,0.88,0.88,0.0,1.0,3
10.71018300,10710183,0.0,-1.9100000000000001,0.0,39.160000000000004,0.88,0.88,0.0,1.0,3
10.73019300,10730193,0.0,-1.9000000000000001,0.0,39.15,0.88,0.88,0.0,1.0,3
10.73283100,10732831,0.0,-1.9000000000000001,0.0,39.15,0.88,0.88,0.0,1.0,3
10.73623300,10736233,0.0,-1.9000000000000001,0.0,39.15,0.88,0.88,0.0,1.0,3
10.73837600,10738376,0.0,-1.9000000000000001,0.0,39.15,0.88,0.88,0.0,1.0,3
10.74019000,10740190,0.0,-1.9000000000000001,0.0,39.14,0.88,0.88,0.0,1.0,3
10.74284300,10742843,0.0,-1.9000000000000001,0.0,39.14,0.88,0.88,0.0,1.0,3
10.76016300,10760163,0.0,-1.9000000000000001,0.0,39.13,0.89,0.89,0.0,1.0,3
10.76314000,10763140,0.0,-1.9000000000000001,0.0,39.13,0.89,0.89,0.0,1.0,3
10.76517800,10765178,0.0,-1.9000000000000001,0.0,39.13,0.89,0.89,0.0,1.0,3
10.76807700,10768077,0.0,-1.9000000000000001,0.0,39.13,0.89,0.89,0.0,1.0,3
10.77021800,10770218,0.0,-1.9000000000000001,0.0,39.13,0.89,0.89,0.0,1.0,3
10.77289600,10772896,0.0,-1.9000000000000001,0.0,39.13,0.89,0.89,0.0,1.0,3
10.78812600,10788126,0.0,-1.9000000000000001,0.0,39.14,0.89,0.89,0.0,1.0,3
10.79017000,10790170,0.0,-1.9000000000000001,0.0,39.14,0.89,0.89,0.0,1.0,3
10.79289200,10792892,0.0,-1.9000000000000001,0.0,39.14,0.89,0.89,0.0,1.0,3
10.79517600,10795176,0.0,-1.9000000000000001,0.0,39.14,0.89,0.89,0.0,1.0,3
10.79784100,10797841,0.0,-1.9000000000000001,0.0,39.14,0.89,0.89,0.0,1.0,3
10.80059600,10800596,0.0,-1.9000000000000001,0.0,39.14,0.89,0.89,0.0,1.0,3
10.81794500,10817945,0.0,-1.9000000000000001,0.0,39.14,0.89,0.89,0.0,1.0,3
10.82019200,10820192,0.0,-1.9000000000000001,0.0,39.14,0.89,0.89,0.0,1.0,3
10.82282500,10822825,0.0,-1.9000000000000001,0.0,39.14,0.89,0.89,0.0,1.0,3
10.82552900,10825529,0.0,-1.9000000000000001,0.0,39.14,0.89,0.89,0.0,1.0,3
10.82784100,10827841,0.0,-1.9000000000000001,0.0,39.14,0.89,0.89,0.0,1.0,3
10.83018700,10830187,0.0,-1.9000000000000001,0.0,39.14,0.89,0.89,0.0,1.0,3
10.85282200,10852822,0.0,-1.9000000000000001,0.0,39.12,0.89,0.89,0.0,1.0,3
10.85516200,10855162,0.0,-1.9000000000000001,0.0,39.12,0.89,0.89,0.0,1.0,3
10.85785200,10857852,0.0,-1.9000000000000001,0.0,39.12,0.89,0.89,0.0,1.0,3
10.86016600,10860166,0.0,-1.9000000000000001,0.0,39.12,0.89,0.89,0.0,1.0,3
10.86309100,10863091,0.0,-1.9000000000000001,0.0,39.12,0.89,0.89,0.0,1.0,3
10.86516400,10865164,0.0,-1.9000000000000001,0.0,39.11,0.89,0.89,0.0,1.0,3
10.89784100,10897841,0.0,-1.9000000000000001,0.0,39.11,0.89,0.89,0.0,1.0,3
10.90053200,10900532,0.0,-1.9000000000000001,0.0,39.11,0.89,0.89,0.0,1.0,3
10.90282500,10902825,0.0,-1.9000000000000001,0.0,39.11,0.89,0.89,0.0,1.0,3
10.90516300,10905163,0.0,-1.9000000000000001,0.0,39.11,0.89,0.89,0.0,1.0,3
10.90789900,10907899,0.0,-1.9000000000000001,0.0,39.11,0.89,0.89,0.0,1.0,3
10.91016300,10910163,0.0,-1.8900000000000001,0.0,39.11,0.89,0.89,0.0,1.0,3
10.93019900,10930199,0.0,-1.8900000000000001,0.0,39.12,0.89,0.89,0.0,1.0,3
10.93288000,10932880,0.0,-1.8900000000000001,0.0,39.12,0.89,0.89,0.0,1.0,3
10.93641900,10936419,0.0,-1.8900000000000001,0.0,39.12,0.89,0.89,0.0,1.0,3
10.93815200,10938152,0.0,-1.8900000000000001,0.0,39.12,0.89,0.89,0.0,1.0,3
10.94019200,10940192,0.0,-1.8900000000000001,0.0,39.12,0.89,0.89,0.0,1.0,3
10.94287500,10942875,0.0,-1.8900000000000001,0.0,39.12,0.89,0.89,0.0,1.0,3
10.95789200,10957892,0.0,-1.8900000000000001,0.0,39.11,0.89,0.89,0.0,1.0,3
10.96017600,10960176,0.0,-1.8900000000000001,0.0,39.11,0.89,0.89,0.0,1.0,3
10.96313300,10963133,0.0,-1.8900000000000001,0.0,39.11,0.9,0.9,0.0,1.0,3
10.96517300,10965173,0.0,-1.8900000000000001,0.0,39.11,0.9,0.9,0.0,1.0,3
10.96801500,10968015,0.0,-1.8900000000000001,0.0,39.11,0.9,0.9,0.0,1.0,3
10.97018600,10970186,0.0,-1.8900000000000001,0.0,39.11,0.9,0.9,0.0,1.0,3
10.98812000,10988120,0.0,-1.8900000000000001,0.0,39.1,0.9,0.9,0.0,1.0,3
10.99018000,10990180,0.0,-1.8900000000000001,0.0,39.1,0.9,0.9,0.0,1.0,3
10.99282700,10992827,0.0,-1.8900000000000001,0.0,39.1,0.9,0.9,0.0,1.0,3
10.99516100,10995161,0.0,-1.8900000000000001,0.0,39.1,0.9,0.9,0.0,1.0,3
10.99783200,10997832,0.0,-1.8900000000000001,0.0,39.1,0.9,0.9,0.0,1.0,3
11.00052700,11000527,0.0,-1.8900000000000001,0.0,39.09,0.9,0.9,0.0,1.0,3
11.01786300,11017863,0.0,-1.8900000000000001,0.0,39.09,0.9,0.9,0.0,1.0,3
11.02016000,11020160,0.0,-1.8900000000000001,0.0,39.09,0.9,0.9,0.0,1.0,3
11.02284600,11022846,0.0,-1.8900000000000001,0.0,39.09,0.9,0.9,0.0,1.0,3
11.02554600,11025546,0.0,-1.8900000000000001,0.0,39.09,0.9,0.9,0.0,1.0,3
11.02785600,11027856,0.0,-1.8900000000000001,0.0,39.09,0.9,0.9,0.0,1.0,3
11.03018000,11030180,0.0,-1.8900000000000001,0.0,39.09,0.9,0.9,0.0,1.0,3
11.04787500,11047875,0.0,-1.8900000000000001,0.0,39.08,0.89,0.89,0.0,1.0,3
11.05052800,11050528,0.0,-1.8900000000000001,0.0,39.08,0.89,0.89,0.0,1.0,3
11.05282000,11052820,0.0,-1.8900000000000001,0.0,39.08,0.89,0.89,0.0,1.0,3
11.05516600,11055166,0.0,-1.8900000000000001,0.0,39.08,0.89,0.89,0.0,1.0,3
11.05784900,11057849,0.0,-1.8900000000000001,0.0,39.08,0.89,0.89,0.0,1.0,3
11.06051600,11060516,0.0,-1.8900000000000001,0.0,39.08,0.89,0.89,0.0,1.0,3
11.07552800,11075528,0.0,-1.8900000000000001,0.0,39.08,0.9,0.9,0.0,1.0,3
11.07779800,11077798,0.0,-1.8900000000000001,0.0,39.08,0.9,0.9,0.0,1.0,3
11.08019300,11080193,0.0,-1.8900000000000001,0.0,39.09,0.9,0.9,0.0,1.0,3
