timestamp,TimeUS,I,GyrX,GyrY,GyrZ,AccX,AccY,AccZ,EG,EA,T,GH,AH,GHz,AHz
5.26953700,5269537,0,0.0008849099976941943,0.0003023596073035151,0.0014482735423371196,6.168892860412598,0.26283833384513855,-7.594194412231445,0,0,35.330474853515625,1,1,8000,1000
5.44201600,5442016,0,0.0011699018068611622,0.0018851864151656628,0.00015252313460223377,6.187000751495361,0.2507624626159668,-7.5632524490356445,0,0,35.37019348144531,1,1,8000,1000
5.44451300,5444513,0,0.0011873181210830808,0.0016430391697213054,-0.00020164735906291753,6.190778732299805,0.25484728813171387,-7.561063289642334,0,0,35.37078094482422,1,1,8000,1000
5.44698200,5446982,0,0.0011558723635971546,0.0015774888452142477,-0.0001934203610289842,6.191969871520996,0.25764286518096924,-7.560112953186035,0,0,35.37115478515625,1,1,8000,1000
5.47697800,5476978,0,0.00012005187454633415,0.000497333356179297,-0.00041744104237295687,6.191535949707031,0.25740846991539,-7.584344387054443,0,0,35.376441955566406,1,1,8000,1000
5.47952100,5479521,0,0.0003509464440867305,0.00035678211133927107,-0.00015820948465261608,6.1935906410217285,0.25638455152511597,-7.587532997131348,0,0,35.3769645690918,1,1,8000,1000
5.48201500,5482015,0,0.0004082320665474981,0.0003490499220788479,0.00010557407949818298,6.194299221038818,0.2543463110923767,-7.5903778076171875,0,0,35.377315521240234,1,1,8000,1000
5.48451400,5484514,0,0.00034581642830744386,0.00033166102366521955,0.0004685501626227051,6.194094181060791,0.2520178258419037,-7.591901779174805,0,0,35.37783432006836,1,1,8000,1000
5.51199800,5511998,0,0.001073396415449679,0.0020460837986320257,0.00018228846602141857,6.201666831970215,0.24642086029052734,-7.564125061035156,0,0,35.3828125,1,1,8000,1000
5.51450800,5514508,0,0.0009410089696757495,0.0015323262196034193,0.0006356397061608732,6.196878910064697,0.24738703668117523,-7.563695430755615,0,0,35.383365631103516,1,1,8000,1000
5.51697600,5516976,0,0.0008869032026268542,0.001118235755711794,0.0008330590790137649,6.191603660583496,0.24813421070575714,-7.5634613037109375,0,0,35.38372802734375,1,1,8000,1000
5.51950600,5519506,0,0.0008663923945277929,0.00019141305529046804,0.00086774374358356,6.185642242431641,0.2487037628889084,-7.560124397277832,0,0,35.384281158447266,1,1,8000,1000
5.54449100,5544491,0,-0.001592751475982368,-0.005579528398811817,0.0007009601686149836,6.192193031311035,0.2596159875392914,-7.565196990966797,0,0,35.388858795166016,1,1,8000,1000
5.54699200,5546992,0,-0.0016751819057390094,-0.005504819098860025,0.0005547302425839007,6.18894100189209,0.25740694999694824,-7.568997859954834,0,0,35.38923263549805,1,1,8000,1000
5.54952900,5549529,0,-0.001496615819633007,-0.005127862095832825,6.850284989923239e-05,6.1864728927612305,0.2558533251285553,-7.57765531539917,0,0,35.389808654785156,1,1,8000,1000
5.55199800,5551998,0,-0.0012439851416274905,-0.004777178633958101,-0.0003667991841211915,6.184665679931641,0.25675076246261597,-7.584216117858887,0,0,35.39019775390625,1,1,8000,1000
5.57697200,5576972,0,0.00027434181538410485,0.0027602280024439096,-0.0005190611118450761,6.1964898109436035,0.2576545476913452,-7.569994926452637,0,0,35.39557647705078,1,1,8000,1000
5.57951200,5579512,0,0.0005439621745608747,0.003563375910744071,-0.00018491505761630833,6.192741394042969,0.2575989365577698,-7.569703102111816,0,0,35.39616394042969,1,1,8000,1000
5.58200200,5582002,0,0.0007980583468452096,0.003844870487228036,5.56232625967823e-05,6.188054084777832,0.25868839025497437,-7.569114685058594,0,0,35.39655303955078,1,1,8000,1000
5.58451600,5584516,0,0.000978904659859836,0.004029765259474516,0.0003081322065554559,6.1819610595703125,0.26124483346939087,-7.5685014724731445,0,0,35.39713668823242,1,1,8000,1000
5.60953700,5609537,0,0.001305741025134921,0.003780365688726306,0.002287839539349079,6.174574375152588,0.2434486448764801,-7.6014323234558105,0,0,35.40205764770508,1,1,8000,1000
5.61198900,5611989,0,0.0013162047835066915,0.0036306160036474466,0.0020358716137707233,6.176174640655518,0.24311049282550812,-7.601526737213135,0,0,35.402442932128906,1,1,8000,1000
5.61449900,5614499,0,0.0014330919366329908,0.0033909871708601713,0.0013358381111174822,6.178149700164795,0.2453911453485489,-7.5997796058654785,0,0,35.403011322021484,1,1,8000,1000
5.61699100,5616991,0,0.0014463282423093915,0.003206930821761489,0.0008682162151671946,6.17894172668457,0.2475108951330185,-7.600213527679443,0,0,35.40338134765625,1,1,8000,1000
5.64203100,5642031,0,8.486553997499868e-05,0.0007965536788105965,-0.00038498599315062165,6.195003986358643,0.2460576593875885,-7.575065612792969,0,0,35.40790557861328,1,1,8000,1000
5.64450700,5644507,0,9.44288622122258e-05,0.00028163340175524354,-0.0005538988043554127,6.193794250488281,0.2480572909116745,-7.580760955810547,0,0,35.408409118652344,1,1,8000,1000
5.64698900,5646989,0,-1.5004865417722613e-05,-6.221483636181802e-05,-0.0004975225892849267,6.192473888397217,0.24844643473625183,-7.586390972137451,0,0,35.40874481201172,1,1,8000,1000
5.64953400,5649534,0,-0.00018598540918901563,-0.0005274091963656247,-0.00033404043642804027,6.191513538360596,0.25004151463508606,-7.595520496368408,0,0,35.409244537353516,1,1,8000,1000
5.65199000,5651990,0,-0.00034720668918453157,-0.0007692346698604524,-0.00022708838514517993,6.191120147705078,0.2526906132698059,-7.596597671508789,0,0,35.409584045410156,1,1,8000,1000
5.67697600,5676976,0,0.0005186061025597155,-0.0028753343503922224,-0.0007384174386970699,6.18463134765625,0.2661352753639221,-7.580940246582031,0,0,35.413917541503906,1,1,8000,1000
5.67950500,5679505,0,0.0006014247192069888,-0.003356454661116004,-0.0006796015077270567,6.185828685760498,0.269074022769928,-7.583652496337891,0,0,35.414424896240234,1,1,8000,1000
5.68201800,5682018,0,0.0006409831694327295,-0.0036049322225153446,-0.0004418221942614764,6.186048984527588,0.2706049978733063,-7.584371089935303,0,0,35.414756774902344,1,1,8000,1000
5.68450600,5684506,0,0.0005489413742907345,-0.0038806248921900988,-0.00015595991862937808,6.18503999710083,0.27146467566490173,-7.58078145980835,0,0,35.415252685546875,1,1,8000,1000
5.68697200,5686972,0,0.0003691285673994571,-0.004043255001306534,9.74962858890649e-06,6.183750629425049,0.27004697918891907,-7.578408241271973,0,0,35.41557312011719,1,1,8000,1000
5.75450300,5754503,0,2.5639152227086015e-05,0.003032117150723934,0.0012095796409994364,6.190471172332764,0.2637172341346741,-7.574969291687012,0,0,35.425907135009766,1,1,7998,999
5.75697900,5756979,0,1.3058966032986064e-05,0.0025617049541324377,0.0015579845057800412,6.190408706665039,0.263665109872818,-7.575665473937988,0,0,35.42618179321289,1,1,7998,999
5.75949700,5759497,0,0.0002550198114477098,0.0018053004750981927,0.0020452830940485,6.189476013183594,0.26322469115257263,-7.577246189117432,0,0,35.426605224609375,1,1,7998,999
5.76202000,5762020,0,0.0002726374950725585,0.0013587475987151265,0.002248164964839816,6.1883745193481445,0.26151078939437866,-7.580059051513672,0,0,35.42689514160156,1,1,7998,999
5.76449500,5764495,0,1.7854605175671168e-05,0.0008845176780596375,0.002318228594958782,6.186270713806152,0.25753769278526306,-7.582015514373779,0,0,35.42733383178711,1,1,7998,999
5.76804500,5768045,0,-0.00012730630987789482,0.0006431135116145015,0.0023221683222800493,6.185053825378418,0.2565622925758362,-7.582309722900391,0,0,35.42761993408203,1,1,7998,999
5.76990200,5769902,0,-0.00015451625222340226,0.0005393949686549604,0.0022564539685845375,6.182713508605957,0.2573855221271515,-7.58366584777832,0,0,35.42803955078125,1,1,7998,999
5.79451100,5794511,0,0.0008344681700691581,0.0037909429520368576,-0.0010334260296076536,6.183924198150635,0.24677704274654388,-7.577382564544678,0,0,35.43147659301758,1,1,7998,999
5.79697800,5796978,0,0.0006871108198538423,0.0034769887570291758,-0.0010857165325433016,6.181675910949707,0.24626699090003967,-7.5763139724731445,0,0,35.43172836303711,1,1,7998,999
5.79949900,5799499,0,0.0004402525373734534,0.002769672544673085,-0.001090438337996602,6.181070327758789,0.24405339360237122,-7.576898574829102,0,0,35.432106018066406,1,1,7998,999
5.80202900,5802029,0,0.0004591552715282887,0.0021137387957423925,-0.0009950607782229781,6.181615829467773,0.24323733150959015,-7.579187393188477,0,0,35.43235778808594,1,1,7998,999
5.80448800,5804488,0,0.0006384587613865733,0.0010199585231021047,-0.0006313190679065883,6.180325508117676,0.24163228273391724,-7.584029197692871,0,0,35.43273162841797,1,1,7998,999
5.80698900,5806989,0,0.0006146104424260557,0.00023371422139462084,-0.0003648504498414695,6.1809186935424805,0.24049514532089233,-7.587841510772705,0,0,35.432979583740234,1,1,7998,999
5.80951800,5809518,0,0.0002481474366504699,-0.0010117827914655209,0.0001597569789737463,6.182949542999268,0.24178756773471832,-7.590303897857666,0,0,35.43336868286133,1,1,7998,999
5.81199200,5811992,0,-0.00018371461192145944,-0.0017260395688936114,0.00048232878907583654,6.185030937194824,0.24329420924186707,-7.590217590332031,0,0,35.433631896972656,1,1,7998,999
5.82957000,5829570,0,-0.002154950052499771,-0.0051552909426391125,-0.00014069047756493092,6.19936466217041,0.25637882947921753,-7.586246967315674,0,0,35.43587875366211,1,1,7998,999
5.83197800,5831978,0,-0.00213595200330019,-0.005082649178802967,-0.00037607140257023275,6.1985578536987305,0.25716039538383484,-7.584351539611816,0,0,35.436126708984375,1,1,7998,999
5.83450700,5834507,0,-0.0019506362732499838,-0.004879648797214031,-0.0004969017463736236,6.1962456703186035,0.2588745951652527,-7.5798020362854,0,0,35.43648910522461,1,1,7998,999
5.83697400,5836974,0,-0.0017053009942173958,-0.00468255952000618,-0.000535215251147747,6.195505142211914,0.2608826756477356,-7.576130390167236,0,0,35.43672561645508,1,1,7998,999
5.83950400,5839504,0,-0.0012380453990772367,-0.004202139098197222,-0.0005771000869572163,6.195587635040283,0.2642943859100342,-7.5733962059021,0,0,35.43708419799805,1,1,7998,999
5.84202100,5842021,0,-0.0009679718059487641,-0.0038416751194745302,-0.0005671018152497709,6.196752071380615,0.2659338116645813,-7.57292366027832,0,0,35.43732452392578,1,1,7998,999
5.84449900,5844499,0,-0.0005153687670826912,-0.0033581331372261047,-0.0003090200771111995,6.198155403137207,0.2645699083805084,-7.571088790893555,0,0,35.43769073486328,1,1,7998,999
5.84698500,5846985,0,-0.0001528831635368988,-0.0031522633507847786,-0.00013779436994809657,6.197920322418213,0.2629297375679016,-7.572134971618652,0,0,35.43794250488281,1,1,7998,999
5.84955000,5849550,0,0.0003216309705749154,-0.0028615582268685102,6.872805533930659e-05,6.196005821228027,0.2608024477958679,-7.5741167068481445,0,0,35.43832778930664,1,1,7998,999
5.87200200,5872002,0,3.489943264867179e-05,-0.0006863573216833174,0.002016285201534629,6.169013023376465,0.2361375391483307,-7.57466983795166,0,0,35.44105911254883,1,1,7998,999
5.87451900,5874519,0,0.0003714277409017086,6.784478614463296e-07,0.0017991993809118867,6.165164947509766,0.23680877685546875,-7.571308135986328,0,0,35.441429138183594,1,1,7998,999
5.87693200,5876932,0,0.0007964405813254416,0.00048655361752025783,0.0017028299625962973,6.164651870727539,0.23758117854595184,-7.565530776977539,0,0,35.44167709350586,1,1,7998,999
5.87951800,5879518,0,0.0013656096998602152,0.001415349543094635,0.0016134235775098205,6.169185161590576,0.2403484433889389,-7.559659957885742,0,0,35.44206619262695,1,1,7998,999
5.88200400,5882004,0,0.0014823487726971507,0.002114665461704135,0.001511473674327135,6.174541473388672,0.24339446425437927,-7.56186580657959,0,0,35.44232177734375,1,1,7998,999
5.88452000,5884520,0,0.001470923307351768,0.003169555915519595,0.0012350204633548856,6.184236526489258,0.24720382690429688,-7.571001052856445,0,0,35.44269943237305,1,1,7998,999
5.88697700,5886977,0,0.0013555461773648858,0.0037316835951060057,0.0009235118632204831,6.190319538116455,0.24751757085323334,-7.577461242675781,0,0,35.44296646118164,1,1,7998,999
5.88955500,5889555,0,0.0012279313523322344,0.004481838084757328,0.00022147269919514656,6.197820663452148,0.2466581165790558,-7.584035873413086,0,0,35.44337463378906,1,1,7998,999
5.89197800,5891978,0,0.001245266990736127,0.004940311890095472,-0.00017271081742364913,6.200856685638428,0.24666696786880493,-7.588387489318848,0,0,35.44365310668945,1,1,7998,999
5.89451700,5894517,0,0.0012941613094881177,0.0052825757302343845,-0.000616134493611753,6.201143741607666,0.24810804426670074,-7.594931602478027,0,0,35.4440803527832,1,1,7998,999
5.89696500,5896965,0,0.0012774324277415872,0.0053533148020505905,-0.0009225751273334026,6.200461387634277,0.24833451211452484,-7.596402168273926,0,0,35.444374084472656,1,1,7998,999
5.91196400,5911964,0,0.001109767472371459,0.0049485815688967705,-0.0016074668383225799,6.189651012420654,0.255859375,-7.568240165710449,0,0,35.44647979736328,1,1,7998,999
5.91450000,5914500,0,0.0007018831674940884,0.004522505681961775,-0.0013564062537625432,6.189340114593506,0.2581522762775421,-7.563207626342773,0,0,35.44690704345703,1,1,7998,999
5.91699200,5916992,0,0.0005049581523053348,0.004146879073232412,-0.0011517130769789219,6.189167499542236,0.2596089243888855,-7.56541633605957,0,0,35.447200775146484,1,1,7998,999
5.91950100,5919501,0,0.0004380799946375191,0.0034713696222752333,-0.0009472023230046034,6.187390327453613,0.26205894351005554,-7.572977542877197,0,0,35.44764709472656,1,1,7998,999
5.92216200,5922162,0,0.00040279675158672035,0.0031311907805502415,-0.0008537287940271199,6.186200141906738,0.26339441537857056,-7.578131675720215,0,0,35.44794845581055,1,1,7998,999
5.92450900,5924509,0,0.00025990698486566544,0.0027998248115181923,-0.0007646045414730906,6.185219764709473,0.2650121748447418,-7.581297874450684,0,0,35.448402404785156,1,1,7998,999
5.92697300,5926973,0,9.299250814365223e-05,0.0025459821335971355,-0.0006684656254947186,6.184141159057617,0.2665042281150818,-7.582457065582275,0,0,35.44870376586914,1,1,7998,999
5.92955200,5929552,0,-0.00014589770580641925,0.0023055607452988625,-0.0006207218975760043,6.1832709312438965,0.26472824811935425,-7.584980487823486,0,0,35.44916915893555,1,1,7998,999
5.93197600,5931976,0,-0.0002307020768057555,0.002089726971462369,-0.0007542294915765524,6.18355131149292,0.2623196244239807,-7.58796501159668,0,0,35.449623107910156,1,1,7998,999
5.93451200,5934512,0,-0.00029052546597085893,0.001785180764272809,-0.0010902059730142355,6.184642791748047,0.2592158615589142,-7.591292858123779,0,0,35.45008087158203,1,1,7998,999
5.93697700,5936977,0,-0.0002266939845867455,0.0016783138271421194,-0.0013904579682275653,6.18567419052124,0.25825172662734985,-7.588653087615967,0,0,35.45038986206055,1,1,7998,999
5.95446700,5954467,0,0.0005005810526199639,-0.002439438831061125,-0.0002479342801962048,6.180664539337158,0.25691667199134827,-7.57420539855957,0,0,35.45319747924805,1,1,7998,999
5.95699200,5956992,0,0.0007386336801573634,-0.003060804447159171,9.549395326757804e-05,6.180637836456299,0.2564507722854614,-7.5764689445495605,0,0,35.4535026550293,1,1,7998,999
5.95948700,5959487,0,0.0008859451045282185,-0.003965334035456181,0.0007691272185184062,6.1834492683410645,0.2545534670352936,-7.578122138977051,0,0,35.45395278930664,1,1,7998,999
5.96203500,5962035,0,0.0008396724588237703,-0.0046796491369605064,0.0011903538834303617,6.187139511108398,0.2525063455104828,-7.579365253448486,0,0,35.45425796508789,1,1,7998,999
5.96447200,5964472,0,0.0007172244368121028,-0.005902188830077648,0.0016785424668341875,6.1921844482421875,0.25214889645576477,-7.580886363983154,0,0,35.45470428466797,1,1,7998,999
5.96810800,5968108,0,0.0005942469579167664,-0.0067254905588924885,0.0018871601205319166,6.194221019744873,0.25362640619277954,-7.580349445343018,0,0,35.45500946044922,1,1,7998,999
5.97023400,5970234,0,0.00019898712344001979,-0.007730078883469105,0.0021821786649525166,6.192135334014893,0.2590634226799011,-7.576502323150635,0,0,35.45561218261719,1,1,7998,999
5.97293700,5972937,0,-3.573136200429872e-05,-0.007991963066160679,0.002282069530338049,6.189045429229736,0.25957730412483215,-7.576180934906006,0,0,35.45591354370117,1,1,7998,999
5.97523500,5975235,0,-0.00023831364524085075,-0.007918022572994232,0.0024570098612457514,6.186737060546875,0.2589011788368225,-7.575622081756592,0,0,35.45637130737305,1,1,7998,999
5.97788500,5977885,0,-0.0002368979767197743,-0.00755396019667387,0.0024848293978720903,6.18624210357666,0.2597072720527649,-7.572760105133057,0,0,35.4566764831543,1,1,7998,999
5.98023900,5980239,0,-0.00011600686411838979,-0.006593354977667332,0.0021722163073718548,6.184149265289307,0.25958192348480225,-7.568267345428467,0,0,35.45712661743164,1,1,7998,999
6.00522300,6005223,0,0.00048235151916742325,0.0028258487582206726,-0.0029028814751654863,6.176983833312988,0.261203408241272,-7.587426662445068,0,0,35.46104049682617,1,1,7998,999
6.00789000,6007890,0,0.0005782517255283892,0.003002159297466278,-0.0026945960707962513,6.177190780639648,0.2598154544830322,-7.586766719818115,0,0,35.46135711669922,1,1,7998,999
6.01022300,6010223,0,0.0007412738050334156,0.003043204313144088,-0.002345267217606306,6.177881717681885,0.256069153547287,-7.585330009460449,0,0,35.46182632446289,1,1,7998,999
6.01290200,6012902,0,0.0007316436967812479,0.002988827181980014,-0.0020117750391364098,6.178439617156982,0.2539199888706207,-7.586416721343994,0,0,35.46214294433594,1,1,7998,999
6.01522300,6015223,0,0.0005033849156461656,0.002769855549558997,-0.0014354279264807701,6.178380489349365,0.2520778179168701,-7.585988521575928,0,0,35.462623596191406,1,1,7998,999
6.01789500,6017895,0,0.00027811271138489246,0.0024972257670015097,-0.0009697754285298288,6.178079605102539,0.252185195684433,-7.584352970123291,0,0,35.46294403076172,1,1,7998,999
6.02022200,6020222,0,-4.7376826842082664e-05,0.0019461580086499453,-0.00015837383398320526,6.177414894104004,0.2551405131816864,-7.58022928237915,0,0,35.46342468261719,1,1,7998,999
6.02308300,6023083,0,-0.00014340657799039036,0.0015464442549273372,0.0002934568328782916,6.177234172821045,0.2578793466091156,-7.57741641998291,0,0,35.46375274658203,1,1,7998,999
6.02524100,6025241,0,-0.00013858493184670806,0.0008879707311280072,0.0008549423655495048,6.176931381225586,0.2607772946357727,-7.5761213302612305,0,0,35.464256286621094,1,1,7998,999
6.02788100,6027881,0,-0.0001884138910099864,0.0004785798955708742,0.0011639110743999481,6.175629615783691,0.26092299818992615,-7.574357032775879,0,0,35.46459197998047,1,1,7998,999
6.03025500,6030255,0,-0.00017721432959660888,-0.0002701214689295739,0.0016304217278957367,6.174492835998535,0.2603195011615753,-7.569525241851807,0,0,35.465087890625,1,1,7998,999
6.05521400,6055214,0,0.0009685928816907108,0.0028481357730925083,-0.0008365540998056531,6.198213577270508,0.26030540466308594,-7.57762336730957,0,0,35.46917724609375,1,1,7998,999
6.05790800,6057908,0,0.0010151268215849996,0.0033720226492732763,-0.0010500424541532993,6.198520183563232,0.25974932312965393,-7.575579643249512,0,0,35.46949768066406,1,1,7998,999
6.06024000,6060240,0,0.0009674838511273265,0.0041098264046013355,-0.001091814017854631,6.19630241394043,0.2589360177516937,-7.576457977294922,0,0,35.46998596191406,1,1,7998,999
6.06294600,6062946,0,0.0009086629725061357,0.004547363147139549,-0.0010325659532099962,6.193952560424805,0.2567409873008728,-7.579590320587158,0,0,35.470314025878906,1,1,7998,999
6.06523900,6065239,0,0.0008159360149875283,0.005113398656249046,-0.0008333364385180175,6.190856456756592,0.25513067841529846,-7.586677074432373,0,0,35.470802307128906,1,1,7998,999
6.06902600,6069026,0,0.0008579757413826883,0.005518885795027018,-0.0006115189753472805,6.189452171325684,0.25618118047714233,-7.589961528778076,0,0,35.471126556396484,1,1,7998,999
6.09082200,6090822,0,0.0005671162507496774,0.0055097551085054874,0.0004915317986160517,6.186728477478027,0.2592850923538208,-7.5739216804504395,0,0,35.47480392456055,1,1,7998,999
6.09318800,6093188,0,0.0003450893273111433,0.004789197351783514,0.0003087773802690208,6.186404705047607,0.26003265380859375,-7.5731329917907715,0,0,35.47526550292969,1,1,7998,999
6.09582200,6095822,0,0.0003316156507935375,0.004295819904655218,9.458054410060868e-05,6.183807849884033,0.26033225655555725,-7.572699069976807,0,0,35.47556686401367,1,1,7998,999
6.09818100,6098181,0,0.0005070942570455372,0.0036377368960529566,-0.00031866252538748085,6.178200721740723,0.26068371534347534,-7.5725202560424805,0,0,35.47601318359375,1,1,7998,999
6.10082200,6100822,0,0.0006638697814196348,0.00316242640838027,-0.0006452565430663526,6.174995422363281,0.26032373309135437,-7.572375774383545,0,0,35.4763069152832,1,1,7998,999
6.10323100,6103231,0,0.000798215507529676,0.002628358080983162,-0.0009669136488810182,6.172067165374756,0.25892868638038635,-7.571976661682129,0,0,35.47675323486328,1,1,7998,999
6.10589100,6105891,0,0.0008377917110919952,0.0018725180998444557,-0.0012117607984691858,6.1724019050598145,0.25877270102500916,-7.570856094360352,0,0,35.47705078125,1,1,7998,999
6.12818300,6128183,0,-0.0016791220987215638,-0.010394788347184658,0.0010094009339809418,6.190386772155762,0.24564921855926514,-7.559986591339111,0,0,35.48069381713867,1,1,7998,999
6.13082000,6130820,0,-0.0019732024520635605,-0.01113152876496315,0.001048352336511016,6.193110466003418,0.2447752207517624,-7.558039665222168,0,0,35.48112106323242,1,1,7998,999
6.13319900,6133199,0,-0.0021547568030655384,-0.011417383328080177,0.001109127071686089,6.195836544036865,0.24685420095920563,-7.557669162750244,0,0,35.481571197509766,1,1,7998,999
6.13583200,6135832,0,-0.0023328904062509537,-0.011621419340372086,0.0011154375970363617,6.196903228759766,0.2499634027481079,-7.5600481033325195,0,0,35.481876373291016,1,1,7998,999
6.13819200,6138192,0,-0.0022396789863705635,-0.011666993610560894,0.000983790960162878,6.197604179382324,0.2537355422973633,-7.564472675323486,0,0,35.482337951660156,1,1,7998,999
6.14082000,6140820,0,-0.002161963377147913,-0.01141190156340599,0.0008260545437224209,6.196967601776123,0.2562154233455658,-7.567916393280029,0,0,35.48263931274414,1,1,7998,999
6.14323600,6143236,0,-0.0019241658737882972,-0.010677547194063663,0.0004534306062851101,6.193723201751709,0.2596132755279541,-7.5754313468933105,0,0,35.48308181762695,1,1,7998,999
6.14585100,6145851,0,-0.001662205788306892,-0.009924082085490227,0.0002745598030742258,6.190244674682617,0.26047858595848083,-7.57866907119751,0,0,35.48338317871094,1,1,7998,999
6.16585400,6165854,0,0.0012648770352825522,-0.0013262234861031175,-0.002252032980322838,6.168796062469482,0.25713253021240234,-7.594635963439941,0,0,35.4865837097168,1,1,7998,999
6.16925300,6169253,0,0.0010728160850703716,-0.00032653441303409636,-0.0023804204538464546,6.174572944641113,0.2567574679851532,-7.597395896911621,0,0,35.487064361572266,1,1,7998,999
6.17099500,6170995,0,0.001017414964735508,0.00022632925538346171,-0.002125005004927516,6.178435325622559,0.2562447190284729,-7.598759651184082,0,0,35.48738098144531,1,1,7998,999
6.17319500,6173195,0,0.0008009261218830943,0.000991499051451683,-0.0016092698788270354,6.184642791748047,0.2534353733062744,-7.599334716796875,0,0,35.487850189208984,1,1,7998,999
6.17583000,6175830,0,0.0006462926976382732,0.0014351691352203488,-0.0012643011286854744,6.18707275390625,0.2511155903339386,-7.596217155456543,0,0,35.4881591796875,1,1,7998,999
6.17817800,6178178,0,0.0004268923366907984,0.0021575854625552893,-0.0008313494618050754,6.1867241859436035,0.2503659725189209,-7.593809127807617,0,0,35.488624572753906,1,1,7998,999
6.18082100,6180821,0,0.00032088145962916315,0.002560877474024892,-0.000510733516421169,6.186030387878418,0.2507375478744507,-7.5922770500183105,0,0,35.488929748535156,1,1,7998,999
6.18323100,6183231,0,0.00024421667330898345,0.003135022707283497,-1.3974347893963568e-05,6.185901641845703,0.24948568642139435,-7.5861735343933105,0,0,35.4893798828125,1,1,7998,999
6.18585200,6185852,0,0.00019836022693198174,0.0036414945498108864,0.00035982963163405657,6.186620235443115,0.24818457663059235,-7.583790302276611,0,0,35.48967361450195,1,1,7998,999
6.21584000,6215840,0,0.0019242778653278947,0.01249056775122881,0.00015814400103408843,6.187427997589111,0.24587419629096985,-7.567037105560303,0,0,35.494140625,1,1,7998,999
6.21816700,6218167,0,0.0022194504272192717,0.012300998903810978,0.0003374496300239116,6.183497905731201,0.2383590191602707,-7.559014320373535,0,0,35.49459457397461,1,1,7998,999
6.22083900,6220839,0,0.002396122319623828,0.011987158097326756,0.0004447985265869647,6.181041240692139,0.23520642518997192,-7.556221008300781,0,0,35.49489212036133,1,1,7998,999
6.22352800,6223528,0,0.002464307937771082,0.011175447143614292,0.0005239265155978501,6.179837703704834,0.2340947687625885,-7.555601596832275,0,0,35.4953498840332,1,1,7998,999
6.22680800,6226808,0,0.002480580471456051,0.010419024154543877,0.0006197293987497687,6.18117618560791,0.2353188544511795,-7.5575361251831055,0,0,35.49565505981445,1,1,7998,999
6.22892100,6228921,0,0.002287994371727109,0.008976994082331657,0.0008646168280392885,6.185144901275635,0.23855650424957275,-7.564087867736816,0,0,35.49612045288086,1,1,7998,999
6.25644100,6256441,0,-0.0017989928601309657,-0.010248781181871891,-0.00017331073468085378,6.20044469833374,0.23866407573223114,-7.579145908355713,0,0,35.500701904296875,1,1,7998,999
6.25894400,6258944,0,-0.0021029640920460224,-0.011501339264214039,-0.00031296603265218437,6.2038679122924805,0.2392732799053192,-7.581839084625244,0,0,35.501129150390625,1,1,7998,999
6.26143800,6261438,0,-0.0025656591169536114,-0.013255073688924313,-0.0006129932007752359,6.204267501831055,0.24063096940517426,-7.5832648277282715,0,0,35.50141906738281,1,1,7998,999
6.26399200,6263992,0,-0.0027362436521798372,-0.014202584512531757,-0.0007023542420938611,6.203999042510986,0.24474218487739563,-7.583700180053711,0,0,35.501853942871094,1,1,7998,999
6.26753900,6267539,0,-0.002696526935324073,-0.015204105526208878,-0.0007445293595083058,6.202483177185059,0.2483939826488495,-7.583827018737793,0,0,35.50214767456055,1,1,7998,999
6.29450400,6294504,0,-0.0013039350742474198,-0.002494845073670149,-0.001394473249092698,6.175735950469971,0.2692289352416992,-7.593233108520508,0,0,35.5067024230957,1,1,7998,999
6.29705400,6297054,0,-0.0010517369955778122,-0.00088070472702384,-0.0011991444043815136,6.173330307006836,0.27082523703575134,-7.590409755706787,0,0,35.50703048706055,1,1,7998,999
6.29951200,6299512,0,-0.0007566447020508349,0.0013444354990497231,-0.000956008501816541,6.171877861022949,0.2716982364654541,-7.5878119468688965,0,0,35.50752639770508,1,1,7998,999
6.30205700,6302057,0,-0.0005574609967879951,0.002733486006036401,-0.0008885543211363256,6.172330856323242,0.27218836545944214,-7.587705135345459,0,0,35.50784683227539,1,1,7998,999
6.30454200,6304542,0,-2.2148376956465654e-05,0.004888365976512432,-0.0009345316211692989,6.1745171546936035,0.27428388595581055,-7.587249279022217,0,0,35.508338928222656,1,1,7998,999
6.30704100,6307041,0,0.0006021717563271523,0.006218037102371454,-0.0009583941427990794,6.176629066467285,0.2744677662849426,-7.5898308753967285,0,0,35.5086669921875,1,1,7998,999
6.33205400,6332054,0,0.0015727371210232377,0.009791144169867039,0.001373189385049045,6.184990406036377,0.26458224654197693,-7.564482688903809,0,0,35.512508392333984,1,1,7998,999
6.33448600,6334486,0,0.0017643404426053166,0.009346932172775269,0.001355942920781672,6.185230731964111,0.26382920145988464,-7.561069488525391,0,0,35.512935638427734,1,1,7998,999
6.33704600,6337046,0,0.001917135901749134,0.008977876976132393,0.0013866672525182366,6.187049865722656,0.262314110994339,-7.560137748718262,0,0,35.513221740722656,1,1,7998,999
6.33948000,6339480,0,0.002080561826005578,0.00839796382933855,0.0014142242725938559,6.189319610595703,0.26101216673851013,-7.561853885650635,0,0,35.51366424560547,1,1,7998,999
6.34204800,6342048,0,0.0021727122366428375,0.008042098954319954,0.0014187422348186374,6.189688205718994,0.2611368000507355,-7.563498497009277,0,0,35.51396179199219,1,1,7998,999
6.34453200,6344532,0,0.002065033884719014,0.007302841171622276,0.001276528462767601,6.190206050872803,0.25968223810195923,-7.562509059906006,0,0,35.51439666748047,1,1,7998,999
6.37705500,6377055,0,-0.0016827125800773501,-0.005986899137496948,-0.0014031705213710666,6.1912102699279785,0.25678402185440063,-7.5767130851745605,0,0,35.51870346069336,1,1,7998,999
6.37950300,6379503,0,-0.0018613290740177035,-0.007072797045111656,-0.001414817408658564,6.190145969390869,0.25875213742256165,-7.576690196990967,0,0,35.51909637451172,1,1,7998,999
6.38205300,6382053,0,-0.0018266555853188038,-0.007654983550310135,-0.0014937925152480602,6.189228534698486,0.2604478597640991,-7.574527263641357,0,0,35.51934814453125,1,1,7998,999
6.38453900,6384539,0,-0.0016426155343651772,-0.008106314577162266,-0.0014690386597067118,6.185627460479736,0.262540340423584,-7.568602561950684,0,0,35.51972579956055,1,1,7998,999
6.38706100,6387061,0,-0.0015135379508137703,-0.008262313902378082,-0.0013768288772553205,6.184031009674072,0.2633838653564453,-7.564774990081787,0,0,35.51997756958008,1,1,7998,999
6.40953100,6409531,0,-0.0005891768378205597,-0.003512804629281163,-0.0008742319769226015,6.177618980407715,0.25750982761383057,-7.581613063812256,0,0,35.52283477783203,1,1,7998,999
6.41206100,6412061,0,-0.000256631727097556,-0.0031126178801059723,-0.0004975302726961672,6.178246021270752,0.2613460421562195,-7.586575031280518,0,0,35.5230827331543,1,1,7998,999
6.44461000,6444610,0,0.0012690313160419464,0.004132135771214962,0.0022256283555179834,6.189272403717041,0.24936367571353912,-7.605630874633789,0,0,35.52722930908203,1,1,7998,999
6.44705700,6447057,0,0.0013225303264334798,0.004285047762095928,0.0021612539421766996,6.18884801864624,0.24443332850933075,-7.599521636962891,0,0,35.52748489379883,1,1,7998,999
6.47950700,6479507,0,-0.0005126800970174372,0.00486328499391675,-0.0016764713218435645,6.1812310218811035,0.24645520746707916,-7.5691657066345215,0,0,35.5317497253418,1,1,7998,999
6.48206300,6482063,0,-0.0005461361724883318,0.004399575293064117,-0.0016722094733268023,6.177915096282959,0.24148589372634888,-7.567336082458496,0,0,35.531959533691406,1,1,7998,999
6.63705800,6637058,0,0.00049416976980865,0.0003321587573736906,0.0004963724641129375,6.18855094909668,0.2431155890226364,-7.599774360656738,0,0,35.54732131958008,1,1,7998,999
6.63947900,6639479,0,0.000618051621131599,0.001422288827598095,0.0002738325856626034,6.186621189117432,0.23482844233512878,-7.603264808654785,0,0,35.547584533691406,1,1,7998,999
6.64203800,6642038,0,0.0006025820039212704,0.002243479248136282,0.00013009243411943316,6.186427593231201,0.23078404366970062,-7.604018688201904,0,0,35.54775619506836,1,1,7998,999
6.66809800,6668098,0,0.0008165101171471179,0.006818847730755806,-0.002638007514178753,6.182716369628906,0.2539885342121124,-7.5890631675720215,0,0,35.549774169921875,1,1,7998,999
6.66953600,6669536,0,0.0003547091910149902,0.006096252705901861,-0.0023768339306116104,6.182312965393066,0.25573641061782837,-7.579864025115967,0,0,35.55000305175781,1,1,7998,999
6.67204200,6672042,0,5.78559520363342e-05,0.005488520488142967,-0.0020946243312209845,6.181492328643799,0.2582141160964966,-7.575500965118408,0,0,35.55015563964844,1,1,7998,999
6.67451500,6674515,0,-0.00017719452443998307,0.004415989387780428,-0.0017438122304156423,6.181949138641357,0.26099514961242676,-7.573076248168945,0,0,35.55038833618164,1,1,7998,999
6.67702600,6677026,0,-0.00019215242355130613,0.0036260150372982025,-0.0015488797798752785,6.183321475982666,0.2621194124221802,-7.57406759262085,0,0,35.550540924072266,1,1,7998,999
6.67948500,6679485,0,-9.094119013752788e-05,0.0024077987764030695,-0.0010992255993187428,6.184316635131836,0.2615317404270172,-7.577015399932861,0,0,35.55076599121094,1,1,7998,999
6.71947600,6719476,0,-0.0007600705721415579,-0.005836011841893196,0.000556380779016763,6.185883522033691,0.25558874011039734,-7.573993682861328,0,0,35.553550720214844,1,1,7997,999
6.72203700,6722037,0,-0.0008361485088244081,-0.005534134339541197,0.0003902031166944653,6.1854119300842285,0.25771191716194153,-7.574086666107178,0,0,35.55370330810547,1,1,7997,999
6.72472400,6724724,0,-0.000897554331459105,-0.005056991241872311,0.0002975603856611997,6.182763576507568,0.26025256514549255,-7.5730977058410645,0,0,35.553924560546875,1,1,7997,999
6.72703700,6727037,0,-0.0008722135098651052,-0.004763859324157238,0.0003188958507962525,6.1804094314575195,0.26170438528060913,-7.57239294052124,0,0,35.554073333740234,1,1,7997,999
6.72950600,6729506,0,-0.0009089134400710464,-0.004353292752057314,0.00037112008430995047,6.179108142852783,0.26408496499061584,-7.572864532470703,0,0,35.554290771484375,1,1,7997,999
6.73201700,6732017,0,-0.0010298400884494185,-0.004132721573114395,0.00037415281985886395,6.1786298751831055,0.2651645541191101,-7.57540225982666,0,0,35.554439544677734,1,1,7997,999
6.74953800,6749538,0,-0.0010973229072988033,-0.000500963069498539,-0.0009452773374505341,6.183660984039307,0.251507431268692,-7.592764377593994,0,0,35.55583190917969,1,1,7997,999
6.75203900,6752039,0,-0.0009652885491959751,0.0001784646010491997,-0.0010518223280087113,6.183360576629639,0.2509724795818329,-7.590611457824707,0,0,35.55598068237305,1,1,7997,999
6.75447000,6754470,0,-0.0006065031047910452,0.0012591129634529352,-0.0010409994283691049,6.181700229644775,0.24827802181243896,-7.592010974884033,0,0,35.55619812011719,1,1,7997,999
6.75704500,6757045,0,-0.000324476306559518,0.001881633885204792,-0.0010311551159247756,6.180521488189697,0.24558532238006592,-7.5925116539001465,0,0,35.55635452270508,1,1,7997,999
6.75947100,6759471,0,5.531369606615044e-05,0.0026112359482795,-0.0008807810954749584,6.179208278656006,0.24109391868114471,-7.592183589935303,0,0,35.55658721923828,1,1,7997,999
6.76204300,6762043,0,0.00022533095034305006,0.003008310217410326,-0.0006333185010589659,6.177650451660156,0.237132728099823,-7.5914998054504395,0,0,35.55674362182617,1,1,7997,999
6.78204300,6782043,0,0.00259142997674644,0.007178543601185083,0.000985363614745438,6.180438041687012,0.2512531876564026,-7.571262836456299,0,0,35.558284759521484,1,1,7997,999
6.78452700,6784527,0,0.0026396638713777065,0.007937517948448658,0.0009758973028510809,6.179653644561768,0.2548081576824188,-7.568756103515625,0,0,35.55851745605469,1,1,7997,999
6.78704300,6787043,0,0.0025368782225996256,0.008369614370167255,0.0008511117193847895,6.178893566131592,0.2555733919143677,-7.565749168395996,0,0,35.558677673339844,1,1,7997,999
6.78952300,6789523,0,0.0022291208151727915,0.008874027989804745,0.0007695790263824165,6.178365230560303,0.25529131293296814,-7.561201572418213,0,0,35.558921813964844,1,1,7997,999
6.79201800,6792018,0,0.0019440187606960535,0.008972221054136753,0.0007259893463924527,6.178067684173584,0.25555548071861267,-7.561391353607178,0,0,35.559078216552734,1,1,7997,999
6.79448800,6794488,0,0.0016170450253412127,0.008704607374966145,0.0004329796356614679,6.175793647766113,0.2568407356739044,-7.563100337982178,0,0,35.5593147277832,1,1,7997,999
6.81215400,6812154,0,0.0010849098907783628,0.003489783965051174,-0.0005450278404168785,6.1891961097717285,0.2453966587781906,-7.558754920959473,0,0,35.5609245300293,1,1,7997,999
6.81447200,6814472,0,0.0007889146800152957,0.002626551780849695,-0.0005925490404479206,6.1869025230407715,0.2445606291294098,-7.561629772186279,0,0,35.56121063232422,1,1,7997,999
6.81703600,6817036,0,0.00047976901987567544,0.001875834190286696,-0.000584501656703651,6.186784267425537,0.24479448795318604,-7.565973281860352,0,0,35.561485290527344,1,1,7997,999
6.81946900,6819469,0,7.619887037435547e-05,0.0005887308507226408,-0.0006448435597121716,6.189144134521484,0.24356672167778015,-7.574856758117676,0,0,35.56174850463867,1,1,7997,999
6.82204200,6822042,0,-0.0001366481592413038,-0.00027947340277023613,-0.0007597164367325604,6.190836429595947,0.2425951510667801,-7.580653667449951,0,0,35.56192398071289,1,1,7997,999
6.82472000,6824720,0,-0.00046088738599792123,-0.001550266519188881,-0.000837417901493609,6.193548679351807,0.24468159675598145,-7.589682579040527,0,0,35.562191009521484,1,1,7997,999
6.84452600,6844526,0,-0.0010508897248655558,-0.005114858038723469,-0.0009078019647859037,6.193656921386719,0.26131346821784973,-7.584461212158203,0,0,35.563846588134766,1,1,7997,999
6.84702300,6847023,0,-0.0009183150832541287,-0.005374109372496605,-0.000655361101962626,6.191679000854492,0.26349976658821106,-7.586522579193115,0,0,35.564002990722656,1,1,7997,999
6.84953700,6849537,0,-0.0007305687759071589,-0.005777838174253702,-0.0004543130344245583,6.189332485198975,0.2659797966480255,-7.588787078857422,0,0,35.564239501953125,1,1,7997,999
6.85202300,6852023,0,-0.0005375880864448845,-0.006127995904535055,-0.000312503834720701,6.187740802764893,0.2677362859249115,-7.590161323547363,0,0,35.56439208984375,1,1,7997,999
6.85448000,6854480,0,-0.000290889001917094,-0.0064847455359995365,-5.936122306593461e-06,6.184837818145752,0.26862478256225586,-7.592686653137207,0,0,35.56461715698242,1,1,7997,999
6.85704200,6857042,0,-0.00021896380349062383,-0.006609627977013588,7.084335084073246e-05,6.182729244232178,0.26815730333328247,-7.5946221351623535,0,0,35.56476974487305,1,1,7997,999
6.87703900,6877039,0,-0.0012144193751737475,-0.005108263809233904,0.0015349446330219507,6.189422130584717,0.24588850140571594,-7.591917514801025,0,0,35.566062927246094,1,1,7997,999
6.87948400,6879484,0,-0.0014564944431185722,-0.004182348493486643,0.0018954469123855233,6.18979024887085,0.24616371095180511,-7.593282699584961,0,0,35.56625747680664,1,1,7997,999
6.88203500,6882035,0,-0.0015025634784251451,-0.0035394662991166115,0.001973577309399843,6.188675880432129,0.24649670720100403,-7.592807292938232,0,0,35.56639099121094,1,1,7997,999
6.88453000,6884530,0,-0.0012418254045769572,-0.0025585719849914312,0.0019844230264425278,6.187259197235107,0.24584375321865082,-7.593494892120361,0,0,35.56658172607422,1,1,7997,999
6.88704500,6887045,0,-0.00095042196335271,-0.0018314814660698175,0.0019812113605439663,6.187675952911377,0.2460077852010727,-7.59294319152832,0,0,35.566707611083984,1,1,7997,999
6.88952800,6889528,0,-0.0006090993992984295,-0.0005990370991639793,0.0019264697330072522,6.189659595489502,0.24504370987415314,-7.59002161026001,0,0,35.56688690185547,1,1,7997,999
6.90952400,6909524,0,0.0005031588952988386,0.007502845488488674,-0.0011032095644623041,6.182679653167725,0.24918727576732635,-7.578341484069824,0,0,35.5681266784668,1,1,7997,999
6.91204100,6912041,0,0.0006407719920389354,0.007758437655866146,-0.0011709328973665833,6.180278301239014,0.2488349825143814,-7.578925132751465,0,0,35.56824493408203,1,1,7997,999
6.91448600,6914486,0,0.0009146429947577417,0.007909546606242657,-0.001121892360970378,6.177560329437256,0.24619731307029724,-7.582102298736572,0,0,35.56842041015625,1,1,7997,999
6.91704200,6917042,0,0.0010608056327328086,0.007840667851269245,-0.0010954849421977997,6.176093578338623,0.24370230734348297,-7.5847859382629395,0,0,35.568546295166016,1,1,7997,999
6.91948500,6919485,0,0.0011373835150152445,0.007404559291899204,-0.0010795366251841187,6.174809455871582,0.24215491116046906,-7.587158679962158,0,0,35.56874084472656,1,1,7997,999
6.92204200,6922042,0,0.0010967263951897621,0.00701775262132287,-0.0009330237517133355,6.175052165985107,0.24208170175552368,-7.588720798492432,0,0,35.56886672973633,1,1,7997,999
6.93948600,6939486,0,5.769090785179287e-05,0.001718092244118452,0.0003840098506771028,6.181987762451172,0.2549285888671875,-7.581591606140137,0,0,35.56996536254883,1,1,7997,999
6.94203200,6942032,0,-6.769979518139735e-05,0.0010808813385665417,0.00022495799930766225,6.185876846313477,0.25569427013397217,-7.578779220581055,0,0,35.57008361816406,1,1,7997,999
6.94453500,6944535,0,-0.0001083324386854656,0.00034032706753350794,0.00017212516104336828,6.193153381347656,0.25901398062705994,-7.5727858543396,0,0,35.57025909423828,1,1,7997,999
6.94703100,6947031,0,-4.77226021757815e-05,-2.2312666260404512e-05,0.00017325193039141595,6.197842597961426,0.2609771490097046,-7.569999694824219,0,0,35.57036590576172,1,1,7997,999
6.94953200,6949532,0,7.83393406891264e-05,-0.000142314747790806,0.0001413184654666111,6.202980995178223,0.2643275856971741,-7.5689568519592285,0,0,35.570533752441406,1,1,7997,999
6.95208400,6952084,0,0.00017568519979249686,-0.00013764198229182512,0.00022309400083031505,6.205073833465576,0.2672370970249176,-7.569864749908447,0,0,35.570648193359375,1,1,7997,999
6.97703600,6977036,0,0.000536714622285217,-0.0019556719344109297,0.0007527917041443288,6.192612171173096,0.24904288351535797,-7.5712056159973145,0,0,35.572086334228516,1,1,7997,999
6.97947100,6979471,0,0.0006577262538485229,-0.002287316834554076,0.0003440481086727232,6.191213130950928,0.24775972962379456,-7.573295593261719,0,0,35.57224655151367,1,1,7997,999
6.98204000,6982040,0,0.0006067353533580899,-0.0025313931982964277,0.00017736860900186002,6.191482067108154,0.24743111431598663,-7.575671195983887,0,0,35.572349548339844,1,1,7997,999
6.98450800,6984508,0,0.00022820041340310127,-0.002501081908121705,-1.503374551248271e-05,6.190753936767578,0.2477760761976242,-7.580398082733154,0,0,35.57250213623047,1,1,7997,999
6.98703300,6987033,0,-9.521706670057029e-05,-0.0024506701156497,-0.00023569467884954065,6.188931941986084,0.24686932563781738,-7.584928035736084,0,0,35.57259750366211,1,1,7997,999
6.98952500,6989525,0,-0.0004561328387353569,-0.0023506474681198597,-0.0004429635009728372,6.186830043792725,0.24456787109375,-7.587170124053955,0,0,35.57273864746094,1,1,7997,999
7.00703600,7007036,0,-0.0006455274415202439,-0.0006438787677325308,-0.0016635050997138023,6.17642879486084,0.24973422288894653,-7.588906288146973,0,0,35.5734748840332,1,1,7997,999
7.00951200,7009512,0,-0.0007184772402979434,-0.0001672695652814582,-0.002090374007821083,6.178860664367676,0.2529818117618561,-7.586194038391113,0,0,35.573604583740234,1,1,7997,999
7.01202100,7012021,0,-0.0008402922539971769,2.01494312932482e-05,-0.002276235492900014,6.181692123413086,0.25387129187583923,-7.58363676071167,0,0,35.57373046875,1,1,7997,999
7.01448300,7014483,0,-0.0009302223334088922,0.00014305529475677758,-0.002274991013109684,6.185046672821045,0.25433120131492615,-7.578128814697266,0,0,35.573856353759766,1,1,7997,999
7.01702200,7017022,0,-0.0008856398053467274,0.00019379884179215878,-0.002105723600834608,6.186569690704346,0.2546451985836029,-7.57674503326416,0,0,35.573936462402344,1,1,7997,999
7.01947900,7019479,0,-0.0007488047122024,0.00018601161718834192,-0.0018351852195337415,6.189080715179443,0.2543100118637085,-7.575108051300049,0,0,35.57407760620117,1,1,7997,999
7.03948700,7039487,0,-0.0001786493230611086,-0.0013341126032173634,0.0007744518225081265,6.188044548034668,0.25907909870147705,-7.561930179595947,0,0,35.57490539550781,1,1,7997,999
7.04204200,7042042,0,1.761281623657851e-06,-0.0014065838186070323,0.0010061010252684355,6.189375400543213,0.2598186135292053,-7.567351818084717,0,0,35.57497787475586,1,1,7997,999
7.04452900,7044529,0,0.00022988456476014107,-0.0013058118056505919,0.0012188549153506756,6.191782474517822,0.2587435841560364,-7.577341556549072,0,0,35.57506561279297,1,1,7997,999
7.04703700,7047037,0,0.00046841712901368737,-0.0011985220480710268,0.0012474610703065991,6.19344425201416,0.25770601630210876,-7.582159042358398,0,0,35.57511901855469,1,1,7997,999
7.04953300,7049533,0,0.0008656263817101717,-0.0009105302160605788,0.0011930186301469803,6.193665027618408,0.25270548462867737,-7.583918571472168,0,0,35.575199127197266,1,1,7997,999
7.05204000,7052040,0,0.0010954068275168538,-0.000597282953094691,0.0010571479797363281,6.191405773162842,0.24914546310901642,-7.582292079925537,0,0,35.575252532958984,1,1,7997,999
7.08703200,7087032,0,-0.00044518636423163116,0.002583905356004834,4.894664016319439e-06,6.180559158325195,0.2758500874042511,-7.587820529937744,0,0,35.57614517211914,1,1,7997,999
7.08952300,7089523,0,-0.0005952469073235989,0.0022945967502892017,0.0002683593484107405,6.179905891418457,0.2696930468082428,-7.584917068481445,0,0,35.57621765136719,1,1,7997,999
7.09203400,7092034,0,-0.0007607677835039794,0.0021573808044195175,0.00032222529989667237,6.178006649017334,0.265310138463974,-7.584168434143066,0,0,35.576263427734375,1,1,7997,999
7.09447400,7094474,0,-0.0009480338776484132,0.0019634475465863943,0.00020581392163876444,6.174740314483643,0.26223644614219666,-7.583248138427734,0,0,35.576316833496094,1,1,7997,999
7.09703200,7097032,0,-0.0010546226985752583,0.001896267174743116,0.00014802246005274355,6.1732401847839355,0.2608066201210022,-7.581504821777344,0,0,35.57634353637695,1,1,7997,999
7.09949000,7099490,0,-0.0010269206250086427,0.0018584640929475427,-7.82482820795849e-05,6.171947479248047,0.2572202980518341,-7.576351165771484,0,0,35.57637405395508,1,1,7997,999
7.11948600,7119486,0,0.000569791707675904,0.0026917632203549147,-0.0020729315001517534,6.189425945281982,0.2529138922691345,-7.572732448577881,0,0,35.57657241821289,1,1,7997,999
7.12202400,7122024,0,0.0007401441689580679,0.002596211154013872,-0.0021080379374325275,6.1895012855529785,0.2552209496498108,-7.573729515075684,0,0,35.576602935791016,1,1,7997,999
7.12471800,7124718,0,0.000993286375887692,0.002361111342906952,-0.0019914498552680016,6.18817138671875,0.2560235857963562,-7.56980562210083,0,0,35.5766487121582,1,1,7997,999
7.12702500,7127025,0,0.0010057847248390317,0.0021430107299238443,-0.0018569149542599916,6.187022686004639,0.25624310970306396,-7.566248416900635,0,0,35.57667922973633,1,1,7997,999
7.12952400,7129524,0,0.0008581791189499199,0.0016981851076707244,-0.001621882664039731,6.186258316040039,0.25803449749946594,-7.563248157501221,0,0,35.57674789428711,1,1,7997,999
7.13204400,7132044,0,0.0008655249257571995,0.0011949448380619287,-0.0013682774733752012,6.185526371002197,0.2588934302330017,-7.562088489532471,0,0,35.57680130004883,1,1,7997,999
7.15208200,7152082,0,0.0006761702243238688,-0.0047121248207986355,0.0023024482652544975,6.182483196258545,0.24807478487491608,-7.58104133605957,0,0,35.57749557495117,1,1,7997,999
7.15449500,7154495,0,0.00045509010669775307,-0.00499768927693367,0.002653935458511114,6.182128429412842,0.2517988979816437,-7.580760955810547,0,0,35.57764434814453,1,1,7997,999
7.15704000,7157040,0,0.0002975823590531945,-0.004982154816389084,0.002728898311033845,6.182407379150391,0.25531110167503357,-7.5825514793396,0,0,35.57771682739258,1,1,7997,999
7.15948200,7159482,0,3.555549483280629e-06,-0.005057043861597776,0.0026671180967241526,6.183472156524658,0.2600667178630829,-7.584865093231201,0,0,35.57782745361328,1,1,7997,999
7.16204200,7162042,0,-0.00022762433218304068,-0.005004328675568104,0.0025724703446030617,6.185482978820801,0.26211610436439514,-7.585319519042969,0,0,35.57790756225586,1,1,7997,999
7.16451300,7164513,0,-0.0005244382191449404,-0.004674712661653757,0.0021230534184724092,6.188286304473877,0.26324737071990967,-7.587602138519287,0,0,35.578033447265625,1,1,7997,999
7.18453100,7184531,0,0.000241521091083996,0.0025927529204636812,-0.0016543121309950948,6.184696674346924,0.25291359424591064,-7.585964679718018,0,0,35.578956604003906,1,1,7997,999
7.18692000,7186920,0,0.0003857657720800489,0.002969858469441533,-0.0018144184723496437,6.185197353363037,0.25218895077705383,-7.584466457366943,0,0,35.57899856567383,1,1,7997,999
7.43652300,7436523,0,0.0026035483460873365,0.0012701021041721106,-0.002990028588101268,5.842155456542969,0.23612642288208008,-7.158474445343018,2,2,35.579532623291016,1,1,7997,999
7.43960900,7439609,0,0.015048383735120296,-0.017033781856298447,-0.0076559861190617085,3.3536128997802734,0.13405905663967133,-4.105803966522217,2,2,35.58235549926758,1,1,7997,999
7.44096500,7440965,0,0.015582013875246048,-0.019516058266162872,-0.007782634347677231,2.4986400604248047,0.0990627110004425,-3.0582921504974365,2,2,35.58373260498047,1,1,7997,999
7.44348300,7443483,0,0.006644458044320345,-0.013512972742319107,-0.005097095854580402,2.198641061782837,0.08705266565084457,-2.6908862590789795,2,2,35.58464431762695,1,1,7997,999
7.44586200,7445862,0,-0.020337440073490143,0.011870373971760273,0.004513875115662813,2.2390146255493164,0.09099160879850388,-2.7405176162719727,2,2,35.58595275878906,1,1,7997,999
7.44851400,7448514,0,-0.04272200167179108,0.03546104580163956,0.013103126548230648,2.5066049098968506,0.10370850563049316,-3.068195104598999,2,2,35.586795806884766,1,1,7997,999
7.45113900,7451139,0,-0.07746569812297821,0.07299033552408218,0.026856420561671257,3.104757070541382,0.1292126476764679,-3.802180290222168,2,2,35.58800506591797,1,1,7997,999
7.45350400,7453504,0,-0.09932848066091537,0.09730227291584015,0.03581513836979866,3.559375286102295,0.14821197092533112,-4.3624067306518555,2,2,35.58877944946289,1,1,7997,999
7.45583500,7455835,0,-0.12867391109466553,0.13098646700382233,0.04763372242450714,4.238699436187744,0.17774905264377594,-5.200024604797363,2,2,35.58987808227539,1,1,7997,999
7.45847000,7458470,0,-0.14586547017097473,0.15080364048480988,0.05415911227464676,4.657873630523682,0.1971060335636139,-5.716014385223389,2,2,35.59058380126953,1,1,7997,999
7.46068000,7460680,0,-0.168009951710701,0.17622260749340057,0.06288132071495056,5.2037553787231445,0.22176553308963776,-6.384730339050293,2,2,35.59158706665039,1,1,7997,999
7.46346100,7463461,0,-0.17975309491157532,0.19016845524311066,0.06754299998283386,5.503543853759766,0.23490414023399353,-6.749232292175293,2,2,35.59222412109375,1,1,7997,999
7.46560900,7465609,0,-0.19218698143959045,0.20590008795261383,0.07337018847465515,5.854247570037842,0.2524106502532959,-7.1767401695251465,2,2,35.593135833740234,1,1,7997,999
7.46845400,7468454,0,-0.1972811371088028,0.2141701728105545,0.07640776038169861,6.027255535125732,0.2615097165107727,-7.385631084442139,2,2,35.593719482421875,1,1,7997,999
7.47066500,7470665,0,-0.2015906572341919,0.22417335212230682,0.07877684384584427,6.209587574005127,0.27003294229507446,-7.60211181640625,2,2,35.59455108642578,1,1,7997,999
7.47314200,7473142,0,-0.20363643765449524,0.22867226600646973,0.0803244337439537,6.286935329437256,0.2736118733882904,-7.693554878234863,3,3,35.59507369995117,1,1,7997,999
7.47587500,7475875,0,-0.2048466056585312,0.2330627590417862,0.08175773918628693,6.3494133949279785,0.2765035331249237,-7.770888328552246,3,3,35.59580993652344,1,1,7997,999
7.47812700,7478127,0,-0.20479978621006012,0.2360643446445465,0.08181916177272797,6.365863800048828,0.2759152948856354,-7.793605804443359,3,3,35.596275329589844,1,1,7997,999
7.48063400,7480634,0,-0.20281633734703064,0.24201472103595734,0.08105148375034332,6.365706920623779,0.2726811170578003,-7.79863977432251,3,3,35.596927642822266,1,1,7997,999
7.48312900,7483129,0,-0.20043395459651947,0.24626752734184265,0.07973790913820267,6.354180812835693,0.270694762468338,-7.789337635040283,3,3,35.59733581542969,1,1,7997,999
7.48563800,7485638,0,-0.1951863020658493,0.251858651638031,0.07738649100065231,6.326697826385498,0.26708099246025085,-7.764098644256592,3,3,35.59791564941406,1,1,7997,999
7.48850600,7488506,0,-0.1927163451910019,0.25516098737716675,0.0753602460026741,6.305901527404785,0.2645018696784973,-7.740628242492676,3,3,35.598270416259766,1,1,7997,999
7.49064000,7490640,0,-0.18984712660312653,0.259774386882782,0.07249193638563156,6.274192810058594,0.2610587775707245,-7.700912952423096,3,3,35.59876251220703,1,1,7997,999
7.49314100,7493141,0,-0.1884530931711197,0.263263076543808,0.07110785692930222,6.2544331550598145,0.2591880261898041,-7.677316188812256,3,3,35.599063873291016,1,1,7997,999
7.49564100,7495641,0,-0.18611420691013336,0.26791486144065857,0.07046209275722504,6.2288007736206055,0.2591719329357147,-7.646965980529785,3,3,35.5994758605957,1,1,7997,999
7.49814900,7498149,0,-0.18410111963748932,0.27034255862236023,0.0706620141863823,6.2153706550598145,0.260221004486084,-7.629458427429199,3,3,35.59973907470703,1,1,7997,999
7.50087100,7500871,0,-0.18089669942855835,0.27428972721099854,0.07041886448860168,6.199704170227051,0.261446475982666,-7.607356548309326,3,3,35.600093841552734,1,1,7997,999
7.50314100,7503141,0,-0.17963993549346924,0.2774781882762909,0.07057978957891464,6.192154884338379,0.26135116815567017,-7.596421718597412,3,3,35.60031509399414,1,1,7997,999
7.50561900,7505619,0,-0.17918214201927185,0.2798832356929779,0.07216556370258331,6.187111854553223,0.26248690485954285,-7.5860443115234375,3,3,35.600616455078125,1,1,7997,999
7.50818400,7508184,0,-0.17928463220596313,0.2809051275253296,0.0738556832075119,6.186429500579834,0.26236000657081604,-7.584125518798828,3,3,35.60079574584961,1,1,7997,999
7.51066600,7510666,0,-0.1797269731760025,0.2823803126811981,0.07663973420858383,6.186297416687012,0.2610180974006653,-7.583616256713867,3,3,35.601043701171875,1,1,7997,999
7.51819100,7518191,0,-0.1832975596189499,0.2810935974121094,0.08149401843547821,6.187748908996582,0.2607244849205017,-7.595376491546631,3,3,35.601524353027344,1,1,7997,999
7.52064700,7520647,0,-0.18477044999599457,0.27937769889831543,0.08228614181280136,6.186239242553711,0.25788477063179016,-7.597750663757324,3,3,35.60173034667969,1,1,7997,999
7.52314100,7523141,0,-0.1851089596748352,0.27790048718452454,0.08248110115528107,6.183753490447998,0.2556331753730774,-7.598230361938477,3,3,35.601810455322266,1,1,7997,999
7.52587400,7525874,0,-0.18631631135940552,0.27606523036956787,0.08087731897830963,6.179471015930176,0.2543744444847107,-7.598979949951172,3,3,35.60190200805664,1,1,7997,999
7.52818500,7528185,0,-0.18673446774482727,0.2752484083175659,0.07913672924041748,6.177206516265869,0.2538008391857147,-7.598540306091309,3,3,35.6019287109375,1,1,7997,999
7.53066800,7530668,0,-0.18679875135421753,0.2742517590522766,0.0777331292629242,6.172967433929443,0.25271734595298767,-7.597980499267578,3,3,35.60194778442383,1,1,7997,999
7.57317400,7573174,0,0.007589578162878752,-0.014491768553853035,-0.00212895218282938,6.169403076171875,0.24896977841854095,-7.569849967956543,4,4,35.59957504272461,1,1,7997,999
7.57590200,7575902,0,0.006270401179790497,-0.012662991881370544,-0.0014851171290501952,6.1731390953063965,0.24777865409851074,-7.57233190536499,4,4,35.59912109375,1,1,7997,999
7.57814000,7578140,0,0.005246305838227272,-0.011241157539188862,-0.0010699451668187976,6.176113128662109,0.2485223114490509,-7.572539806365967,4,4,35.5988883972168,1,1,7997,999
7.58064000,7580640,0,0.003916402813047171,-0.009135624393820763,-0.0007299430435523391,6.182799816131592,0.2514840364456177,-7.5689873695373535,4,4,35.5985221862793,1,1,7997,999
7.58312200,7583122,0,0.0032830832060426474,-0.007705993950366974,-0.0005422764807008207,6.18733024597168,0.2528340220451355,-7.566869735717773,4,4,35.59827423095703,1,1,7997,999
7.58563900,7585639,0,0.00253858370706439,-0.005696724634617567,-0.0002059384569292888,6.190466403961182,0.2522733211517334,-7.563055038452148,4,4,35.597896575927734,1,1,7997,999
7.60819200,7608192,0,-0.00021479772112797946,-0.0008219431038014591,-0.00018967920914292336,6.180582046508789,0.24942535161972046,-7.588915824890137,4,4,35.59478759765625,1,1,7997,999
7.61063300,7610633,0,-0.00016594023327343166,-0.0007760738371871412,-0.00035769943497143686,6.1752495765686035,0.24783474206924438,-7.594851970672607,4,4,35.59431838989258,1,1,7997,999
7.61404000,7614040,0,-7.063806697260588e-05,-0.0007721140282228589,-0.0003467529022600502,6.172377109527588,0.24697086215019226,-7.598382472991943,4,4,35.59401321411133,1,1,7997,999
7.61563800,7615638,0,7.235666271299124e-05,-0.0006991816917434335,-0.00013683662109542638,6.173130035400391,0.2465723156929016,-7.602838039398193,4,4,35.59355926513672,1,1,7997,999
7.61816000,7618160,0,5.9361405874369666e-05,-0.00044222752330824733,-4.426389205036685e-05,6.175436019897461,0.24659594893455505,-7.6028337478637695,4,4,35.593257904052734,1,1,7997,999
7.62061800,7620618,0,-0.00022858755255583674,-0.00016962128574959934,0.00016199231322389096,6.179397106170654,0.24809399247169495,-7.602773666381836,4,4,35.59280776977539,1,1,7997,999
7.64312400,7643124,0,-0.00025047833332791924,0.0025544289965182543,-0.0007578724762424827,6.182840347290039,0.27045080065727234,-7.563405990600586,4,4,35.58937072753906,1,1,7997,999
7.64564200,7645642,0,0.00022812777024228126,0.0031772716902196407,-0.00044094008626416326,6.184658527374268,0.2714023292064667,-7.5618896484375,4,4,35.58887481689453,1,1,7997,999
7.64819700,7648197,0,0.0004627854796126485,0.0034360806457698345,-0.00021988125809002668,6.184377193450928,0.27084657549858093,-7.561802864074707,4,4,35.58854293823242,1,1,7997,999
7.65093300,7650933,0,0.000609987007919699,0.003644786309450865,-6.260897498577833e-05,6.182814598083496,0.2692798376083374,-7.563327312469482,4,4,35.58804702758789,1,1,7997,999
7.65314600,7653146,0,0.0006230672006495297,0.003715336788445711,-1.962528949661646e-05,6.181447505950928,0.2671731412410736,-7.564239501953125,4,4,35.58771896362305,1,1,7997,999
7.65563700,7655637,0,0.0006879357388243079,0.0037571219727396965,-2.1347118206449522e-07,6.17855978012085,0.26390403509140015,-7.56733512878418,4,4,35.58723449707031,1,1,7997,999
7.67814300,7678143,0,0.0007065935642458498,0.0003943750634789467,0.0021230815909802914,6.17919921875,0.2589368522167206,-7.562052249908447,4,4,35.58360290527344,1,1,7997,999
7.68063800,7680638,0,0.00039955799002200365,-0.00015916013217065483,0.002400096273049712,6.1767191886901855,0.2619958221912384,-7.559833526611328,4,4,35.583091735839844,1,1,7997,999
7.68314700,7683147,0,0.00015435727254953235,-0.0005903534474782646,0.002478991635143757,6.1769795417785645,0.2633921802043915,-7.560837268829346,4,4,35.58274841308594,1,1,7997,999
7.68564200,7685642,0,-0.00011763309157686308,-0.001186665496788919,0.002293467754498124,6.178774356842041,0.26423510909080505,-7.567757606506348,4,4,35.582237243652344,1,1,7997,999
7.68853300,7688533,0,-0.0001285823091166094,-0.0014777067117393017,0.0021208622492849827,6.1796698570251465,0.2637230157852173,-7.573721885681152,4,4,35.58189392089844,1,1,7997,999
7.69064100,7690641,0,-8.008869917830452e-05,-0.0017942170379683375,0.0018260559299960732,6.180208206176758,0.2638038396835327,-7.579011917114258,4,4,35.58136749267578,1,1,7997,999
7.71065500,7710655,0,-0.0002239132154500112,-0.00046714721247553825,-0.0015012299409136176,6.193347454071045,0.26487454771995544,-7.58542537689209,4,4,35.57703399658203,1,1,7997,999
7.71408600,7714086,0,-0.00026950129540637136,-0.00016323770978488028,-0.0016483108047395945,6.195563793182373,0.2649301588535309,-7.589742660522461,4,4,35.57670593261719,1,1,7997,999
7.71562000,7715620,0,-0.00040913213160820305,0.00030208774842321873,-0.0017567367758601904,6.198737144470215,0.26560378074645996,-7.594782829284668,4,4,35.576045989990234,1,1,7997,999
7.71815500,7718155,0,-0.0004704091406892985,0.0006214164313860238,-0.0017435182817280293,6.198770999908447,0.2645842134952545,-7.595733165740967,4,4,35.57571029663086,1,1,7997,999
7.72063500,7720635,0,-0.0004711985238827765,0.00114923226647079,-0.0017566620372235775,6.196187496185303,0.26128557324409485,-7.593660831451416,4,4,35.5752067565918,1,1,7997,999
7.72317600,7723176,0,-0.0004953050520271063,0.001390597433783114,-0.0018353761406615376,6.1950178146362305,0.2599317133426666,-7.590763092041016,4,4,35.574729919433594,1,1,7997,999
7.74563800,7745638,0,-0.00010931396536761895,0.0011072116903960705,-0.00011985915625700727,6.180691242218018,0.26265594363212585,-7.570751190185547,4,4,35.5706787109375,1,1,7997,999
7.74818300,7748183,0,0.00012405564484652132,0.0008563864976167679,-1.1101352356490679e-05,6.178232192993164,0.2632487416267395,-7.570631980895996,4,4,35.570396423339844,1,1,7997,999
7.75092800,7750928,0,0.0005712306592613459,0.0001616325171198696,0.00034223878174088895,6.176093101501465,0.2643415033817291,-7.566676139831543,4,4,35.56997299194336,1,1,7997,999
7.75312300,7753123,0,0.0008054850623011589,-0.00038967441651038826,0.0006417896947823465,6.177967071533203,0.2628018856048584,-7.564357757568359,4,4,35.56969451904297,1,1,7997,999
7.75564800,7755648,0,0.0008791005820967257,-0.0013344524195417762,0.0009812405332922935,6.184319496154785,0.25747594237327576,-7.563525676727295,4,4,35.56926727294922,1,1,7997,999
7.75818200,7758182,0,0.0008422821993008256,-0.0019207015866413713,0.0012049006763845682,6.187020778656006,0.25270962715148926,-7.5633134841918945,4,4,35.56897735595703,1,1,7997,999
