timestamp,acc.x,acc.y,acc.z,gyro.x,gyro.y,gyro.z,stateEstimate.x,stateEstimate.y,stateEstimate.z,stabilizer.roll,stabilizer.pitch,stabilizer.yaw,groundtruth
217981,0.0010017332388088,0.0014980217674747,1.001317858695984,0.1363957077264785,0.2129119932651519,-0.0686551332473754,4.6441521644592285,-1.6710116863250732,0.0263996496796607,0.1359047144651413,-0.0740792155265808,-1.9240598678588867,0
218111,0.000732751796022,0.0020971160847693,1.0000947713851929,-0.0308729279786348,-0.0475822053849697,-0.0457595884799957,4.644489765167236,-1.6712428331375122,0.0271225292235612,0.1385299116373062,-0.0751966312527656,-1.8964051008224487,0
218161,0.0012233317829668,0.0028559498023241,1.000929594039917,0.051803633570671,-0.1614301055669784,0.0655053332448005,4.644181728363037,-1.6710842847824097,0.0258284099400043,0.1385717839002609,-0.0681891664862632,-1.8847607374191284,0
218271,-0.0019564882386475,0.0014889851445332,1.0009933710098269,0.105628065764904,-0.0466951355338096,0.0811870470643043,4.644086837768555,-1.6710443496704102,0.0255253985524177,0.1435529440641403,-0.0621132515370845,-1.8626950979232788,0
218291,-0.0003929848899133,0.0030727887060493,1.0022753477096558,-0.122722640633583,0.0843500569462776,-0.0378824956715106,4.64393424987793,-1.6708976030349731,0.0255041327327489,0.1404371261596679,-0.058560699224472,-1.856926202774048,0
218391,-5.18256492796354e-05,0.0030910421628504,0.998027801513672,0.0574754327535629,0.1572252213954925,0.0146355088800191,-5.179617801331915e-06,-4.09555941587314e-05,0.028022276237607,0.0169288776814937,-0.0015317377401515,0.0017491440521553,0
218451,0.0012724767439067,0.0018822716083377,1.0008453130722046,0.1240554600954055,-0.0146768055856227,0.0916942059993743,-2.544730523368344e-05,1.4697938240715304e-05,0.0268342234194278,0.0153672425076365,-0.0057236854918301,0.0025282874703407,0
218501,0.0016961361980065,0.0010859696194529,1.0002717971801758,0.0249988529831171,0.1906090080738067,0.1368991136550903,-3.686646596179344e-05,0.0004186881997156,0.0268094111233949,-0.0564649030566215,-0.0104166343808174,0.0055944719351828,0
218611,0.0010235093068331,0.002659595105797,1.000992774963379,0.1145201325416565,0.2446375638246536,-0.0166819542646408,-9.560842590872198e-05,0.0012606285745278,0.0266770608723163,-0.0503327809274196,-0.0178651176393032,0.0096759842708706,0
218711,-0.001498055178672,0.001349332742393,0.999143362045288,0.0788014307618141,0.027189178392291,0.0293234232813119,-0.000115355986054,-0.0001738939026836,0.0263539887964725,0.1376998871564865,-0.0255967788398265,0.0160387158393859,0
218731,-0.0002535251551307,0.0034401454031467,1.001262903213501,-0.040263582020998,0.163369745016098,0.0666950121521949,-6.409295747289434e-05,0.0013386027421802,0.0262962356209754,0.036236610263586,-0.0321479327976703,0.0179453380405902,0
218871,9.872503869701176e-05,0.0004495240573305,1.0008848905563354,-0.0493185855448246,0.3493363559246063,0.1263488531112671,-0.0001133153346017,-0.0002678475284483,0.0259528327733278,0.1472898870706558,-0.0299181509763002,0.024485370144248,0
218871,9.872503869701176e-05,0.0004495240573305,1.0008848905563354,-0.0493185855448246,0.3493363559246063,0.1263488531112671,-0.0001133153346017,-0.0002678475284483,0.0259528327733278,0.1472898870706558,-0.0299181509763002,0.024485370144248,0
218961,-3.641960938693956e-05,0.0024539195001125,1.002203106880188,-0.0337618216872215,0.0010484090307727,0.0498483590781688,-4.163552512181923e-05,-0.0002849678858183,0.0248662717640399,0.1486940532922744,-0.0423866249620914,0.0331014245748519,0
219021,-0.0006613336736336,0.0018915386172011,1.001184105873108,0.023546865209937,0.0987789630889892,0.1764592677354812,-3.266443673055619e-05,0.0014975197846069,0.0261776894330978,0.0966366603970527,-0.0489823147654533,0.0349143892526626,0
219031,-0.0011980126146227,0.0025412810500711,0.9998481869697572,-0.112738087773323,0.1972823143005371,0.4017392098903656,-3.449940413702279e-05,0.001548059284687,0.0261989291757345,0.0968154743313789,-0.0499446131289005,0.0357693508267402,0
219151,0.0001586204743944,0.0038372965063899,1.0002256631851196,-0.0774453207850456,0.083930529654026,0.0755365043878555,0.0001109174918383,-0.000175352251972,0.0265814382582902,0.142238587141037,-0.0674834996461868,0.0399882048368454,0
219171,-0.0009883039165288,0.0007411135011352,1.00040864944458,0.2423188239336013,-0.450224906206131,-0.0650078654289245,7.938682392705232e-05,0.0008549943449907,0.0266164615750312,0.1160914152860641,-0.066844493150711,0.0407806746661663,0
219251,-0.0012335368664935,0.0014203982427716,0.9979860186576844,0.1808311641216278,0.0062407325021922,-0.0021415234077721,4.862467540078797e-05,0.0008537255926057,0.0262367669492959,0.1187555566430091,-0.0627514347434043,0.0467834919691085,0
219311,-0.0014293001731857,0.0028458503074944,1.0007917881011963,0.134385272860527,0.1964993476867675,-0.0307621955871582,1.4963380635890644e-05,0.0008448615553788,0.0261025931686162,0.1176642477512359,-0.0642875730991363,0.0488833263516426,0
219401,-0.0005317840259522,0.0023343961220234,1.0024466514587402,0.1043249890208244,-0.0651749894022941,0.1623056679964065,1.2458462151698768e-05,-0.0001516266638645,0.0260681379586458,0.1372701376676559,-0.0643742606043815,0.0508682541549205,0
219441,0.0007584922714158,0.0026840458158403,1.000254511833191,-0.1345339566469192,-0.0448733009397983,0.0019798963330686,1.411346147506265e-05,-9.905995102599265e-05,0.0250667911022901,0.1361631155014038,-0.0645183026790618,0.0544374734163284,0
219471,-0.0010139477672055,0.0008168521453626,1.0013736486434937,0.1527668535709381,-0.2649740576744079,-0.0366262644529342,-1.0217784620181192e-05,0.0008177692070603,0.0262075588107109,0.1178688332438469,-0.0647754892706871,0.0556720905005931,0
219601,-0.0013180667301639,0.0011590820504352,0.999197006225586,0.0131808947771787,-0.1244563087821006,0.0560456365346908,3.479422957752831e-05,0.0008597088162787,0.0263968631625175,0.1229695454239845,-0.0658477991819381,0.0590619295835495,0
219621,0.0014158734120428,0.0044616446830332,0.9993557333946228,0.2879625558853149,0.0150141520425677,-0.0246306974440813,4.765204721479677e-05,0.000865323760081,0.0264080576598644,0.1237680092453956,-0.0675492137670517,0.0598922297358512,0
219781,-0.0023290950339287,0.000453212094726,1.0013684034347534,-0.0999337583780288,-0.0566048063337802,0.1927570551633834,9.411436622031032e-05,-0.0003404087619856,0.0256339255720376,0.1434279680252075,-0.0808431133627891,0.0649305060505867,0
219791,-0.0016790489898994,0.0014285438228398,1.0009499788284302,0.082662895321846,0.3368815779685974,-0.2034498304128646,0.0001103966060327,-0.0003679341753013,0.025635490193963,0.1442554891109466,-0.0819295272231102,0.0629323050379753,0
219881,0.0008733819704502,0.0031486335210502,0.9970865845680236,-0.1902484148740768,0.4906350672245025,0.1630962044000625,0.0002784498501569,-0.0006697626085951,0.0267930552363395,0.1458883136510849,-0.0852820724248886,0.0668588951230049,0
219931,0.001707287156023,0.0016010319814085,1.001840591430664,0.2721805274486542,0.2248864918947219,0.0959975197911262,8.39174390421249e-05,-0.0003368971811141,0.0270776953548192,0.1384211331605911,-0.0843439027667045,0.0691503882408142,0
219941,-0.0005645758938044,0.0012730755843222,1.0009857416152954,-0.0156477056443691,-0.2938935756683349,0.0563098937273025,8.392360541620292e-06,0.0010122455423697,0.0262924376875162,0.1167631149291992,-0.0845068022608757,0.0691065117716789,0
220091,8.731627167435363e-05,0.0041577289812266,1.0012083053588867,0.1290261149406433,-0.1021061539649963,-0.0462453365325927,-6.148954707896337e-05,0.0009978278540074,0.0261646453291177,0.1160182803869247,-0.0848308578133583,0.0724797323346138,0
220091,8.731627167435363e-05,0.0041577289812266,1.0012083053588867,0.1290261149406433,-0.1021061539649963,-0.0462453365325927,-6.148954707896337e-05,0.0009978278540074,0.0261646453291177,0.1160182803869247,-0.0848308578133583,0.0724797323346138,0
220171,-0.0020043978001922,0.0019756432157009,1.0020701885223389,0.1945543140172958,0.0055209160782396,-0.1098724901676178,-0.0001570104941492,-1.147737384599168e-05,0.027710611000657,0.1361710429191589,-0.0786048099398613,0.0766633674502372,0
220231,0.0001546204439364,0.0005186322377994,1.0004923343658447,-0.1342743486166,-0.1111222952604293,0.0454099811613559,2.0684456103481355e-07,-9.991994738811628e-05,0.0272195897996425,0.1349336802959442,-0.0801484659314155,0.0767579302191734,0
220311,-0.0006620337371714,0.0010122482199221,1.0007667541503906,-0.0835464596748352,-0.2508671581745147,-0.0047294218093156,-6.450375803979114e-05,-7.044531957944855e-05,0.0273617748171091,0.133370891213417,-0.0785557776689529,0.0796563550829887,0
220381,-0.000963257451076,-0.0001480136706959,1.0001647472381592,0.1783491671085357,0.2264949679374694,0.0445150211453437,0.0002438277879264,-0.0002671362890396,0.0265424791723489,0.1367145180702209,-0.0820120051503181,0.0835919752717018,0
220471,-0.0047292630188167,-0.0046503422781825,1.0006520748138428,-0.2716341614723205,0.143135666847229,-0.0491407141089439,0.0003097770968452,0.0012209812412038,0.0260106399655342,0.1035396233201026,-0.0827129483222961,0.085570640861988,0
220511,0.0002798492496367,0.0073741809464991,1.0028783082962036,0.3304165601730346,-0.2704329788684845,-0.9182758927345276,0.000136624337756,-0.0001336883869953,0.0246947184205055,0.1274044811725616,-0.0701899677515029,0.0859081521630287,0
220621,-0.0070483856834471,-0.0038523296825587,1.0213942527770996,0.4396537542343139,-0.5506892800331116,-0.6309528946876526,-0.0024382292758673,0.0022821656893938,0.0252714324742555,0.0630649104714393,-0.0163204986602067,0.0813347399234771,0
220691,-0.0037380172871053,-0.0021616776939481,0.981088638305664,-0.6866955757141113,-2.6222989559173584,1.430737853050232,-0.0049391402862966,0.001898739952594,0.0257320590317249,0.1078158915042877,0.0046516922302544,0.107871226966381,0
220731,-0.0134618850424885,-0.0056330696679651,1.038736343383789,-1.214307427406311,-3.046502590179444,1.253509759902954,-0.0048319958150386,0.0020336203742772,0.0262468270957469,0.099171407520771,0.0523342192173004,0.1276889443397522,0
220871,0.0191126074641942,-0.0144698293879628,1.0090986490249634,-4.255062580108643,5.416826248168945,6.053326606750488,-0.0040831095539033,0.0046975594013929,0.025274833664298,-0.0268376506865024,-0.0980416238307952,0.4755020439624786,0
220881,0.0189675707370042,-0.0123763708397746,1.0409270524978638,7.219722270965576,-10.33314323425293,5.390749931335449,-0.0029157216195017,0.0057200957089662,0.0251994151622056,0.0019096622709184,-0.0552531033754348,0.5913186073303223,0
220981,0.0192214474081993,0.0026374137960374,1.032700777053833,2.606961488723755,-19.259321212768555,8.815619468688965,0.0154099185019731,0.0053588598966598,0.0256407260894775,0.1242835447192192,0.9592854976654052,1.2232885360717771,0
221001,0.0219640657305717,-0.0064376075752079,1.0112344026565552,-1.259009599685669,-21.61257743835449,8.350691795349121,0.0185060147196054,0.0067946393974125,0.0229145754128694,0.0901768580079078,1.53147292137146,1.470927596092224,0
221101,0.0207571014761924,-0.0210434906184673,1.0582571029663086,-18.620738983154297,0.7510502338409424,5.070074081420898,0.0232435949146747,0.0069509716704487,0.0180321484804153,0.0758635476231575,2.211186647415161,2.19710636138916,0
221181,-0.0025379986036568,-0.0060669588856399,1.0730080604553225,11.589284896850586,1.6344908475875854,6.938367366790772,0.0146839953958988,0.0017021347302943,0.0234786719083786,0.293460488319397,1.8479949235916135,2.736607313156128,0
221201,0.014542524702847,-0.0040763672441244,1.053765058517456,4.09258508682251,7.595343589782715,6.051892280578613,0.0137946531176567,0.0014539798721671,0.0242769997566938,0.3632960617542267,1.832355260848999,2.8041512966156006,0
221201,0.014542524702847,-0.0040763672441244,1.053765058517456,4.09258508682251,7.595343589782715,6.051892280578613,0.0120860282331705,0.0007750920485705,0.0249657947570085,0.4178996384143829,1.830830216407776,2.8591229915618896,0
221351,0.0051690675318241,-0.0052030449733138,0.9930698871612548,21.247716903686523,10.418380737304688,6.262152671813965,-0.0038265234325081,-0.0052808639593422,0.0489768721163272,-0.2748230099678039,-0.8239647150039673,3.6254496574401855,0
221371,0.0234414674341678,-0.0023185587488114,0.974190890789032,10.815911293029783,14.353166580200195,5.4623847007751465,-0.0055949003435671,-0.005659011658281,0.0518713071942329,-0.0121050234884023,-1.1066197156906128,3.740354061126709,0
221391,0.0138731263577938,-0.0084239039570093,0.9941144585609436,-3.699782609939575,7.967423439025879,4.5827717781066895,-0.0061064562760293,-0.0066472748294472,0.0554864667356014,-0.0035084104165434,-1.37101149559021,3.8365559577941895,0
221591,0.0024400309193879,0.0057751461863517,0.9936275482177734,1.3463717699050903,-3.270512819290161,-1.6046195030212402,-0.0041734022088348,-0.006079769693315,0.0878532156348228,-0.8309080600738525,-1.2381272315979004,3.761336326599121,0
221591,0.0024400309193879,0.0057751461863517,0.9936275482177734,1.3463717699050903,-3.270512819290161,-1.6046195030212402,-0.0041734022088348,-0.006079769693315,0.0878532156348228,-0.8309080600738525,-1.2381272315979004,3.761336326599121,0
221691,-0.0089643206447362,-0.0178269296884536,0.9904919862747192,-0.1133936718106269,-5.686459064483643,-2.584127902984619,0.0029347660019993,-0.0021271565929055,0.1011133566498756,-0.1389791667461395,0.1970903575420379,3.469449043273926,0
221771,0.0153677845373749,-0.0085040759295225,1.0038487911224363,9.232037544250488,-7.309581756591797,-2.2255566120147705,0.0076771546155214,0.0009454973042011,0.1064432561397552,0.136699691414833,0.4060206115245819,3.2950470447540283,0
221781,0.0090854931622743,-0.0139770219102501,1.0378310680389404,9.73293685913086,-8.466641426086426,-2.268282175064087,0.0078973406925797,0.0012440519640222,0.1073769181966781,0.2299304902553558,0.5091304779052734,3.271260976791382,0
221871,0.0017233077669516,0.0013303948799148,1.0484315156936646,1.4314279556274414,1.587988257408142,-1.448706865310669,0.0131290815770626,0.0046445298939943,0.1182736977934837,0.6143752932548523,0.9263668656349182,3.100313186645508,0
221941,0.0170594844967126,-0.0022967441473156,1.0445303916931152,-2.612701416015625,-0.3070944845676422,-1.0384337902069092,0.0165606681257486,0.0068260128609836,0.1311504542827606,0.6618449091911316,0.9361868500709534,3.004443407058716,0
221951,0.0124831004068255,-0.0017521864501759,1.0766072273254397,-3.695880174636841,0.1602991670370102,-0.9628410935401917,0.0168296732008457,0.0069383303634822,0.1330356150865554,0.62217116355896,0.9319643378257751,2.9955973625183105,0
222051,0.0003791392664425,-0.0155380712822079,1.051405906677246,2.936472177505493,-1.557882308959961,-1.287137746810913,0.0216678008437156,0.007040134165436,0.1502378284931183,0.6181209087371826,0.6222143769264221,2.912534475326538,0
222151,0.0146811697632074,-0.0058297053910791,1.0171396732330322,1.663141846656799,3.0586605072021484,-0.8587393760681152,0.0234948694705963,0.0084493523463606,0.1743816286325454,0.1975405365228653,0.66042560338974,2.829705715179444,0
222161,-0.0001268273190362,-0.0033360591623932,1.0261815786361694,3.655086755752564,4.526673793792725,-0.7633149027824402,0.0240565184503793,0.0040850196965038,0.1770298928022384,0.3800397217273712,0.627057671546936,2.80591368675232,0
222161,-0.0001268273190362,-0.0033360591623932,1.0261815786361694,3.655086755752564,4.526673793792725,-0.7633149027824402,0.0242331735789775,0.0038725587073713,0.1796881258487701,0.4134223461151123,0.5878437757492065,2.798253059387207,0
222181,0.0159084610641002,-0.0026688610669225,1.0310628414154053,2.51983904838562,2.796372175216675,-0.4876163601875305,0.0243939794600009,0.0036465441808104,0.1828861087560653,0.4532671868801117,0.5582210421562195,2.7906439304351807,0
222341,0.005464528221637,-0.015365251339972,1.022413969039917,-4.111325740814209,6.5827460289001465,-0.9243682026863098,0.0228223893791437,-0.0017837267369031,0.2304486036300659,-0.1021277457475662,0.0606212019920349,2.652848720550537,0
222341,0.005464528221637,-0.015365251339972,1.022413969039917,-4.111325740814209,6.5827460289001465,-0.9243682026863098,0.0226908661425113,-0.0024255062453448,0.2333505302667617,-0.1369264274835586,-0.0022355588153004,2.642863273620605,0
222351,0.0118971345946192,-0.0068693705834448,1.002484679222107,-4.27284574508667,4.8520989418029785,-1.1740432977676392,0.0221898462623357,-0.0024236729368567,0.2352779358625412,-0.187171071767807,-0.0361695066094398,2.6333775520324707,0
222471,6.322696572169662e-05,-0.0134755028411746,0.9734148979187012,1.5454611778259275,4.25860595703125,-0.9848291277885436,0.0167738385498523,-0.0039061419665813,0.268125832080841,-0.3633096218109131,-0.2243759930133819,2.524637460708618,0
222501,0.005798113066703,-0.0146494954824447,0.9922109842300416,0.5333802103996277,4.929851531982422,-0.415477454662323,0.0163203850388526,-0.0029964940622448,0.2759634554386139,-0.3673802614212036,-0.3696541786193847,2.50716495513916,0
222511,0.0011873877374455,-0.0085865734145045,0.9958786964416504,-0.718647837638855,4.07297945022583,-0.8098692297935486,0.0155877014622092,-0.0030088115017861,0.2785485386848449,-0.3799277245998382,-0.3983210027217865,2.5009429454803467,0
222631,0.0229096449911594,0.0012915565166622,1.000101923942566,2.815760850906372,-3.245410680770874,-0.537217915058136,0.0191350765526294,0.002505267271772,0.3037357628345489,-0.2428431212902069,-0.4912784099578857,2.4146735668182373,0
222661,0.0122280772775411,-0.0031698308885097,0.9910277128219604,4.28014087677002,-5.280075073242188,0.0333314314484596,0.0197083353996276,0.0043601542711257,0.3147201836109161,-0.1175098121166229,-0.3343980610370636,2.409867525100708,0
222671,0.0161472968757152,-0.0301708877086639,1.0058470964431765,2.5022943019866943,-4.269801139831543,0.3481837809085846,0.0197891108691692,0.0045453840866684,0.3172778189182281,-0.0908176451921463,-0.291143536567688,2.4132657051086426,0
222681,0.0136660169810056,-0.0201282314956188,0.9953070878982544,2.921416997909546,-4.857182025909424,0.333691656589508,0.0195801239460706,0.0050085689872503,0.3198377788066864,-0.0638077333569526,-0.2436840832233429,2.413304328918457,0
222831,-0.0028341328725218,0.0019363687606528,0.992884635925293,-2.9350075721740723,-0.095772661268711,-0.587553858757019,0.0177723206579685,0.000698464224115,0.353778600692749,0.3052312135696411,0.0989180654287338,2.363361597061157,0
222901,0.0072356881573796,-0.0114745562896132,1.0105928182601929,-5.608325481414795,-0.3364161849021911,-0.8780486583709717,0.0189146809279918,-0.0094205383211374,0.3785406053066253,0.1255711913108825,0.1029763594269752,2.299419641494751,0
222921,0.0029448010027408,-0.0137079255655407,1.006503343582153,-7.9685282707214355,0.3300209045410156,-1.6739211082458496,0.0189408827573061,-0.0096866711974143,0.3811222612857818,0.041157778352499,0.0888900607824325,2.2876100540161133,0
222931,0.0042257457971572,-0.0097791291773319,1.011962890625,-10.387800216674805,1.2947628498077393,-1.6256171464920044,0.018989723175764,-0.0102153252810239,0.3867175877094269,-0.1397573947906494,0.0674030482769012,2.254875898361206,0
222931,0.0042257457971572,-0.0097791291773319,1.011962890625,-10.387800216674805,1.2947628498077393,-1.6256171464920044,0.018989723175764,-0.0102153252810239,0.3867175877094269,-0.1397573947906494,0.0674030482769012,2.254875898361206,0
222931,0.0042257457971572,-0.0097791291773319,1.011962890625,-10.387800216674805,1.2947628498077393,-1.6256171464920044,0.0191453304141759,-0.0114326821640133,0.3905316293239593,-0.2938271164894104,0.0437893345952034,2.2166905403137207,0.0
222951,0.0165725797414779,-0.0042864782735705,1.000317931175232,-7.669703006744385,0.5240046977996826,-2.076810359954834,0.0214617475867271,-0.0109905647113919,0.3959300518035888,-0.3288624584674835,0.008762345649302,2.173044204711914,0.0
222991,0.0077602141536772,-0.0094781136140227,0.989820122718811,1.2826361656188965,-1.113498330116272,-1.784879207611084,0.0199031922966241,-0.0088580641895532,0.3986180126667022,-0.3444058001041412,0.0285863447934389,2.1505355834960938,0
222981,0.0081235971301794,-0.0170918144285678,0.9949915409088136,1.8790886402130127,0.3996248841285705,-2.102621555328369,0.0197962038218975,-0.0073599019087851,0.4041766226291656,-0.3488015234470367,0.042070236057043,2.130317449569702,0
223011,0.0124338334426283,-0.0186144113540649,1.0338282585144043,2.6002092361450195,-0.1008750796318054,-1.5292757749557495,0.0212923400104045,-0.007434724830091,0.4070100486278534,-0.3284482955932617,0.035349503159523,2.112384557723999,0
223171,0.0116624096408486,-0.0110951857641339,0.9618293642997742,4.198369026184082,0.4481647312641144,-2.4188766479492188,0.0234547611325979,0.0042277695611119,0.4499577283859253,-0.0025761886499822,0.009600686840713,1.7496064901351929,0
223181,0.008777916431427,-0.0100076962262392,0.974251389503479,2.205925703048706,0.155689850449562,-2.4683237075805664,0.0235365387052297,0.004419061820954,0.4526481032371521,0.0280713122338056,0.0058704908005893,1.7239770889282229,0
223311,0.0116044506430625,-0.0091198543086647,0.9543631076812744,5.598703384399414,-0.2948128283023834,-1.2380627393722534,0.0223932601511478,0.0142958825454115,0.4785032272338867,0.4154873490333557,0.0478581003844738,1.438887119293213,0
223331,0.0047093722969293,-0.0101381558924913,0.9621751308441162,2.477696895599365,1.4263650178909302,-1.4140063524246216,0.0225011315196752,0.0153703354299068,0.4818692505359649,0.4633324742317199,0.03079648129642,1.4099125862121582,0
223331,0.0047093722969293,-0.0101381558924913,0.9621751308441162,2.477696895599365,1.4263650178909302,-1.4140063524246216,0.0225011315196752,0.0153703354299068,0.4818692505359649,0.4633324742317199,0.03079648129642,1.4099125862121582,0
223491,0.009054010733962,-0.0146792419254779,0.9679436087608336,3.4357922077178955,0.5562806725502014,-1.2279551029205322,0.0224834010004997,0.0279507040977478,0.5052964091300964,0.6876921057701111,-0.0374584794044494,1.202993631362915,0
223531,0.0057620955631136,-0.0168276466429233,0.9881266951560974,-1.2823309898376465,-0.2947065532207489,-1.131365180015564,0.0239538326859474,0.0319105237722396,0.5108447074890137,0.6443430185317993,-0.079216681420803,1.1555863618850708,0
223591,0.0134240118786692,-0.0144378459081053,0.9861632585525512,1.6735433340072632,-1.867242455482483,-0.9806492924690248,0.0238660741597414,0.0344345159828662,0.5179253816604614,0.5358259081840515,0.013493469916284,1.110799789428711,0
223601,0.0151549354195594,-0.0044524110853672,0.9667214751243592,3.6915459632873535,-0.4898858070373535,-1.0461164712905884,0.0239304639399051,0.0347396321594715,0.518329918384552,0.561343252658844,0.0335113741457462,1.1012741327285769,0
223711,0.005767417140305,-0.0152609264478087,0.9857463836669922,-3.660792827606201,-1.843493223190308,-1.4643990993499756,0.026125555858016,0.0394248515367507,0.521304190158844,0.4903821051120758,0.0161834564059972,0.9689857363700868,0
223731,0.0115075567737221,-0.0049053742550313,0.9842889308929444,-1.511631965637207,-4.105729579925537,-1.1097382307052612,0.025740647688508,0.0366284549236297,0.5219786763191223,0.4838892221450805,0.051544465124607,0.9577855467796326,0
223901,0.0127640953287482,-0.0201795455068349,1.0024847984313965,-2.879552125930786,0.5499324202537537,-1.166730284690857,0.0251839328557252,0.0388882122933864,0.5302304029464722,0.4254146218299866,0.2818411886692047,0.7276160717010498,0
223911,0.0003449629002716,-0.0131064848974347,1.0053939819335938,-2.9647130966186523,-0.1373406946659088,-1.1837903261184692,0.0251839328557252,0.0388882122933864,0.5302304029464722,0.4254146218299866,0.2818411886692047,0.7276160717010498,0
223931,0.0007804097840562,-0.004495607689023,1.0013848543167114,-2.912927865982056,4.008701324462891,-0.7070962190628052,0.0251751635223627,0.037533551454544,0.5314077138900757,0.3731051385402679,0.2805750966072082,0.7035674452781677,0
223981,0.0093649923801422,-0.0161464530974626,0.9830358028411864,-3.356381416320801,1.9930115938186648,-1.737819790840149,0.024794265627861,0.0371831767261028,0.5379718542098999,0.2233524173498153,0.1391789615154266,0.6337829232215881,0
224091,0.0075146285817027,-0.0065418756566941,0.9906930327415466,-0.4263083636760711,1.3047024011611938,-2.848048448562622,0.0178478583693504,0.0367727763950824,0.5454686284065247,-0.1071810349822044,0.0119653129950165,0.4236344695091247,0
224111,0.0072171175852417,-0.0090079559013247,0.9777774214744568,-1.65366792678833,2.300388813018799,-2.385246992111206,0.0175811871886253,0.0366335101425647,0.5465445518493652,-0.1358056515455246,-0.0163250900804996,0.3683945536613464,0
224271,0.0107329934835433,-0.0033023236319422,1.0083253383636477,0.8159411549568176,-0.4567894339561462,-0.3930154740810394,0.0153489811345934,0.0338345021009445,0.5404818654060364,-0.3307190835475921,-0.3148178458213806,0.1416541785001754,0
224281,0.0038329837843775,-0.0103379022330045,1.0122177600860596,0.9717276692390442,-0.5327911972999573,-0.8444056510925293,0.0153257809579372,0.0315039753913879,0.5404394865036011,-0.3122674226760864,-0.3154119253158569,0.1350594162940979,0
224301,0.0095833847299218,-0.0099683413282036,0.9879496693611144,1.024726629257202,-1.1312029361724854,-1.1603612899780271,0.0153346033766865,0.0335531271994113,0.5438716411590576,-0.3016793131828308,-0.3125478029251098,0.1189301386475563,0
224341,0.0039664288051426,-0.0164408963173627,1.0165811777114868,-0.0909704267978668,-0.0424300618469715,-0.6441071629524231,0.0126842521131038,0.0379736348986625,0.5433863401412964,-0.3056990504264831,-0.2751537561416626,0.066057913005352,0
224451,0.0036569689400494,-0.019299678504467,1.0252248048782349,1.727437138557434,-2.3958680629730225,-0.4293009340763092,0.0150285214185714,0.0383009947836399,0.5433167219161987,-0.1045231074094772,-0.1862228810787201,-0.008199461735785,0
224471,-0.0001981995883397,-0.0123329563066363,1.00209379196167,0.9213479161262512,-1.2495193481445312,-0.1283391565084457,0.0172159634530544,0.0380536019802093,0.5437066555023193,-0.076033316552639,-0.1660027652978897,-0.0174237377941608,0
224561,0.0089575638994574,-0.013356658630073,1.0217084884643557,-0.4652229845523834,-4.242403030395508,-0.8531290888786316,0.0215917788445949,0.0374970063567161,0.5452944040298462,0.0357783250510692,-0.030454147607088,-0.0812447592616081,0
224621,0.0057655717246234,-0.0172607954591512,0.9853519797325134,0.9570278525352478,1.742065668106079,-0.0225445851683616,0.0233300607651472,0.0395029857754707,0.5437678098678589,0.0506200082600116,0.0584481284022331,-0.1100285425782203,0
224671,0.0070426235906779,-0.0096229091286659,0.998011827468872,0.1502449661493301,-1.6168848276138306,-0.274743914604187,0.0231264904141426,0.0370452515780925,0.5440936088562012,0.0787950754165649,0.0310034584254026,-0.126384824514389,0
224771,0.0065246769227087,-0.0119369253516197,0.98909991979599,2.0623533725738525,1.8495194911956787,0.4359324872493744,0.0220071859657764,0.0358836911618709,0.5508766174316406,0.1422108858823776,0.211580604314804,-0.1250829696655273,0
224791,0.0193211175501346,-0.0160961113870143,0.9822505116462708,0.2327221632003784,2.985128164291382,0.4399286806583404,0.0221891961991786,0.0381680205464363,0.5513722896575928,0.1417949199676513,0.1759079098701477,-0.1190597042441368,0
224801,0.0180028807371854,-0.0141222607344388,0.9949387907981871,-0.8071733713150024,2.1665987968444824,0.0829725489020347,0.0222519654780626,0.0382099859416484,0.5513706207275391,0.1382715404033661,0.1527212858200073,-0.1165322139859199,0
224891,0.0183629188686609,-0.0139919342473149,0.989752233028412,0.6516780853271484,-0.8717566728591919,-0.2210653573274612,0.0275231786072254,0.0557086318731308,0.5571590662002563,0.0707759484648704,0.0503014214336872,-0.1247165277600288,0
224951,0.0067104599438607,-0.0067115863785147,0.9713585376739502,1.9002573490142824,0.319730132818222,0.401233971118927,0.0271952431648969,0.058223720639944,0.5566133856773376,0.1848931759595871,0.1766594648361206,-0.1241984218358993,0
224971,0.0086669949814677,-0.0056424369104206,0.9656170010566713,0.6123049855232239,1.3764491081237793,1.1962133646011353,0.0272204112261533,0.0601678900420665,0.556723952293396,0.2219945788383484,0.1811528652906417,-0.1108164712786674,0
225071,0.0158716049045324,0.0027481634169816,0.9859408140182496,1.3368147611618042,-1.607093334197998,0.3141964077949524,0.0321200788021087,0.0646101683378219,0.5509633421897888,0.3855028450489044,0.202438086271286,-0.0726510435342788,0
225121,0.0035199110861867,-0.0060689589008688,1.0054352283477783,2.9829649925231934,1.0113259553909302,0.9623883366584778,0.0318632945418357,0.0668723881244659,0.5489678382873535,0.4957330226898193,0.2429763078689575,-0.0505187697708606,0
225141,0.014486857689917,-0.0050094253383576,1.0077825784683228,1.7737361192703247,-1.097633957862854,1.159184455871582,0.0342645421624183,0.0664033517241478,0.5481124520301819,0.5551000237464905,0.2233491390943527,-0.0295017138123512,0
225201,0.001642563031055,-0.0080156000331044,1.0189887285232544,-2.220824956893921,2.4049813747406006,1.9661790132522583,0.0328231304883956,0.0683597177267074,0.5392400622367859,0.6646484732627869,0.1793802827596664,0.0774697661399841,0
225291,0.0128698665648698,-0.0022812623064965,1.0374761819839478,-4.297774791717529,-0.0329945832490921,1.9690830707550049,0.0340544395148754,0.0651023089885711,0.5346153974533081,0.4299546480178833,0.0467842519283294,0.2614802718162536,0
225311,0.0163340587168931,-0.0086592119187116,1.024285912513733,-4.092965602874756,-0.5141928791999817,1.8814501762390137,0.0338905863463878,0.0617486573755741,0.5369488000869751,0.3555276691913605,0.0498792380094528,0.2970583438873291,0
225361,-0.0011391820153221,-9.544477507006376e-05,1.0300716161727903,2.548699378967285,3.3236794471740723,2.587904214859009,0.0318792723119258,0.0572181269526481,0.5330410003662109,0.3233634829521179,0.037939041852951,0.3866764903068542,0
225471,0.0216166619211435,0.006519803777337,1.0073788166046145,-3.942278861999512,-0.099441297352314,1.46579909324646,0.0337654203176498,0.0464854761958122,0.5314639210700989,-0.1517065167427063,0.1004355773329734,0.5484616160392761,0
225501,0.0314471609890461,-0.0174561403691768,1.0049093961715698,0.7315136790275574,3.2736916542053223,1.8336212635040283,0.0349762812256813,0.0471717156469821,0.5310357809066772,-0.2127615362405777,0.0632823035120964,0.6046672463417053,0
225501,0.0314471609890461,-0.0174561403691768,1.0049093961715698,0.7315136790275574,3.2736916542053223,1.8336212635040283,0.0349762812256813,0.0471717156469821,0.5310357809066772,-0.2127615362405777,0.0632823035120964,0.6046672463417053,0
225511,0.0170015711337327,-0.0004585229908116,1.031221628189087,1.0318981409072876,3.383979797363281,2.0814833641052246,0.0357463248074054,0.0446121729910373,0.5311006903648376,-0.1970235258340835,0.0310230106115341,0.6233667135238647,0
225651,0.0188787318766117,-0.0223275907337665,1.0190753936767578,0.6913564205169678,0.9435917139053344,-0.6246345043182373,0.0358131974935531,0.0318578034639358,0.5383621454238892,-0.4297429919242859,0.1682551801204681,0.6261128187179565,0
225671,0.0070553566329181,-0.0054036364890635,0.9833729863166808,-2.0597238540649414,2.896930932998657,-1.1094037294387815,0.0358284600079059,0.0316033363342285,0.5399734973907471,-0.4300344288349151,0.1562659293413162,0.6194204092025757,0
225771,0.0106446081772446,-0.017742658033967,0.9765958189964294,5.440210819244385,-3.274371385574341,-1.0143834352493286,0.0375436916947364,0.0267789047211408,0.5398598313331604,-0.6821638941764832,0.0429328046739101,0.5117790102958679,0
225841,0.0044991769827902,-0.0116409081965684,0.9802424311637878,-0.3666005134582519,1.2099928855895996,-0.8646104335784912,0.0373980738222599,0.028178846463561,0.538287341594696,-0.517251193523407,0.1116099432110786,0.4616956710815429,0
225891,0.0069409972056746,-0.0013690388295799,0.9973185062408448,1.1111211776733398,0.1772676259279251,-0.7213025689125061,0.036426056176424,0.0285620912909507,0.5407558083534241,-0.514743983745575,-0.0195591300725936,0.4258496165275574,0
226001,0.0098450882360339,-0.0147693967446684,0.9989506006240844,5.998429298400879,2.721789121627808,-1.8616290092468264,0.0340680964291095,0.0419504009187221,0.5391026735305786,0.0022557452321052,-0.0025887342635542,0.2796119451522827,0
226171,0.0160224698483943,-0.0002674806164577,0.9699215292930604,1.8055005073547363,0.2183659225702285,-1.628926157951355,0.0354229062795639,0.0554760135710239,0.5475420355796814,0.312550812959671,0.1156254485249519,-0.0106549318879842,0
226201,0.0084972772747278,-0.0029113083146512,0.9705384969711304,1.85797119140625,-0.97997784614563,-1.383208394050598,0.0351418815553188,0.0575481429696083,0.5475752949714661,0.3338219225406647,0.1363624036312103,-0.0418483652174472,0
226201,0.0084972772747278,-0.0029113083146512,0.9705384969711304,1.85797119140625,-0.97997784614563,-1.383208394050598,0.0351418815553188,0.0575481429696083,0.5475752949714661,0.3338219225406647,0.1363624036312103,-0.0418483652174472,0
226211,0.0039282338693737,-0.0090776616707444,0.976948857307434,2.473357677459717,0.2887455821037292,-1.3067561388015747,0.0355911292135715,0.0596416778862476,0.5429248809814453,0.3637641370296478,0.122210793197155,-0.0681917071342468,0
226301,0.0153621975332498,0.000921857310459,0.9921695590019226,2.9109644889831543,0.0112974178045988,-0.276040107011795,0.0328073278069496,0.0631880909204483,0.5390611886978149,0.5492034554481506,0.0916517823934555,-0.1512909233570099,0
226371,-0.0014013889012858,-0.0179630871862173,1.0283749103546145,0.4094841480255127,0.7535561919212341,-0.31065833568573,0.0332035422325134,0.0695980787277221,0.5345319509506226,0.6606041789054871,0.0458273217082023,-0.1796689480543136,0
226381,0.0178982336074113,-0.0089983409270644,1.017369270324707,-0.4658943712711334,1.473283767700195,-0.2967307865619659,0.0331344492733478,0.0697974637150764,0.5341081619262695,0.6595127582550049,0.0429311320185661,-0.1828411221504211,0
226451,0.0070337001234292,-0.0129425767809152,1.0460458993911743,-1.7578965425491333,-0.1056281551718711,-0.1984996348619461,0.0283455960452556,0.0750427693128585,0.5291031002998352,0.6291748881340027,-0.0037588900886476,-0.1888851225376129,0
226531,0.0177672896534204,-0.0145105756819248,1.0511080026626587,-0.6276909708976746,0.9092077612876892,0.0048013227060437,0.0282665267586708,0.0681788623332977,0.5271895527839661,0.5013299584388733,-0.0544401295483112,-0.2016805410385131,0
226541,0.0144228199496865,-0.0094988504424691,1.0261280536651611,-2.466336965560913,1.4419925212860107,-0.5393771529197693,0.0280378237366676,0.0681587681174278,0.5270542502403259,0.4656768441200256,-0.0800186395645141,-0.2064133584499359,0
226641,0.0037582765799015,-0.0006001568981446,1.0242433547973633,-0.9209019541740416,0.7522345781326294,-0.3521284759044647,0.0255066212266683,0.0663666501641273,0.5308741927146912,0.1399756968021392,-0.0785870924592018,-0.239006370306015,0
226661,0.0010970309376716,-0.0143262147903442,1.007935881614685,0.2309097647666931,0.9534153938293456,-0.1017590016126632,0.0286544896662235,0.0667231902480125,0.5310643911361694,0.1063310354948043,-0.1128092929720878,-0.2446705102920532,0
226711,0.0073518268764019,-0.0127467820420861,0.996687650680542,-2.7000436782836914,-3.300261974334717,-0.555753231048584,0.025789326056838,0.0664912387728691,0.5305424332618713,0.088355503976345,-0.131054937839508,-0.258093386888504,0
226821,0.0070491088554263,0.0015544339548796,0.9899247288703918,-0.8534497022628784,-2.208946943283081,0.1579851657152176,0.0270418543368577,0.0618413425981998,0.5313916206359863,-0.195062905550003,-0.159298688173294,-0.2665456235408783,0
226821,0.0070491088554263,0.0015544339548796,0.9899247288703918,-0.8534497022628784,-2.208946943283081,0.1579851657152176,0.0269942004233598,0.0617151223123073,0.5313074588775635,-0.2047096043825149,-0.1434827446937561,-0.2647981345653534,0
226961,0.0077273538336157,-0.010968217626214,0.970538318157196,2.137866973876953,-0.895835816860199,-0.0409110151231288,0.0275899488478899,0.067237302660942,0.5389647483825684,-0.2644000947475433,-0.1213290095329284,-0.2118858397006988,0
226971,0.0120025686919689,-0.0146680567413568,0.9744887351989746,2.3110811710357666,-0.1363744735717773,0.1780665814876556,0.0275899488478899,0.067237302660942,0.5389647483825684,-0.2644000947475433,-0.1213290095329284,-0.2118858397006988,0
227021,0.0124258613213896,-0.0104245813563466,0.9858992695808412,-0.2645399272441864,-0.4569600224494934,-0.5489189624786377,0.0303829964250326,0.0702840536832809,0.5375994443893433,-0.2297694385051727,-0.0780909359455108,-0.2073059678077697,0
227521,-0.0050551751628518,-0.0080108838155865,0.9893029928207396,-3.53060245513916,-2.252072095870972,-0.2937746345996856,0.0420484840869903,0.1059125885367393,0.5254614353179932,0.7146337628364563,0.14475679397583,-0.0761975571513176,0
227551,0.0282285045832395,-0.0102201681584119,0.9971084594726562,-5.586735248565674,-1.3488428592681885,-0.4499292969703674,0.041115716099739,0.1050034537911415,0.5248742699623108,0.6170339584350586,0.1941604763269424,-0.0812015458941459,0
227701,0.0107868481427431,-0.0003385236486792,0.9935586452484132,-5.054611682891846,3.669265508651733,-1.057434320449829,0.0415285266935825,0.100344181060791,0.5266304612159729,0.0112224388867616,0.1969858556985855,-0.2322525084018707,0
227741,0.0057440507225692,-0.0087923733517527,1.0027645826339722,-2.7489681243896484,2.0794661045074463,-1.004050374031067,0.0414811931550502,0.1000900641083717,0.5290738940238953,-0.0712848380208015,0.1325104981660843,-0.2628083825111389,0
227741,0.0057440507225692,-0.0087923733517527,1.0027645826339722,-2.7489681243896484,2.0794661045074463,-1.004050374031067,0.0414660908281803,0.1000093892216682,0.5291746854782104,-0.0924055054783821,0.1001322418451309,-0.2729734778404236,0
227851,0.0115371132269501,-0.0065857130102813,0.9848601222038268,-0.7321701645851135,-0.1154549717903137,-0.8927615880966187,0.0370008051395416,0.0978513956069946,0.5297480821609497,-0.2426604330539703,-0.0809371992945671,-0.3570640385150909,0
227971,0.0141699556261301,-0.0080142691731452,1.0030934810638428,1.1845526695251465,-0.1048341691493988,0.110817052423954,0.0354334823787212,0.1045511066913604,0.5226905941963196,-0.2777459621429443,-0.1691397875547409,-0.4199315905570984,0
228131,0.0082613909617066,-0.0111466720700263,0.993604063987732,5.796570301055908,-0.9795485138893129,-0.8472804427146912,0.0351941734552383,0.1249436065554618,0.5293412208557129,0.2018434405326843,-0.1510260701179504,-0.4861651062965393,0
228161,0.0086836526170372,-0.0091982036828994,0.9814049005508424,4.17902135848999,-0.5645376443862915,-1.1109009981155396,0.0348715260624885,0.1274072527885437,0.5296515226364136,0.4334691166877746,-0.1245331764221191,-0.5284481644630432,0
228321,0.0004850949335377,-0.0049354792572557,0.9858550429344176,1.5574116706848145,-0.7278248071670532,-0.5998233556747437,0.0376238860189914,0.1425471007823944,0.5252698063850403,0.7960432171821594,-0.0095537053421139,-0.6703041195869446,0
228341,-0.0010963556123897,-0.0049552251584827,0.9887918829917908,-1.20709490776062,0.2237522900104522,-0.4921367764472961,0.037677776068449,0.1428481638431549,0.5248216986656189,0.8180737495422363,-0.0130815133452415,-0.676860511302948,0
228361,0.0108695402741432,-0.0141113176941871,1.0070565938949585,-0.1781385093927383,-1.4282306432724,-0.3049815595149994,0.0398684963583946,0.1443103402853012,0.523888111114502,0.8201820850372314,-0.0238909292966127,-0.6852867603302002,0
228531,0.0198105797171592,-0.0190126672387123,1.0568089485168457,-0.6655628681182861,2.4785749912261963,0.0653932392597198,0.0412895865738391,0.1484429687261581,0.5191200375556946,0.7923333048820496,0.0259330794215202,-0.7345046401023865,0
228671,0.0174115002155303,-0.0008119291160255,1.0047279596328735,-4.879333019256592,-2.9454448223114014,-0.1690732985734939,0.0455202534794807,0.1473382711410522,0.5247237682342529,0.304339736700058,0.1868669837713241,-0.7492738962173462,0
228701,0.0072794412262737,0.0011065369471907,1.0160590410232544,-4.756772518157959,-2.0640294551849365,-0.6569726467132568,0.0448408350348472,0.1431351006031036,0.5259770154953003,0.1792574524879455,0.2777570784091949,-0.7613620162010193,0
228791,0.0166209079325199,-0.018949843943119,0.97512948513031,-3.118528127670288,-0.6993089914321899,0.2651935815811157,0.0478187464177608,0.1389812678098678,0.5288295149803162,-0.1325944662094116,0.199563130736351,-0.7741976380348206,0
228891,0.0106111839413642,-0.0160964839160442,0.9946274757385254,-0.7025480270385742,1.6497856378555298,-0.4088483154773712,0.0458387732505798,0.135976031422615,0.525917112827301,-0.403406947851181,0.1283218115568161,-0.7417957782745361,0
229031,0.0351561866700649,-0.0026516343932598,0.9795902371406556,3.4525578022003174,-0.7372763156890869,-0.2814336717128753,0.0469200387597084,0.1416947245597839,0.5203042030334473,-0.183799535036087,0.0574015080928802,-0.741936445236206,0
229051,0.0148338060826063,-0.0138895027339458,1.027275323867798,4.473493576049805,0.7207000851631165,-0.0218256711959838,0.0471596047282218,0.1456278413534164,0.5194048881530762,-0.0900022014975547,0.0469825007021427,-0.7472367286682129,0
229101,0.0073751457966864,-0.0130689144134521,1.038949489593506,5.784621715545654,0.1083487719297409,0.1645611375570297,0.0444151870906353,0.1491594761610031,0.5201097726821899,0.1375430673360824,0.057195995002985,-0.7350608110427856,0
229191,0.0116529865190386,-0.0082754101604223,1.0123028755187988,2.4309027194976807,1.6146283149719238,-0.4483072757720947,0.0439278781414032,0.1573753207921981,0.5222349166870117,0.2379443496465683,-0.0767021998763084,-0.748120129108429,0
229221,0.0121561959385871,-0.0356644317507743,1.0376780033111572,2.4914278984069824,1.980833649635315,-0.3006787598133087,0.0425014197826385,0.1588162928819656,0.5225512385368347,0.2867627739906311,-0.1283201277256012,-0.7670553922653198,0
229401,0.0036467164754867,-0.0141553319990634,0.9936915040016174,3.034998178482056,2.319688081741333,0.9873057007789612,0.0442919954657554,0.1729536801576614,0.5263381600379944,0.3746499121189117,-0.075051724910736,-0.7380462884902954,0
229531,-0.0060798493213951,-0.0072644632309675,1.0012315511703491,1.1288589239120483,-3.979430913925171,-0.1940293312072754,0.0461105331778526,0.1876289397478103,0.5187472105026245,0.7773839235305786,0.0188147146254777,-0.6596226692199707,0
229571,0.0139379668980836,-0.0064596165902912,1.003759503364563,-1.240181803703308,-0.7648166418075562,-0.26621213555336,0.0479031354188919,0.1877965629100799,0.5176652073860168,0.7881730198860168,0.0996079072356224,-0.6709228754043579,0
229811,0.017937034368515,-0.0235068555921316,1.0409928560256958,1.6170077323913574,2.4732797145843506,-0.0344762839376926,0.0564949624240398,0.1880539506673813,0.5164792537689209,0.3399029672145843,0.3424150943756103,-0.6487685441970825,0
229831,0.005918784532696,0.0022223284468054,1.0108728408813477,1.6106655597686768,2.196438789367676,0.438854455947876,0.0543140433728694,0.1850935667753219,0.5164321064949036,0.3857311308383941,0.2942037284374237,-0.6438387036323547,0
230061,0.0106198852881789,-0.01336822938174,1.0066165924072266,0.5011534094810486,1.6746749877929688,0.4975898563861847,0.0535907335579395,0.1754074692726135,0.5130406618118286,-0.3170506358146667,0.1319610923528671,-0.6257046461105347,0
230081,0.0076169753447175,-0.0128231290727853,1.019355535507202,-1.752931833267212,1.0678424835205078,0.3495036661624908,0.0535466000437736,0.175213947892189,0.5130119323730469,-0.3282394111156463,0.1196829825639724,-0.6230978965759277,0
230241,0.0137161398306488,-0.0186347290873527,0.9511899948120116,0.1956186592578888,-1.7666345834732056,-0.3177442848682403,0.0455450229346752,0.1795577108860016,0.5149561762809753,-0.1847900301218032,-0.098051942884922,-0.5742048621177673,0
230271,0.0109237097203731,-0.0128384847193956,0.9905040860176086,1.0608688592910769,-0.5795027613639832,-0.4285387992858886,0.045554544776678,0.1791390180587768,0.5156156420707703,-0.1648508906364441,-0.0766472592949867,-0.5830925107002258,0
230381,0.0094793606549501,-0.0110610090196132,0.9946491718292236,-0.3097437918186188,0.4038813710212707,0.331213504076004,0.0423775017261505,0.1792371273040771,0.5130525231361389,-0.148158386349678,-0.2234984189271927,-0.6098050475120544,0
230441,0.0082443859428167,-0.0050363955087959,0.9945598244667052,2.9840474128723145,-1.7691826820373535,-0.2957424819469452,0.0402135588228702,0.1837813854217529,0.5159361958503723,-0.0998668074607849,-0.2084385454654693,-0.6089394092559814,0
230471,0.0006244312389753,-0.012804671190679,1.021067500114441,3.997403621673584,-2.688358783721924,-0.4170964062213897,0.0422771796584129,0.1864546537399292,0.5209970474243164,0.0292949564754962,-0.1514287590980529,-0.6237836480140686,0
230481,0.0170317217707633,-0.0200403314083814,1.0146560668945312,4.77174186706543,-0.6976667046546936,-0.0982237681746482,0.0422771796584129,0.1864546537399292,0.5209970474243164,0.0292949564754962,-0.1514287590980529,-0.6237836480140686,0
230661,0.0092830061912536,-0.0089285308495163,0.989058554172516,-0.4494900405406952,-2.043930053710937,0.1943177133798599,0.0473185963928699,0.1983176171779632,0.5169521570205688,0.2599159777164459,-0.0732307359576225,-0.7125049829483032,0
230681,0.0087042599916458,-0.025334071367979,1.004816651344299,1.0757673978805542,-3.3988513946533203,-0.324623554944992,0.0495871305465698,0.198555514216423,0.5162855386734009,0.2533163726329803,0.0054522100836038,-0.7187228202819824,0
230891,0.0171723514795303,-0.0057526347227394,1.034205436706543,0.7208651900291443,3.02671217918396,0.4289859235286712,0.0593764260411262,0.2024212181568145,0.5104423761367798,0.2019536644220352,0.3081665933132171,-0.6660555005073547,0
230921,0.002492673927918,0.0146662183105945,1.0146514177322388,2.964340925216675,0.7677078247070312,-0.0431706458330154,0.0597860664129257,0.2025767266750335,0.5106105804443359,0.262763649225235,0.2595081031322479,-0.6555851101875305,0
231031,0.0113953556865453,-0.0137012461200356,0.9981217980384828,-1.0230079889297483,3.908050298690796,-0.3450103104114532,0.0608047656714916,0.209165871143341,0.5128879547119141,0.0873161107301712,0.3044773638248443,-0.6813101768493652,0
231111,0.0207158047705888,-0.0054762307554483,0.9609077572822572,2.433990240097046,0.3799504041671753,-0.6174395084381104,0.0586256273090839,0.2083191573619842,0.5180836319923401,0.3748628199100494,0.1544910669326782,-0.7029459476470947,0
231121,0.0010545219993218,-0.0092342225834727,0.9611040353775024,2.126289367675781,0.9117885828018188,-0.926398754119873,0.0562152452766895,0.2104912400245666,0.5143324136734009,0.3837994337081909,0.1639305502176284,-0.7105734348297119,0
231291,0.019723393023014,-0.0243100356310606,1.020578384399414,1.3143504858016968,-0.4529420435428619,1.3277931213378906,0.0541161112487316,0.2092522829771042,0.5100710988044739,0.1342749744653701,-0.0825173258781433,-0.7266348004341125,0
231301,0.0225349701941013,-0.0015477709239348,0.9935454726219176,1.8663843870162964,-0.3561596870422363,1.253209948539734,0.054064605385065,0.2092234939336776,0.5121651887893677,0.1492667943239212,-0.0757939666509628,-0.7117947340011597,0
231431,0.0143606029450893,-0.0076140230521559,1.014479160308838,-1.0205928087234497,-3.6747870445251465,0.7391717433929443,0.0478366911411285,0.2156669348478317,0.5064284801483154,0.0359986908733844,-0.190517783164978,-0.5670269727706909,0
231511,0.0179863404482603,-0.0073239654302597,1.0207948684692385,0.0403267182409763,0.0287845768034458,-0.1202736273407936,0.049824770539999,0.2159514278173446,0.507902204990387,0.0240059532225132,-0.1624722480773925,-0.5455791354179382,0
231511,0.0179863404482603,-0.0073239654302597,1.0207948684692385,0.0403267182409763,0.0287845768034458,-0.1202736273407936,0.049824770539999,0.2159514278173446,0.507902204990387,0.0240059532225132,-0.1624722480773925,-0.5455791354179382,0
231661,0.0038414683658629,-0.0157519541680812,0.9986742734909058,2.412292242050171,-3.5712571144104004,-1.1102737188339231,0.049323447048664,0.2252095490694046,0.5141744017601013,0.3940490484237671,-0.1212190836668014,-0.5657535791397095,0
231741,0.0119444699957966,-0.0104242302477359,0.984492301940918,0.7488793730735779,2.4860706329345703,-0.1711996644735336,0.0506769567728042,0.227323368191719,0.5154674053192139,0.2186351418495178,-0.1017106994986534,-0.636299192905426,0
231851,0.007362525910139,-0.0197480171918869,0.9818547964096068,2.195211172103882,1.0387357473373413,0.4659278094768524,0.0563778989017009,0.2284117192029953,0.5189287066459656,0.3482330739498138,0.0558115467429161,-0.6396797895431519,0
231881,0.0124190747737884,-0.0174822974950075,0.9718710780143738,0.1465024352073669,0.6631643176078796,-0.7729734182357788,0.0566031038761138,0.2284756153821945,0.5190553069114685,0.3814572989940643,0.0292789675295352,-0.6370739340782166,0
231881,0.0124190747737884,-0.0174822974950075,0.9718710780143738,0.1465024352073669,0.6631643176078796,-0.7729734182357788,0.0567144379019737,0.2284983694553375,0.5190899968147278,0.3870324194431305,0.0105073237791657,-0.6427739858627319,0
232031,0.0018605920486152,-0.003697914071381,1.0387681722640991,0.0837564244866371,-3.46407151222229,0.1955832093954086,0.0610603764653205,0.2325575649738311,0.5069161653518677,0.0906118303537368,0.2844234704971313,-0.6486533284187317,0
232051,0.0059771090745925,-0.0184646025300025,1.0417662858963013,2.367228984832764,0.0950055494904518,0.2977440357208252,0.0614006519317626,0.2325906455516815,0.5056091547012329,0.1081053242087364,0.3482942283153534,-0.6387182474136353,0
232051,0.0059771090745925,-0.0184646025300025,1.0417662858963013,2.367228984832764,0.0950055494904518,0.2977440357208252,0.0614006519317626,0.2325906455516815,0.5056091547012329,0.1081053242087364,0.3482942283153534,-0.6387182474136353,0
232151,0.0254132244735956,-0.0140828005969524,1.040764570236206,-3.7848308086395264,-4.116203784942627,-0.3830101191997528,0.0628669708967208,0.2421319931745529,0.5073326230049133,0.0571171529591083,0.2308181524276733,-0.6458383202552795,0
232211,0.0025094668380916,-0.0089318314567208,1.024624943733215,2.770401954650879,1.6114182472229004,-0.4933948218822479,0.0614450387656688,0.2437655627727508,0.503963053226471,0.0059507070109248,0.3256551623344421,-0.6655159592628479,0
232311,-0.0123118124902248,-0.0079714581370353,1.0384870767593384,1.204304814338684,-3.1154587268829346,-0.163045659661293,0.0621080175042152,0.2514139115810394,0.5021562576293945,0.2648480236530304,0.0919359251856803,-0.6821622252464294,0
232421,0.0126712378114461,-0.0014939602697268,0.9911845922470092,4.251214027404785,5.006938457489014,-0.0629546642303466,0.0589595846831798,0.2576589286327362,0.5098723769187927,0.1983465105295181,-0.0480437874794006,-0.6724006533622742,0
232461,0.0015260805375874,-0.0314243510365486,1.044956922531128,4.348597526550293,-0.931031048297882,0.6768062710762024,0.0553503297269344,0.2635128796100616,0.5141116976737976,0.40380859375,-0.1153050437569618,-0.6464249491691589,0
232561,0.0145029798150062,-0.0149375451728701,0.9816051721572876,0.9840821027755736,2.2979040145874023,-0.3039303719997406,0.0504023320972919,0.2680124342441559,0.5117374658584595,0.6052331328392029,-0.2091613560914993,-0.5768788456916809,0
232641,0.0137115316465497,-0.0059640067629516,1.007563829421997,-1.4937139749526978,0.3046883344650268,0.995407223701477,0.0506082884967327,0.2748203873634338,0.5096784234046936,0.5116857290267944,-0.3367878496646881,-0.5816342830657959,0
232691,0.0131633188575506,-0.006143900565803,1.0164592266082764,-2.508089065551758,-0.6611245274543762,0.7795984745025635,0.0501689650118351,0.2731833755970001,0.5098240375518799,0.361094057559967,-0.3074962794780731,-0.5208168029785156,0
232691,0.0131633188575506,-0.006143900565803,1.0164592266082764,-2.508089065551758,-0.6611245274543762,0.7795984745025635,0.0501689650118351,0.2731833755970001,0.5098240375518799,0.361094057559967,-0.3074962794780731,-0.5208168029785156,0
232821,0.019242275506258,-0.0124417394399642,0.9968914985656738,-2.543154001235962,-2.786571264266968,-1.2671416997909546,0.0533558614552021,0.2755979001522064,0.5104652047157288,0.1231555193662643,-0.1597337871789932,-0.5111753940582275,0
232841,0.0088781528174877,-0.0019522013608366,1.009291648864746,-0.4198999404907226,-2.2585654258728027,-1.3149666786193848,0.0533938929438591,0.2756643891334533,0.5105540752410889,0.107849508523941,-0.1317337602376938,-0.5270819664001465,0
233001,0.0095806298777461,-0.0126246167346835,1.014482021331787,2.597691535949707,-3.5470588207244877,-1.474452018737793,0.0617910698056221,0.2805353999137878,0.5086012482643127,0.3995382487773895,0.1451496034860611,-0.678001880645752,0
233171,0.0044357352890074,0.0072171939536929,1.0118687152862549,3.131657361984253,-2.3629441261291504,-0.7046040892601013,0.0710724294185638,0.2836103737354278,0.5048739314079285,0.1852347552776336,0.334181398153305,-0.8551937937736511,0
233181,-0.0034883285406976,-0.0022868320811539,0.9783258438110352,1.4128841161727903,-1.5879123210906982,-1.2758482694625854,0.070015899837017,0.2858515679836273,0.5048264861106873,0.2057494670152664,0.3636403083801269,-0.859285295009613,0
233201,0.0105727585032582,-0.0115478569641709,1.0142394304275513,1.5725009441375732,-0.3044922351837158,-0.5922655463218689,0.0727626904845237,0.2858839631080627,0.5051739811897278,0.2227694541215896,0.3868275284767151,-0.888668417930603,0
233301,-6.23215310042724e-05,-0.0040925871580839,1.0026172399520874,2.954597949981689,-3.497914552688598,-0.0750235095620155,0.0739327743649482,0.2932279109954834,0.50300133228302,0.129610002040863,0.4307498037815094,-0.954884111881256,0
233311,0.0080723315477371,-0.0086141042411327,0.9892005920410156,1.5890545845031738,-2.9470880031585693,0.2129608690738678,0.073974072933197,0.2932628691196441,0.5049312114715576,0.1520890593528747,0.457540214061737,-0.9519574642181396,0
233381,0.0132883489131927,-0.0051377541385591,0.9981521368026732,-1.0862387418746948,4.880428314208984,-0.2033843845129013,0.0722448751330375,0.2952715456485748,0.5048521161079407,0.3140866458415985,0.3359152376651764,-0.9703063368797302,0
233391,0.0081909159198403,-0.0105244815349578,1.0112041234970093,-1.968867540359497,4.103715419769287,1.0053317546844482,0.0701320245862007,0.298882395029068,0.5049769878387451,0.2774795293807983,0.307833582162857,-0.9634527564048768,0
233541,0.0115756588056683,-0.0064200204797089,0.9771838784217834,-3.1194398403167725,2.054433584213257,-0.569447934627533,0.067896768450737,0.3050232529640198,0.5158624649047852,0.3976277709007263,0.0241427272558212,-0.8753524422645569,0
233671,0.0159574318677186,-0.0054166633635759,1.0032448768615725,1.7922368049621582,1.0501573085784912,0.7867545485496521,0.0616959296166896,0.308363139629364,0.5126909613609314,0.1949109584093094,-0.0347719341516494,-0.8094646334648132,0
233721,0.0019452671986073,-0.0095990123227238,1.0015887022018433,-0.6759424805641174,1.7926796674728394,-1.157689929008484,0.0633060038089752,0.3122550249099731,0.5107318162918091,0.2816560566425323,-0.1422904282808303,-0.7886278629302979,0
233751,0.0134099703282117,-0.0069908173754811,1.0020723342895508,1.0728540420532229,1.844285607337952,0.1058172062039375,0.060369174927473,0.3165235817432403,0.5095094442367554,0.2870465815067291,-0.2098508477210998,-0.8036034107208252,0
233851,0.0111519861966371,-0.0043466221541166,1.005451798439026,-0.1581687331199646,-2.0459237098693848,0.7374275326728821,0.060498334467411,0.3267299234867096,0.5072209239006042,0.2656636238098144,-0.2007821500301361,-0.7368428111076355,0
233911,0.0089746955782175,0.005280006211251,0.9798658490180968,7.748104572296143,0.2090467661619186,0.6429439187049866,0.0619369186460971,0.3324958682060241,0.5054511427879333,0.5065162777900696,-0.1352201998233795,-0.6718118786811829,0
233931,0.0113117573782801,-0.0183904860168695,1.0216487646102903,7.850760936737059,0.3373284637928009,0.9229605793952942,0.0621627904474735,0.3328282535076141,0.5053631067276001,0.5962127447128296,-0.1417635679244995,-0.6653977632522583,0
233941,0.0284260474145412,-0.0199792142957448,1.002658724784851,5.46504545211792,0.6704965829849243,0.7065805792808533,0.0622969008982181,0.3335291147232055,0.5052208304405212,0.7413415908813477,-0.1568429172039032,-0.649539053440094,0
234091,0.0274945814162492,-0.0010821449104696,1.0005741119384766,2.6687965393066406,-3.5224645137786865,0.4625105261802673,0.0667595639824867,0.3402748107910156,0.5013752579689026,0.471854418516159,-0.0410824939608573,-0.5926445722579956,0
234101,-0.0034902582410722,-0.0049620289355516,1.0153932571411133,2.078157424926758,-2.8679888248443604,0.3042853474617004,0.0686606913805008,0.339410662651062,0.50127774477005,0.5071576237678528,-0.0213813669979572,-0.5890156030654907,0
234121,-6.581084744539112e-05,-0.0063067367300391,0.9946215748786926,0.3358081877231598,-2.8713266849517822,0.7409214377403259,0.0687525793910026,0.3395149409770965,0.5011886954307556,0.5269017815589905,0.026823554188013,-0.5873402953147888,0
234171,0.0089382110163569,-0.0081048058345913,1.0162553787231443,-1.5906189680099487,-1.0073665380477903,0.3761330544948578,0.0725665912032127,0.3442160189151764,0.5046856999397278,0.4661213755607605,0.0884591937065124,-0.5373485684394836,0
234281,0.0117609975859522,0.0059509063139557,1.002082347869873,-5.310553073883057,-2.177552461624145,0.010504063218832,0.0734060630202293,0.3505830764770508,0.5092021226882935,0.6737018823623657,0.0269250236451625,-0.5649610757827759,0
234301,0.0156051618978381,-0.0018658722983673,1.0014464855194092,-6.105097770690918,-3.86261773109436,-0.3439290225505829,0.0750399157404899,0.3493715524673462,0.5118297338485718,0.5229588150978088,0.1196367442607879,-0.5666088461875916,0
234381,0.0141117051243782,-0.0054839705117046,0.9739288091659546,2.038658142089844,1.6945433616638184,-0.3041932582855224,0.0808014869689941,0.3498698770999908,0.5155653953552246,0.2887537777423858,0.1668526083230972,-0.5716275572776794,0
234451,0.0144390873610973,-0.0075759207829833,0.9828295707702636,-1.567739486694336,-0.1115363091230392,-0.2398647367954254,0.080873966217041,0.3520936071872711,0.5128922462463379,0.2400480806827545,0.1898113936185836,-0.6001527905464172,0
234471,0.0162205602973699,0.0102269509807229,0.9657521843910216,-1.805912971496582,0.5508660078048706,0.4133247137069702,0.0804871693253517,0.3503870666027069,0.5127637982368469,0.2173027694225311,0.1967502832412719,-0.601050615310669,0
234481,0.0171854402869939,0.0016720704734325,0.9683591723442078,-1.0395315885543823,-0.6387893557548523,0.1980808228254318,0.0806369185447692,0.3531752228736877,0.5126745700836182,0.1724386811256408,0.1974870711565017,-0.5967261791229248,0
234651,0.0028686297591775,-0.0062717902474105,1.0305191278457642,-2.3217008113861084,0.8579591512680054,0.0571849308907985,0.0886360257863998,0.3651185035705566,0.5031435489654541,0.1261756867170334,0.3282541036605835,-0.6863546371459961,0
234671,0.0149871883913874,0.0026073034387081,1.037788152694702,0.4477018415927887,0.887830913066864,0.243234172463417,0.0864583700895309,0.3628014624118805,0.5029300451278687,0.1398466378450393,0.3299862444400787,-0.6846262812614441,0
234811,0.0075407219119369,0.0308781843632459,1.010695219039917,3.956134796142578,4.704132080078125,0.0702259913086891,0.0874112471938133,0.3709762692451477,0.5028616189956665,0.3627327084541321,0.2508774101734161,-0.6357978582382202,0
234831,0.0089329965412616,-1.3603622392110992e-05,1.005244493484497,2.164275646209717,3.642033815383911,0.5282618403434753,0.0874045193195343,0.3710744082927704,0.503562867641449,0.3943938016891479,0.2093207985162735,-0.6333861947059631,0
234891,0.0070803905837237,-0.0070510995574295,0.9959182739257812,-1.7622841596603394,-2.8876233100891118,0.8809282779693604,0.0882121548056602,0.3750287294387817,0.5044009685516357,0.3147052824497223,0.2261735051870346,-0.5819494128227234,0
234991,0.0031732842326164,-0.0049904785118997,0.998833179473877,1.2307428121566772,2.776597738265991,1.237968683242798,0.0871560722589492,0.3835304081439972,0.5076290369033813,0.2969242632389068,-0.0206458065658807,-0.5104051828384399,0
