timestamp,acc.x,acc.y,acc.z,gyro.x,gyro.y,gyro.z,stateEstimate.x,stateEstimate.y,stateEstimate.z,stabilizer.roll,stabilizer.pitch,stabilizer.yaw,groundtruth
7665,0.0174578167498111,0.0052654407918453,1.000453233718872,0.1114637106657028,-0.0553824752569198,-0.1553786247968673,0.0006607832037843,0.0007612320478074,0.0205758903175592,0.2498120814561844,1.0603421926498413,-0.01353052072227,0
7755,0.0207390002906322,0.0071488805115222,1.0000079870224,-0.0629656240344047,0.1641770154237747,-0.0059429174289107,0.0001709304342512,3.66757667507045e-05,0.0220252368599176,0.2832330167293548,1.0830618143081665,-0.0113923586905002,0
7935,0.0198387447744607,0.0068737678229808,1.001578450202942,0.0206817351281642,0.1131308525800705,-0.0109970970079302,0.0009021274163387,4.69290062028449e-05,0.0226652435958385,0.2757183909416199,1.0461632013320925,-0.0172717962414026,0
7955,0.0193771012127399,0.0053940257057547,1.000821232795715,-0.2491657733917236,0.2469385713338852,-0.0010994815966114,0.0011272337287664,4.121485471841879e-05,0.0227416846901178,0.2765672504901886,1.032607913017273,-0.0168063212186098,0
7965,0.0203406605869531,0.0053905583918094,1.002434492111206,0.0319077596068382,0.0012711599702015,-0.1977769136428833,0.0011272337287664,4.121485471841879e-05,0.0227416846901178,0.2765672504901886,1.032607913017273,-0.0168063212186098,0
8105,0.0203243382275104,0.0040663736872375,0.9993186593055724,-0.0463928580284118,0.3212897777557373,0.1540867686271667,0.0002803693932946,6.088663576520048e-05,0.0199993774294853,-0.0010696788085624,-0.0026100610848516,0.0013214071514084,0
8115,0.0209955889731645,0.0045766476541757,1.0009018182754517,0.0360482521355152,-0.2383030503988266,0.0368516780436039,0.0004728444037027,0.0002048051101155,0.0199958253651857,-0.0338442325592041,0.017654487863183,0.0024339570663869,0
8125,0.0203215721994638,0.0039395126514136,1.0016510486602783,-0.1047345846891403,0.0976100116968154,0.0654039904475212,0.0006192168802954,0.0002541187568567,0.0199949033558368,-0.0336893238127231,0.0170864947140216,0.0035570405889302,0
8275,0.020827729254961,0.0058668167330324,0.99832683801651,-0.1203763857483863,0.1306780129671096,-0.0462423264980316,0.0011558826081454,0.0006065326160751,0.0215176828205585,0.0501142516732215,0.4970151782035827,0.005776057485491,0
8275,0.020827729254961,0.0058668167330324,0.99832683801651,-0.1203763857483863,0.1306780129671096,-0.0462423264980316,0.0011558826081454,0.0006065326160751,0.0215176828205585,0.0501142516732215,0.4970151782035827,0.005776057485491,0
8295,0.0194626189768314,0.0033509447239339,0.9991804361343384,0.240816980600357,0.3433369100093841,-0.0738885328173637,0.0012950261589139,0.0002620473969727,0.0209375265985727,0.1487046778202057,0.5513491034507751,0.0044545214623212,0
8305,0.0202980320900678,0.0043024183250963,1.000131130218506,0.0169260911643505,0.2021328806877136,-0.0092129344120621,0.0014628482749685,0.0002974691160488,0.0209291502833366,0.1480604261159896,0.5499989986419678,0.004188239108771,0
8465,0.0212536286562681,0.0053208675235509,0.9980320334434508,-0.0115966778248548,-0.4049194157123565,0.0119534665718674,0.0004085296823177,0.0007481698994524,0.022017627954483,0.1467763930559158,0.8970209956169128,0.0062681059353053,0
8525,0.0217136684805154,0.0037710405886173,1.0005736351013184,0.0644417628645896,-0.0930146127939224,-0.0614780895411968,0.0014770523412153,-2.0106985175516456e-05,0.0216782689094543,0.2432070970535278,0.8604112863540649,0.0052324049174785,0
8605,0.0192078277468681,0.0044819433242082,0.9993212819099426,-0.1349681168794632,-0.1431707888841629,0.128095731139183,0.0014248326187953,0.0003711742465384,0.0200041942298412,0.2248328775167465,0.9173941612243652,0.0065727294422686,0
8625,0.0200510900467634,0.0065140901133418,1.0004748106002808,0.0764073953032493,0.5620781779289246,-0.199549913406372,0.0006373956566676,0.0012902490561828,0.021395644173026,0.1740695685148239,0.9818251132965088,0.0072699580341577,0.0
8625,0.0200510900467634,0.0065140901133418,1.0004748106002808,0.0764073953032493,0.5620781779289246,-0.199549913406372,0.0006373956566676,0.0012902490561828,0.021395644173026,0.1740695685148239,0.9818251132965088,0.0072699580341577,0
8715,0.0185558535158634,0.0062258392572402,1.0003867149353027,-0.250916451215744,0.2713451683521271,-0.0152110736817121,0.0011148913763463,0.0002365206601098,0.0217563435435295,0.2511555254459381,0.9761244654655457,0.00670205662027,0
8755,0.019985307008028,0.0052844458259642,0.999543309211731,0.1885089874267578,0.1047379747033119,0.1251195818185806,0.0011434539919719,0.0002580397122073,0.0217138994485139,0.2532268166542053,0.981133997440338,0.0060206763446331,0
8785,0.0188096463680267,0.0054627931676805,0.999392867088318,-0.2493625432252884,-0.3659182488918304,-0.0151196792721748,0.0009763741400092,0.0001992676698137,0.0217792987823486,0.2581381797790527,0.9955373406410216,0.0082415323704481,0
8905,0.0201253592967987,0.0039812652394175,0.9982182383537292,-0.13709557056427,-0.0397889837622642,-0.0724918320775032,0.0010677539976313,0.0001905855169752,0.0206483174115419,0.2629773020744324,1.0057803392410278,0.0120579851791262,0
8905,0.0201253592967987,0.0039812652394175,0.9982182383537292,-0.13709557056427,-0.0397889837622642,-0.0724918320775032,0.0011332642752677,0.0002071834169328,0.0206193160265684,0.2617859542369842,1.0046192407608032,0.0127698304131627,0
9035,0.0198611672967672,0.0047585922293365,0.997519552707672,-0.1311712861061096,-0.1547685116529464,-0.1295433640480041,0.001007565180771,0.0001831439585657,0.0206492748111486,0.2632473111152649,1.015989065170288,0.0137814860790967,0
9065,0.0210649166256189,0.0065782163292169,1.0007100105285645,0.1076145246624946,0.1839089095592498,-0.2568802535533905,0.0008924971334636,-0.0002001791435759,0.0205823145806789,0.277587890625,1.0233464241027832,0.0130318515002727,0
9175,0.0195491462945938,0.0071601551026105,1.0003159046173096,0.0285793375223875,-0.107482336461544,0.0949480533599853,-0.0002089958725264,-0.001437654485926,0.0211763270199298,0.3193681240081787,1.0618103742599487,0.0094040296971797,0
9185,0.0186389032751321,0.0068053258582949,0.9990248084068298,0.0295074749737977,-0.0593654178082942,0.1848814487457275,0.0005713644204661,0.0013634151546284,0.0212189015001058,0.2223955988883972,1.0354416370391846,0.0125833703204989,0
9265,0.0211573485285043,0.0056667434982955,0.9996095895767212,-0.0703224912285804,0.1679802685976028,-0.0613434053957462,0.0010358375729992,0.0002205907658208,0.0210999939590692,0.2670246064662933,1.02559494972229,0.0142331849783658,0
9345,0.0195181909948587,0.005854083225131,1.0004397630691528,-0.1630243360996246,-0.0188991706818342,0.1079005971550941,0.000780118338298,0.0001293696550419,0.0212767962366342,0.2705104947090149,1.0336971282958984,0.0146349817514419,0
9355,0.0212252475321292,0.0050529697909951,0.9996559023857116,0.0440137088298797,0.1543908864259719,-0.0203538760542869,0.0008262731134891,0.0001469896378694,0.0212832428514957,0.2704521715641022,1.0304741859436035,0.0144089935347437,0
9455,0.0205209031701087,0.00359852402471,0.9997504353523254,-0.0709998980164527,0.0061050616204738,0.1571757942438125,0.0008812968735583,-0.0002238005545223,0.0215537995100021,0.2868223190307617,1.0331021547317505,0.0138061298057436,0
9465,0.0182190909981727,0.004408405162394,0.9983858466148376,-0.1550794690847396,-0.088289625942707,0.0077952649444341,0.0009277006611227,-0.0002219610178144,0.0215715765953063,0.286974161863327,1.0322033166885376,0.0146272182464599,0
9505,0.020347986370325,0.004899033345282,0.9996803998947144,-0.054201029241085,0.1541389673948288,0.0064620119519531,0.000540106149856,-0.0002203395997639,0.0204644538462162,0.2886462807655334,1.0418599843978882,0.0137748355045914,0
9575,0.0192454103380441,0.0059499167837202,1.003273606300354,-0.1008338704705238,0.2691535055637359,-0.1173620820045471,0.0009480834123678,-0.0002312741999048,0.0218958407640457,0.2863274216651916,1.023544192314148,0.0154664209112524,0
9615,0.0189308151602745,0.0040721087716519,0.9970579147338868,-0.0195817742496728,0.1336488127708435,0.1264106929302215,0.0008409916772507,-0.000242914960836,0.0220840871334075,0.2832379341125488,1.027519941329956,0.0159489810466766,0
9745,0.019736886024475,0.0053939414210617,1.000967264175415,-0.004034771118313,0.0009434300591237,-0.0403356105089187,0.0006763119017705,9.068539657164364e-05,0.0210520662367343,0.273773044347763,1.015679121017456,0.0162556711584329,0
9785,0.0201446954160928,0.0052282633259892,0.9996243119239808,-0.0406600497663021,-0.0806475356221199,-0.0833996012806892,0.0006463847239501,7.863700739108026e-05,0.0222661886364221,0.2713104486465454,1.0129612684249878,0.0153982490301132,0
9785,0.0201446954160928,0.0052282633259892,0.9996243119239808,-0.0406600497663021,-0.0806475356221199,-0.0833996012806892,0.0006463847239501,7.863700739108026e-05,0.0222661886364221,0.2713104486465454,1.0129612684249878,0.0153982490301132,0
9825,0.017996797338128,0.0078408876433968,1.0026860237121582,0.0417101718485355,0.1949935853481292,0.0126501759514212,0.0006430380162782,7.899975753389299e-05,0.0218868814408779,0.2723655700683594,1.0179095268249512,0.0146915530785918,0
9835,0.0191854648292064,0.0055731544271111,1.0022573471069336,-0.3143514096736908,-0.039197452366352,0.1135556548833847,0.0006430380162782,7.899975753389299e-05,0.0218868814408779,0.2723655700683594,1.0179095268249512,0.0146915530785918,0
9915,0.0213563274592161,0.006690930109471,0.9993099570274352,-0.0320349745452404,-0.2528670132160187,-0.3277640342712402,-0.0014900845708325,-0.0005272604175843,0.0228251572698354,0.2945792078971863,1.0977399349212646,0.0125985303893685,0
9955,0.0204996168613433,0.0061325822025537,1.0022377967834473,-0.0296864639967679,0.0780123323202133,-0.0371438600122928,0.0004925610846839,5.524725929717533e-05,0.0226605851203203,0.2741325199604034,1.025621771812439,0.0118851717561483,0
9955,0.0204996168613433,0.0061325822025537,1.0022377967834473,-0.0296864639967679,0.0780123323202133,-0.0371438600122928,0.0004925610846839,5.524725929717533e-05,0.0226605851203203,0.2741325199604034,1.025621771812439,0.0118851717561483,0
9965,0.0199151337146759,0.0048874905332922,0.9992575645446776,0.0124304154887795,0.0089577632024884,0.2210526168346405,0.0004783634212799,-0.0002126229810528,0.0226997938007116,0.2829639911651611,1.0262011289596558,0.0123674692586064,0
10075,0.0196384564042091,0.0051928679458796,0.9999440908432008,0.1554585099220276,0.2631398141384125,0.0249859131872653,0.0005470845499075,-0.0001948077842826,0.0220078565180301,0.2740874886512756,1.0259073972702026,0.012552810832858,0
10095,0.020552534610033,0.0047729089856147,1.0002487897872925,-0.1316820383071899,-0.0924274027347564,-0.0813735201954841,0.0006488598883152,-0.0001896105823107,0.0219888482242822,0.272436261177063,1.0186957120895386,0.0120624806731939,0
10235,0.0068503958173096,0.0025089120026677,1.0087944269180298,0.9487935304641724,-2.068857431411743,0.7144995331764221,0.0006758902454748,8.427528518950567e-05,0.0214214604347944,0.2497982829809188,0.998046100139618,0.0162699595093727,0
10235,0.0068503958173096,0.0025089120026677,1.0087944269180298,0.9487935304641724,-2.068857431411743,0.7144995331764221,0.0006758902454748,8.427528518950567e-05,0.0214214604347944,0.2497982829809188,0.998046100139618,0.0162699595093727,0
10255,0.0161826740950346,-0.0002051940682576,0.9989575147628784,-0.0648612454533577,0.5917494297027588,0.3537083566188812,0.0005899124662391,-0.0002177569112973,0.0208159238100051,0.2679900527000427,0.9976106286048888,0.0133507652208209,0
10365,0.0125459739938378,0.0173247419297695,1.0131179094314575,-1.4885728359222412,1.2190401554107666,-1.899190902709961,0.0004067805130034,0.0005487279850058,0.0193335823714733,0.2623722553253174,0.9445863962173462,0.1013857275247573,0
10415,0.0257802084088325,-0.0092286169528961,1.073527216911316,8.17396068572998,5.340370655059815,2.870483636856079,0.0035562620032578,0.0012468731729313,0.0188946574926376,0.1636729836463928,0.7743499279022217,0.1774575561285019,0
10435,-0.0088442135602235,-0.0132656088098883,0.996203362941742,4.789969444274902,16.092924118041992,7.535689830780029,0.0060297092422842,0.0010599240195006,0.0188747607171535,0.3046265840530395,0.5404978394508362,0.2417476773262024,0
10495,0.0016189337475225,-0.0015990863321349,1.0205425024032593,-8.029031753540039,-15.007952690124512,14.98632526397705,0.0076176673173904,-0.0070036244578659,0.0197248589247465,-0.0523612312972545,0.0978097692131996,0.8658009171485901,0
10535,0.0233238879591226,-0.0114523470401763,1.0416667461395264,-7.875163555145264,-30.013765335083008,6.255077838897705,0.009678915143013,-0.0093747228384017,0.0186393670737743,-0.3630749583244324,0.749051570892334,1.3787659406661987,0
10625,-0.0058282087557017,-0.0122030610218644,1.0770790576934814,8.785808563232422,47.61561584472656,1.2579801082611084,-0.0002613725955598,-0.0033114999532699,0.0190764255821704,-1.0341856479644775,0.899997353553772,1.7582008838653564,0
10625,-0.0058282087557017,-0.0122030610218644,1.0770790576934814,8.785808563232422,47.61561584472656,1.2579801082611084,-0.0002613725955598,-0.0033114999532699,0.0190764255821704,-1.0341856479644775,0.899997353553772,1.7582008838653564,0
10655,0.006446685642004,-0.0222228243947029,1.0770257711410522,17.70878028869629,15.15953540802002,0.0411202907562255,-0.0073268576525151,0.001246846280992,0.0173083152621984,-0.5984428524971008,-0.6016117930412292,1.751165509223938,0
10665,0.0140247102826833,-0.0186907853931188,1.07429838180542,14.86734676361084,-0.0902105420827865,-0.2348701506853103,-0.0082440515980124,0.0013913878938183,0.0179227516055107,-0.4197999835014343,-0.6985695362091064,1.7498372793197632,0
10815,0.0098843751475214,0.0095525803044438,1.0002042055130005,-20.37146759033203,-14.29711627960205,-0.5604049563407898,-0.0080702528357505,-0.0037673923652619,0.0352225489914417,0.4089955687522888,-1.59938383102417,1.9123777151107788,0
10835,0.0032898981589823,0.0021096661221235,1.0112664699554443,-22.008398056030277,-15.387202262878418,-0.4868029057979584,-0.0074407700449228,-0.0039669852703809,0.0404285974800586,-0.0397251732647419,-1.3078758716583252,1.9056822061538696,0
10975,0.0065137133933603,-0.0184825491160154,0.9623009562492372,-25.3734130859375,-24.935222625732425,-1.7492635250091553,0.0047360090538859,-0.0010576059576123,0.0589462555944919,0.688830554485321,-0.4962553679943084,1.947847962379456,0
10985,0.0162389334291219,-0.0260269585996866,0.977757453918457,-26.717369079589844,-22.001197814941406,-2.408839464187622,0.0068117952905595,-0.0010991225717589,0.0614417307078838,0.2249091267585754,-0.0413415431976318,1.910401940345764,0
11035,-0.0019638389348983,-0.0013832084368914,0.9696590304374696,6.83831787109375,5.319082736968994,-1.0172502994537354,0.010612791404128,-0.0017545642331242,0.0684161707758903,-0.366480678319931,0.1887089312076568,1.830590009689331,0
11125,0.0073175076395273,-0.0086983833461999,0.9762977361679076,-14.125516891479492,-6.8387370109558105,0.6640423536300659,0.0178684219717979,-0.0020146772731095,0.0813357532024383,0.0769380778074264,1.630431890487671,1.8087379932403564,0
11185,0.0120619414374232,-0.0294523369520902,1.0177247524261477,2.6609904766082764,12.369397163391112,-0.7845550179481506,0.0205184184014797,-0.002239228459075,0.0865368172526359,-0.5527099370956421,1.1328316926956177,1.794020175933838,0
11295,0.0041903401724994,-0.012778615579009,1.024558186531067,-9.065570831298828,14.397454261779783,-1.492784857749939,0.0249535571783781,-0.0031335148960351,0.1004654914140701,-0.2688049972057342,0.9375275373458862,1.6227065324783323,0
11335,0.0132487770169973,0.0008699744939804,1.033854365348816,2.415778875350952,-1.192518949508667,-0.9938634037971495,0.0247316975146532,-0.0031629421282559,0.1026463136076927,-0.4573153555393219,0.643913745880127,1.5795056819915771,0
11335,0.0132487770169973,0.0008699744939804,1.033854365348816,2.415778875350952,-1.192518949508667,-0.9938634037971495,0.0251531098037958,-0.0032404300291091,0.1038858816027641,-0.4597066044807434,0.6179406642913818,1.5671833753585815,0
11455,0.0040172399021685,-0.00034838161082,1.0309200286865234,-3.501535177230835,3.48820161819458,-1.6304115056991575,0.0255817901343107,-0.003574383445084,0.1182834729552269,-0.1720010936260223,0.3463134467601776,1.412134289741516,0
11475,-0.0017485744319856,-0.0082275932654738,1.0511761903762815,-1.165400505065918,1.7375473976135254,-1.409273982048035,0.0251911785453557,-0.0031225725542753,0.1198092922568321,-0.2251552194356918,0.3277680575847626,1.3981401920318604,0
11545,0.0103958044201135,0.0024687191471457,1.0353405475616455,3.744653463363648,1.405900478363037,-2.004826307296753,0.027814419940114,-0.0055571813136339,0.1339534223079681,0.0864753127098083,0.0552606880664825,1.2798527479171753,0
11645,0.0044780350290238,-0.0024384523276239,1.0422143936157229,-0.3612754046916961,0.8575082421302795,-0.8945090770721436,0.029085736721754,-0.0066246311180293,0.1503178924322128,-0.1084199398756027,-0.0406243354082107,1.1279654502868652,0
11795,0.0096001727506518,-0.0149182165041565,1.0134963989257812,-0.0881849974393844,2.654839277267456,-0.7556848526000977,0.0261213239282369,-0.0101344715803861,0.1857034564018249,0.1441805511713028,-0.3372335433959961,0.9897180199623108,0
11795,0.0096001727506518,-0.0149182165041565,1.0134963989257812,-0.0881849974393844,2.654839277267456,-0.7556848526000977,0.0261213239282369,-0.0101344715803861,0.1857034564018249,0.1441805511713028,-0.3372335433959961,0.9897180199623108,0
11915,0.0021378681994974,0.0061613535508513,0.9950815439224244,-1.2381367683410645,-0.4106941223144531,-0.7977644205093384,0.0311988983303308,-0.0164269339293241,0.2182989865541458,-0.2409980148077011,-0.234528437256813,0.9819189310073853,0
11925,0.0167133342474699,-0.0135258296504616,1.0034523010253906,0.5393637418746948,0.1168548539280891,0.5527939200401306,0.0311988983303308,-0.0164269339293241,0.2182989865541458,-0.2409980148077011,-0.234528437256813,0.9819189310073853,0
12065,0.0064741885289549,-0.0155751518905162,0.99504154920578,-2.6000020503997803,2.665440082550049,0.4247296750545501,0.0307587943971157,-0.0236121173948049,0.2572710812091827,-0.4841113090515136,0.2632355690002441,1.042250156402588,0
12095,0.0033911785576492,-0.0229974407702684,1.005327582359314,-1.9623849391937256,-0.593612790107727,0.7498831152915955,0.0301730223000049,-0.0244354289025068,0.2675828337669372,-0.5931510329246521,0.2056895941495895,1.0692166090011597,0
12245,0.0178413223475217,-0.0090003320947289,1.00263512134552,-4.554440498352051,1.855196714401245,0.844942033290863,0.0285660829395055,-0.0309479106217622,0.2992432117462158,-0.6286215782165527,0.2328020483255386,1.178646206855774,0
12325,0.0053011504933238,-0.017840189859271,1.0218826532363892,6.08614444732666,0.917426824569702,1.8749340772628784,0.0279794242233037,-0.0321527794003486,0.3173784911632538,-0.7443860769271851,0.0769345313310623,1.3032251596450806,0
12325,0.0053011504933238,-0.017840189859271,1.0218826532363892,6.08614444732666,0.917426824569702,1.8749340772628784,0.0279794242233037,-0.0321527794003486,0.3173784911632538,-0.7443860769271851,0.0769345313310623,1.3032251596450806,0
12395,0.0129149239510297,-0.0139906210824847,1.0044573545455933,1.0655275583267212,1.3892673254013062,1.7674905061721802,0.02883817628026,-0.0325447283685207,0.3354794383049011,-0.5077658295631409,-0.0808872506022453,1.4291094541549685,0
12505,0.0122878588736057,-0.0286968350410461,1.018746256828308,12.35304832458496,-0.871703028678894,0.152970865368843,0.0276227034628391,-0.0182820577174425,0.3541524112224579,-0.468629240989685,-0.0463624037802219,1.528234839439392,0
12515,0.0064105670899152,-0.0341401025652885,1.0217856168746948,13.251192092895508,0.6315670609474182,-0.0993501394987106,0.0269160214811563,-0.0189345628023147,0.356510579586029,-0.3392328917980194,-0.0347315855324268,1.5339127779006958,0
12535,0.0094669349491596,-0.0184469986706972,0.9931614995002748,11.267788887023926,1.421859622001648,0.2937099635601043,0.0265082996338605,-0.0190430656075477,0.3611836433410644,-0.056118257343769,-0.0347826965153217,1.5334080457687378,0
12625,0.0128505667671561,-0.0116481706500053,1.018944501876831,2.28542160987854,-0.7689958214759827,0.4735426902770996,0.0256719142198562,-0.017682122066617,0.3855565190315246,0.3163303434848785,-0.1547650396823883,1.554688572883606,0
12675,0.0053049782291054,-0.0096698841080069,1.009010672569275,1.3344985246658323,2.0554065704345703,0.4742093086242676,0.0264258198440074,-0.0172625686973333,0.4000055193901062,0.5322837233543396,-0.1713232994079589,1.55617356300354,0
12685,0.0092891557142138,-0.0230003949254751,1.010655403137207,2.658270359039306,3.3313119411468506,0.7169798016548157,0.0264258198440074,-0.0172625686973333,0.4000055193901062,0.5322837233543396,-0.1713232994079589,1.55617356300354,0
12715,0.0125258062034845,-0.0276829749345779,1.0203988552093506,-2.3711979389190674,-2.110459089279175,-0.204342246055603,0.0271763522177934,-0.0169628541916608,0.4070809185504913,0.5330666303634644,-0.2055406719446182,1.561001896858215,0
12825,0.0120416264981031,-0.0020685971248894,1.0080517530441284,-1.2132853269577026,-0.1023738607764244,0.2982178628444671,0.03356708958745,-0.0165530890226364,0.4320520162582397,0.3941705822944641,-0.1807425916194915,1.5499852895736694,0
12845,0.0024697105400264,-0.0026177626568824,1.0085439682006836,-3.0169126987457275,-1.7666507959365845,-0.0638510361313819,0.0337266102433204,-0.0164949782192707,0.4345035552978515,0.3774288296699524,-0.1712991297245025,1.5513696670532229,0
12845,0.0024697105400264,-0.0026177626568824,1.0085439682006836,-3.0169126987457275,-1.7666507959365845,-0.0638510361313819,0.0337266102433204,-0.0164949782192707,0.4345035552978515,0.3774288296699524,-0.1712991297245025,1.5513696670532229,0
12965,0.0034753072541207,-0.0080956304445862,0.9533002972602844,0.6373432874679565,2.3738834857940674,-0.4197871088981628,0.0338649675250053,-0.0186176858842372,0.4719880521297455,0.0475325733423233,-0.1113220751285553,1.4663444757461548,0
12985,0.0075452360324561,-0.0169859156012535,0.9436408877372742,0.9076110124588012,0.7528775930404663,-0.3471842408180237,0.0340311378240585,-0.016013815999031,0.4743727445602417,0.0352126099169254,-0.1389448791742324,1.461772084236145,0
13075,0.0098239667713642,-0.0131693230941891,0.9339335560798644,-0.2273660451173782,-3.4736244678497314,-0.466333270072937,0.0437255017459392,-0.0156243219971656,0.4922117292881012,0.0070976610295474,-0.0177947729825973,1.3597368001937866,0
13125,0.0059139998629689,-0.0139830168336629,0.9449668526649476,0.752816379070282,-5.190765857696533,-1.0433589220046997,0.043800015002489,-0.0157842244952917,0.4985736906528473,0.0292599182575941,0.2865325808525085,1.3118826150894165,0
13145,0.004518830217421,-0.0143710868433117,0.9534964561462402,-0.9487621784210204,-2.361435890197754,-0.4619167149066925,0.0436549223959445,-0.0168512295931577,0.5009368062019348,0.04310829564929,0.3873357474803924,1.3022053241729736,0
13205,0.0093684503808617,-0.0088842706754803,0.9527773261070251,0.1923836022615432,2.895170927047729,-0.6141376495361328,0.0417136400938034,-0.0175149105489254,0.5117278695106506,-0.0485838949680328,0.4398878216743469,1.2760289907455444,0
13295,0.0076476237736642,-0.0011314322473481,0.964526116847992,-4.507035255432129,3.266453981399536,-0.842191219329834,0.0392130501568317,-0.0194330289959907,0.517693042755127,0.0135252149775624,0.3947914838790893,1.2060095071792605,0
13325,0.0129046812653541,0.0002113755035679,0.9705639481544496,-1.2428724765777588,3.1618130207061768,-0.2076181322336197,0.0374838896095752,-0.0212988294661045,0.5173870921134949,-0.0808097943663597,0.3205579221248626,1.1885699033737185,0
13325,0.0129046812653541,0.0002113755035679,0.9705639481544496,-1.2428724765777588,3.1618130207061768,-0.2076181322336197,0.035357266664505,-0.0198213569819927,0.5178707838058472,-0.1145882084965705,0.3057998716831207,1.186240553855896,0
13365,0.0115748299285769,-0.0063714855350553,0.9899796843528748,1.2166486978530884,3.742122650146485,-0.7065006494522095,0.0285953227430582,-0.0203728433698415,0.5198979377746582,-0.0721354484558105,0.2471036165952682,1.1566133499145508,0
13425,0.0036370349116623,-0.0100997788831591,1.0062849521636963,-2.274806022644043,3.813814640045166,-1.21509051322937,0.0235124509781599,-0.0198352951556444,0.5194187760353088,-0.1406515091657638,0.0130688026547431,1.108715295791626,0
13495,0.0104962261393666,-0.0080519802868366,1.014980435371399,1.2417281866073608,0.5856256484985352,-0.2426264286041259,0.0175602026283741,-0.0217125918716192,0.5187345147132874,-0.1309766173362732,-0.232371911406517,1.1006760597229004,0
13505,0.01228301320225,-0.0034612051676958,1.0128093957901,1.7026811838150024,0.7546960115432739,-0.6691351532936096,0.0135414022952318,-0.0219216607511043,0.5188764929771423,-0.1121218428015708,-0.2199514508247375,1.100996732711792,0
13515,0.0119233457371592,-0.0068806149065494,1.0150619745254517,-1.3246508836746216,0.0887899920344352,-0.7335996031761169,0.0114241177216172,-0.0205521713942289,0.5191185474395752,-0.1083385571837425,-0.2221266031265258,1.0911210775375366,0
13635,0.008755468763411,-0.0163280740380287,1.02039897441864,2.076507091522217,1.3242602348327637,0.4829802811145782,0.0038234037347137,-0.0218435451388359,0.5258110165596008,-0.1417380720376968,-0.6748501658439636,1.0956631898880005,0
13645,0.0094918245449662,-0.0028607773128896,1.0137920379638672,3.58821702003479,-0.091477945446968,-0.0012872745282948,0.0027242545038461,-0.0211049225181341,0.5285246968269348,-0.0958609506487846,-0.6951332092285156,1.0975521802902222,0
13675,0.0073217833414673,-0.0131136905401945,1.008009672164917,0.8533973693847656,-1.5726189613342283,-0.9455133080482484,-0.0034774953965097,-0.0216178409755229,0.5306267142295837,-0.0310138426721096,-0.6287279725074768,1.080068588256836,0
13805,0.0031962406355887,-0.0060275853611528,0.9636469483375548,0.7585253119468689,-1.4695425033569336,0.6657651662826538,-0.0134694669395685,-0.0215960443019866,0.5432964563369751,-0.0043657254427671,-0.8459302186965942,1.1152734756469729,0
13835,0.013131215237081,-0.0106956586241722,0.9676437973976136,-1.1672536134719849,-1.06913423538208,-0.1066567525267601,-0.0141574013978242,-0.0215570330619812,0.5416216850280762,-0.0167817752808332,-0.8080512881278992,1.127371311187744,0
13915,0.0097584603354334,-0.020032225176692,0.970994770526886,0.685145378112793,-1.6821082830429075,-0.5999535322189331,-0.0173765011131763,-0.0217617638409137,0.5448241829872131,0.0593475438654422,-0.7448013424873352,1.1668238639831543,0
13995,0.0047397944144904,-0.002724980469793,1.0004597902297974,0.3620160520076751,-2.526083469390869,0.441069096326828,-0.0233277324587106,-0.0214828252792358,0.5362753868103027,0.0189248323440551,-0.5475655794143677,1.2116940021514893,0
14015,0.0085795223712921,-0.0126070315018296,1.0034857988357544,-1.2672464847564695,1.6424530744552612,0.4709996283054352,-0.0234560351818799,-0.0195774510502815,0.5358391404151917,0.0171101465821266,-0.5287060737609863,1.2165091037750244,0
14105,0.0075405687093734,-0.0087574208155274,1.031267523765564,1.6175144910812378,0.781984806060791,1.120038986206055,-0.0269207451492548,-0.0211848635226488,0.531740128993988,-0.032241340726614,-0.3999831080436706,1.2814757823944092,0
14155,0.0175592005252838,-0.0020854510366916,1.0264514684677124,-1.9531075954437256,-0.0933278799057006,-0.057995643466711,-0.0272898823022842,-0.023139176890254,0.5291853547096252,0.0146373631432652,-0.403069406747818,1.3143656253814695,0
14175,0.0094656804576516,-0.0102792084217071,1.0427190065383911,-3.197911500930786,-1.1685532331466677,-0.1630445420742035,-0.0250513125211,-0.0222485363483428,0.5296679735183716,-0.0451638214290142,-0.3963459432125091,1.3156168460845947,0
14275,0.0034043053165078,-0.0124002769589424,1.028268337249756,0.1517342925071716,1.223031759262085,-0.4096587598323822,-0.0228309817612171,-0.0235687419772148,0.5309375524520874,-0.076322317123413,-0.159821942448616,1.2804065942764282,0
14345,0.0044606253504753,0.0011910339817404,0.976630926132202,-0.8948158621788025,-2.7744393348693848,-0.8141411542892456,-0.0203036349266767,-0.0208938363939523,0.5340843200683594,-0.061274018138647,-0.0587192587554454,1.2167630195617676,0
14435,0.0074162981472909,-0.0083951745182275,0.9714791774749756,-0.6759292483329773,0.1409422755241394,-1.297581672668457,-0.019150597974658,-0.0213743466883897,0.5441421270370483,0.0401489585638046,0.1072090864181518,1.1176280975341797,0
14495,0.0080760829150676,-0.0185816474258899,0.9579999446868896,1.7710851430892944,-1.7062815427780151,-1.3101712465286257,-0.0185752622783184,-0.0211086459457874,0.54742032289505,0.0150170102715492,0.1400208920240402,1.0637598037719729,0
14495,0.0080760829150676,-0.0185816474258899,0.9579999446868896,1.7710851430892944,-1.7062815427780151,-1.3101712465286257,-0.0185752622783184,-0.0211086459457874,0.54742032289505,0.0150170102715492,0.1400208920240402,1.0637598037719729,0
14635,0.0052902898751199,-0.0082945097237825,0.970350742340088,-0.8828527331352234,1.170519232749939,-0.4113408029079437,-0.0238603856414556,-0.0181689169257879,0.5494984984397888,0.0607091374695301,0.1482134461402893,0.9383219480514526,0
14655,0.0043506678193807,-0.0048477291129529,0.985377550125122,-1.2288199663162231,1.3010085821151731,-0.7409527897834778,-0.0289365351200103,-0.0203058384358882,0.5482877492904663,0.0278158150613307,0.1257832646369934,0.923224151134491,0
14675,0.0137415686622262,-0.0120111284777522,1.0046762228012085,0.0748877003788948,0.1286228150129318,-0.9034603238105774,-0.0291054602712392,-0.0202432870864868,0.5478255152702332,0.0322131365537643,0.1358580440282821,0.9090427160263062,0
14805,0.0087213665246963,-0.0073155430145561,1.0135670900344849,1.6295241117477417,3.8758840560913086,0.6129270195960999,-0.0518830567598342,-0.0177122894674539,0.5351206660270691,0.0052408003248274,-0.2974791526794433,0.8773287534713745,0
14805,0.0087213665246963,-0.0073155430145561,1.0135670900344849,1.6295241117477417,3.8758840560913086,0.6129270195960999,-0.0518830567598342,-0.0177122894674539,0.5351206660270691,0.0052408003248274,-0.2974791526794433,0.8773287534713745,0
14845,0.0087298639118671,-0.0049526640214025,1.015018105506897,2.127625703811645,1.9930860996246336,0.0004418949538376,-0.0503145977854728,-0.0129213351756334,0.533118724822998,0.0927815064787864,-0.4614731669425964,0.9082804322242736,0
14855,0.0120851192623376,0.002392363268882,1.0270836353302002,2.0467236042022705,0.7525917291641235,-0.5799336433410645,-0.0505688525736331,-0.012824741192162,0.5326430201530457,0.114377811551094,-0.4756675362586975,0.9058021306991576,0
14985,0.0055046598426997,-0.0172720830887556,1.0156017541885376,-2.3294708728790283,0.2211267948150634,-0.3101097345352173,-0.054661076515913,-0.0168174374848604,0.5362780094146729,0.2023567855358123,-0.5182649493217468,0.8635470867156982,0
15005,0.0042864233255386,-0.0062089022248983,1.0084757804870603,-2.2400472164154053,1.2876375913619995,-0.0464740619063377,-0.0549534931778907,-0.0167945958673954,0.5368927121162415,0.1493845283985138,-0.5333945155143738,0.85944664478302,0
15025,0.005468787625432,-0.0224451478570699,1.018894076347351,1.353077054023743,-1.3641387224197388,-0.6081528663635254,-0.0575375780463218,-0.0164419636130332,0.5349774360656738,0.1094149053096771,-0.5349352359771729,0.8582481145858765,0
15035,0.0139199336990714,-0.0135463215410709,1.0123341083526611,2.011830568313598,-1.726578950881958,-0.8352630138397217,-0.0576803721487522,-0.0164360627532005,0.5352170467376709,0.1237849816679954,-0.5232521891593933,0.8521880507469177,0
15045,0.0029857284389436,-0.012049451470375,1.004236936569214,1.1431554555892944,-1.736140251159668,-1.2085745334625244,-0.0610654018819332,-0.0169580355286598,0.535440981388092,0.1384230703115463,-0.4858503341674804,0.8417883515357971,0
15175,0.0084566315636038,-0.008987427689135,1.004767894744873,-2.425081729888916,0.5216642618179321,0.0421370454132556,-0.0523045994341373,-0.0148342018947005,0.5360890030860901,0.0942098498344421,-0.3854599893093109,0.7896126508712769,0
15195,0.0062731024809181,-0.032917346805334,1.0159547328948977,-1.2758309841156006,-1.3406732082366943,-0.0783834382891655,-0.0559761673212051,-0.016930267214775,0.5361440777778625,0.057029016315937,-0.3765686452388763,0.791914165019989,0
15325,0.0206488948315382,-0.0350206568837165,1.0085201263427734,0.3509623408317566,-2.543346643447876,-1.0713324546813965,-0.053530815988779,-0.0199274010956287,0.5356025099754333,0.0033675639424473,-0.1113702654838562,0.6967939734458923,0
15375,0.0069322818890213,-0.0186522044241428,0.9828121066093444,-0.1638345569372177,-1.7787092924118042,-0.0405852124094963,-0.0529427155852317,-0.0203760880976915,0.5359638929367065,0.0105994213372468,-0.0188168156892061,0.6668533086776733,0
15385,0.0072408881969749,0.0065844510681927,0.9848932027816772,-0.7270833253860474,-2.6156909465789795,-0.4594097137451172,-0.0503276549279689,-0.0200456567108631,0.5359628200531006,0.0033968894276767,-0.0066265547648072,0.6634086966514587,0
15515,0.0065587949939072,-0.0186094734817743,1.006170630455017,-0.3333003520965576,-0.1504925787448883,-0.2175903171300888,-0.0510444864630699,-0.0227198097854852,0.5361135601997375,-0.1139630079269409,0.2007908672094345,0.5933597087860107,0
15555,0.012634159065783,0.0016837965231388,0.9812434911727904,1.231445074081421,0.3092129230499267,-0.3922297656536102,-0.050688337534666,-0.0230459086596965,0.5315088033676147,-0.1336603313684463,0.1567619889974594,0.5905618071556091,0
15685,0.0042112995870411,-0.006378277670592,0.998138427734375,2.734365940093994,1.5556364059448242,-0.2008180618286132,-0.0500924251973629,-0.0162121523171663,0.533319890499115,-0.0450981631875038,0.1636629849672317,0.5322679877281189,0
15715,0.0044579720124602,-0.0084444815292954,1.0197184085845947,1.0134090185165403,0.5171595215797424,-0.0429987087845802,-0.0495628155767917,-0.0129110030829906,0.5337345004081726,-0.0278121344745159,0.1219636648893356,0.5317667722702026,0
15735,0.0072535760700702,-0.0265426430851221,1.0260330438613892,-0.0170294120907783,-0.1585535556077957,-0.775741696357727,-0.0494398847222328,-0.0096017718315124,0.534048318862915,-0.0125019783154129,0.1064310222864151,0.5311524271965027,0
15755,0.0101150358095765,-0.0114301769062876,1.0042845010757446,0.5290301442146301,1.0906071662902832,-1.0785795450210571,-0.057327888906002,-0.0135465199127793,0.534449577331543,0.0166310928761959,0.1453615576028823,0.5122164487838745,0
15855,0.0039758472703397,-0.0064915693365037,0.9824216961860656,-0.3368890285491943,2.2169711589813232,-0.516327977180481,-0.0577139072120189,0.0008775899768806,0.5344911813735962,0.1831821352243423,0.0321553163230419,0.4442128539085388,0
15875,0.0029575088992714,0.0020069933962076,0.9947336912155152,1.4389439821243286,3.5753023624420166,0.0868446081876754,-0.0623262003064155,-0.0037671574391424,0.5339445471763611,0.2121580690145492,-0.006519014481455,0.4399663507938385,0
15995,0.0073651326820254,-0.0100203640758991,0.987657368183136,0.2182875275611877,3.091513156890869,-0.9096443057060242,-0.077390931546688,0.0019337879493832,0.5358656048774719,0.2689870297908783,-0.2125957161188125,0.3801900148391723,0
16065,0.0048729660920798,-0.0083509236574172,1.0207295417785645,2.03456449508667,-0.3146872520446777,-0.4213446080684662,-0.0802811458706855,0.0021535570267587,0.531619668006897,0.4105619490146637,-0.4690621495246887,0.3604415655136108,0
16075,0.005763376597315,-0.0145666226744651,1.0146030187606812,-0.0286548174917697,-0.9178975224494934,-1.0142905712127686,-0.0802811458706855,0.0021535570267587,0.531619668006897,0.4105619490146637,-0.4690621495246887,0.3604415655136108,0
16235,0.0038376324810087,0.0008941636770032,1.0058891773223877,-5.365617275238037,-0.2579172551631927,-0.7512521743774414,-0.0854887887835502,0.000937309639994,0.5282558798789978,0.2001793980598449,-0.4304238557815552,0.2895196974277496,0
16245,0.0058548478409647,0.0017073762137442,1.0188096761703491,-1.1231968402862549,-0.8246727585792542,-0.5466389656066895,-0.0856231376528739,0.0009087200742214,0.5280894637107849,0.1464345455169677,-0.4209648370742798,0.2810938954353332,0
16335,0.0138067947700619,-0.0081322817131876,1.0138707160949707,-3.787132501602173,-1.577791452407837,-0.1762020736932754,-0.083700031042099,-0.0022559708449989,0.5271704792976379,0.1094155013561248,-0.3149840831756592,0.2889354825019836,0
16375,0.0129396449774503,0.0034373607486486,0.983674943447113,-1.876461625099182,-0.772797703742981,0.234293907880783,-0.0838690400123596,-0.0049523976631462,0.5248581171035767,-0.0273849200457334,-0.260181188583374,0.2912301123142242,0
16415,0.0082989344373345,-0.0134699586778879,1.0198978185653689,1.4143882989883425,0.9421254992485046,0.0186431929469108,-0.0837574005126953,-0.0084668854251503,0.5272074341773987,-0.0420392267405986,-0.2464663237333297,0.2813753485679626,0
16415,0.0082989344373345,-0.0134699586778879,1.0198978185653689,1.4143882989883425,0.9421254992485046,0.0186431929469108,-0.0837553068995475,-0.0086140371859073,0.5271978974342346,-0.0347628146409988,-0.2587880790233612,0.280310183763504,0
16535,0.0131307356059551,-0.0164194907993078,1.025950908660889,2.28240704536438,-2.758450984954834,-0.1463783383369445,-0.0787417069077491,-0.0064355386421084,0.5249633193016052,-0.1536130011081695,-0.0537999235093593,0.2837453782558441,0
16545,0.0058182207867503,-0.012791627086699,1.0168665647506714,2.9666860103607178,-2.670933723449707,-0.5508561134338379,-0.0729281976819038,-0.0069911172613501,0.5248971581459045,-0.1200303509831428,-0.045135274529457,0.2781949341297149,0
16585,0.007302158512175,-0.0100685097277164,1.0106933116912842,-1.1461857557296753,-1.7526081800460815,0.4523089826107025,-0.0713102743029594,-0.0040105059742927,0.529004693031311,-0.0789288729429245,0.0557335764169693,0.2749327719211578,0
16715,0.010565223172307,-0.0102287624031305,0.9817156195640564,-1.407326340675354,-1.5727615356445312,-0.117654338479042,-0.0699793919920921,0.0017231312813237,0.5337536334991455,-0.0240056999027729,0.2641785144805908,0.2814470827579498,0
16715,0.010565223172307,-0.0102287624031305,0.9817156195640564,-1.407326340675354,-1.5727615356445312,-0.117654338479042,-0.0707495883107185,-0.001174314180389,0.5339124202728271,-0.0132343582808971,0.2826768457889557,0.2782708406448364,0
16755,0.0239001866430044,0.0036093031521886,0.9634174704551696,-0.9498772025108336,1.381525993347168,0.0202326886355876,-0.0705736801028251,0.0021807292941957,0.5321374535560608,-0.0665164217352867,0.3120486140251159,0.2814724743366241,0
16875,0.0112850507721304,-0.0123514691367745,1.0019490718841553,0.4912191033363342,2.8116137981414795,0.8380119204521179,-0.0693543255329132,0.0077997441403567,0.5252840518951416,0.0879960805177688,0.1718526780605316,0.2935743331909179,0
16895,0.0065628611482679,-0.0238004513084888,1.0388246774673462,1.997955083847046,-1.1941580772399902,0.6596528887748718,-0.0718594565987587,0.0075496672652661,0.5245281457901001,0.0999768525362014,0.1512100249528885,0.3097054362297058,0
16935,-0.0025803463067859,-0.0013380153104662,1.0190675258636477,2.7389533519744877,1.1499485969543457,0.3013490736484527,-0.0719490498304367,0.0100542409345507,0.5298636555671692,0.2052689492702484,0.2042597383260727,0.3073430359363556,0
17075,0.0183037053793668,-0.0117867859080433,0.9757409691810608,-0.673409104347229,1.8613147735595703,-0.2493272274732589,-0.0816496238112449,0.0159825384616851,0.5316696763038635,0.3107861280441284,0.0056640445254743,0.3062739670276642,0
17155,0.0036821379326283,-0.0016261901473626,0.9595766067504884,-1.605235934257507,2.2285232543945312,0.5637441277503967,-0.0865813791751861,0.0190030224621295,0.5300571322441101,0.3273385167121887,-0.1491191536188125,0.3003098666667938,0
17225,0.0062422538176178,-0.0124408891424536,0.9905926585197448,1.154561996459961,0.316841572523117,-0.0996723845601081,-0.086506962776184,0.0226610712707042,0.5321716666221619,0.3228864073753357,-0.2198295593261718,0.3098353743553161,0
17245,0.0134282233193516,-0.0230010189116001,1.0013041496276855,-1.5523563623428345,0.5545749664306641,0.4231222867965698,-0.0867870971560478,0.0228668916970491,0.5319536924362183,0.3394007086753845,-0.2358210980892181,0.3079409301280975,0
17335,0.0045049414038658,-0.0109664145857095,1.0254120826721191,-0.1536973714828491,-0.7724946737289429,0.2124015986919403,-0.0940174758434295,0.0231021791696548,0.5252817869186401,0.2845257818698883,-0.2829494476318359,0.3409414291381836,0
17415,0.002568487310782,0.0009628112311474,0.9991685152053832,0.4329933822154999,-0.7563914656639099,-0.348968505859375,-0.0907283052802085,0.0241342522203922,0.5261609554290771,0.1949066519737243,-0.289828896522522,0.3772604763507843,0
17415,0.002568487310782,0.0009628112311474,0.9991685152053832,0.4329933822154999,-0.7563914656639099,-0.348968505859375,-0.0907283052802085,0.0241342522203922,0.5261609554290771,0.1949066519737243,-0.289828896522522,0.3772604763507843,0
17545,-0.0044918162748217,0.0048731490969657,1.0270618200302124,-3.312915086746216,-1.44844651222229,0.4092877507209778,-0.0920417681336402,0.0149717517197132,0.5162380933761597,0.0144732734188437,-0.1871824711561203,0.4281826019287109,0
17575,0.0137997986748814,-0.0178342908620834,1.0417897701263428,-0.8248699903488159,0.4640082418918609,0.6560954451560974,-0.0921018719673156,0.0146097531542181,0.5163898468017578,-0.0480816178023815,-0.1709854900836944,0.4409835338592529,0
17585,-0.0046792197972536,0.0032197274267673,1.0284066200256348,-1.074134111404419,0.6478856205940247,1.1190708875656128,-0.0920450836420059,0.0117259426042437,0.5162627100944519,-0.0448930338025093,-0.1810515820980072,0.4493768513202667,0
17725,0.0117368726059794,-0.0029666479676961,1.015857458114624,0.1747281700372696,-0.6037049293518066,0.2668045461177826,-0.089632511138916,0.0055554141290485,0.5118973255157471,-0.2051105350255966,-0.0421698540449142,0.5007355213165283,0
17895,0.009254234842956,0.0002980054414365,0.9695205092430116,-0.0125440200790762,-1.953197360038757,-0.1977496147155761,-0.0868811532855033,0.009681693278253,0.5208730697631836,-0.2550459802150726,0.0134861720725893,0.4698892831802368,0
17925,0.0088486326858401,-0.0033336419146507,0.9831571578979492,1.2118124961853027,0.0785437449812889,0.2574164271354675,-0.0836046412587165,0.0092381797730922,0.5179638862609863,-0.2166291922330856,0.0285955592989921,0.4640507102012634,0
17925,0.0088486326858401,-0.0033336419146507,0.9831571578979492,1.2118124961853027,0.0785437449812889,0.2574164271354675,-0.0836046412587165,0.0092381797730922,0.5179638862609863,-0.2166291922330856,0.0285955592989921,0.4640507102012634,0
17925,0.0088486326858401,-0.0033336419146507,0.9831571578979492,1.2118124961853027,0.0785437449812889,0.2574164271354675,-0.0836046412587165,0.0092381797730922,0.5179638862609863,-0.2166291922330856,0.0285955592989921,0.4640507102012634,0
18065,0.0148147009313106,-0.0172162000089883,0.9948550462722778,1.8917453289031985,0.3604452013969421,0.0446164682507514,-0.0833005383610725,0.0154259679839015,0.520087718963623,-0.0492411591112613,0.1284573823213577,0.4532590210437774,0
18105,0.0048960787244141,-0.0061074015684425,0.980493187904358,2.5646867752075195,-1.0069094896316528,0.0053581623360514,-0.0805393680930137,0.0210463628172874,0.5255430340766907,0.0512905307114124,0.1500395536422729,0.4708741903305053,0
18195,0.0103902900591492,-0.0143067818135023,0.991567611694336,3.358696937561035,-0.3673812448978424,-0.9069216251373292,-0.0744475349783897,0.029865339398384,0.5226948261260986,0.1808656454086303,0.2066504508256912,0.4413685798645019,0
18255,0.0121652027592062,-0.0041186856105923,0.9909074306488036,2.059520959854126,-1.0461345911026,-0.2344319075345993,-0.0783350840210914,0.0306402426213026,0.5224155783653259,0.3166909515857696,0.2572279572486877,0.4289125502109527,0
18295,0.0118715707212686,0.0100156925618648,0.9697946310043336,-0.4554752707481384,0.8811814785003662,0.3559140563011169,-0.0785007551312446,0.0366764217615127,0.5219822525978088,0.3312955200672149,0.2535927593708038,0.4251343309879303,0
18295,0.0118715707212686,0.0100156925618648,0.9697946310043336,-0.4554752707481384,0.8811814785003662,0.3559140563011169,-0.0784633234143257,0.0369210615754127,0.5218435525894165,0.3261627852916717,0.2422218471765518,0.429441899061203,0
18325,0.0082157300785183,-0.0067911930382251,0.9854958057403564,2.6337461471557617,1.1869773864746094,-0.4357142150402069,-0.080872043967247,0.0416091419756412,0.5213302373886108,0.3539378643035888,0.226270392537117,0.4330343306064605,0
18445,0.0060125729069113,-0.0082472367212176,1.0229120254516602,0.382618248462677,5.1360368728637695,0.1634376794099807,-0.0914590060710907,0.0470257811248302,0.5233260989189148,0.4597830772399902,0.0068370276130735,0.4754420220851898,0
18475,0.0130899176001548,-0.0200061053037643,1.009220838546753,2.0651721954345703,3.868649959564209,-0.5267679691314697,-0.0915608331561088,0.044999212026596,0.5204268097877502,0.4979639947414398,-0.0893532037734985,0.4667421877384186,0
18485,0.0115106115117669,-0.0263840928673744,0.9992402791976928,0.786685049533844,3.314887523651123,-0.5312250256538391,-0.0915608331561088,0.044999212026596,0.5204268097877502,0.4979639947414398,-0.0893532037734985,0.4667421877384186,0
18485,0.0115106115117669,-0.0263840928673744,0.9992402791976928,0.786685049533844,3.314887523651123,-0.5312250256538391,-0.0915608331561088,0.044999212026596,0.5204268097877502,0.4979639947414398,-0.0893532037734985,0.4667421877384186,0
18485,0.0115106115117669,-0.0263840928673744,0.9992402791976928,0.786685049533844,3.314887523651123,-0.5312250256538391,-0.0915608331561088,0.044999212026596,0.5204268097877502,0.4979639947414398,-0.0893532037734985,0.4667421877384186,0
18495,0.0046146283857524,-0.0226786937564611,0.9962683320045472,1.3079869747161863,1.637698769569397,0.0765952616930008,-0.0935334712266922,0.0449534282088279,0.5202957391738892,0.5187206864356995,-0.1343313008546829,0.4629514217376709,0
18655,0.0106467586010694,-0.0131963016465306,1.0166579484939575,-2.8613901138305664,1.7521716356277466,-0.3003852367401123,-0.0933850929141044,0.0377297513186931,0.5140694975852966,0.2301634550094604,-0.2788392603397369,0.4268417656421661,0
18685,-0.0044975159689784,-0.0065059792250394,1.034165382385254,-5.353209972381592,-1.5403584241867063,-0.4191820025444031,-0.0958385840058326,0.0318010076880455,0.5115593075752258,0.1196534857153892,-0.2755012810230255,0.4119341075420379,0
18695,0.0050426959060132,-0.0207526795566082,1.0314146280288696,-4.426589012145996,-0.0958247631788253,-0.354715496301651,-0.0931047424674034,0.0331086441874504,0.5113373398780823,0.0628659352660179,-0.2903092503547668,0.4079335033893585,0
18705,0.0082378899678587,-0.0113776177167892,1.005119562149048,-3.268728733062744,-0.6932590007781982,0.1972221881151199,-0.0931047424674034,0.0331086441874504,0.5113373398780823,0.0628659352660179,-0.2903092503547668,0.4079335033893585,0
18815,0.0109081994742155,0.0019578118808567,0.994994580745697,-0.203492671251297,-0.1914481520652771,-0.6425017714500427,-0.0936814695596695,0.026822030544281,0.5168994665145874,-0.1620602160692215,-0.2011224180459976,0.3902180194854736,0
18915,0.0105007365345954,0.00380359753035,0.989462435245514,-1.3244895935058594,-1.213293433189392,-0.7357155680656433,-0.0960517525672912,0.0227146241813898,0.5139949321746826,-0.2742140293121338,-0.0778796151280403,0.330363005399704,0
18925,0.0061402912251651,-0.0074274144135415,0.9815546870231628,-1.0860639810562134,-1.2829819917678833,-0.0998297333717346,-0.0960583090782165,0.0225371476262807,0.5139232873916626,-0.2881712615489959,-0.0629978030920028,0.3278199136257171,0
19025,0.0134732546284794,-0.0224557723850011,1.018454909324646,-1.949774980545044,-1.230842113494873,-0.0157002341002225,-0.0963426604866981,0.0162849705666303,0.5132717490196228,-0.4183657467365265,-0.0205598678439855,0.3037059307098388,0
19065,0.0056815585121512,-0.0068347048945724,1.019771933555603,2.1311821937561035,0.1203246489167213,0.109714575111866,-0.0947587341070175,0.0170797146856784,0.5132186412811279,-0.4485503435134887,0.0069193704985082,0.2862748205661773,0
19075,0.0086137987673282,-0.0069980234839022,1.0151498317718506,-0.3045949935913086,2.339935541152954,0.2499771863222122,-0.0966564491391182,0.0171256884932518,0.5131306052207947,-0.43105548620224,0.0008753951406106,0.2875328958034515,0
19095,0.0029202655423432,-0.0197028052061796,0.995853066444397,0.885921835899353,0.2403560131788253,-0.1019786298274993,-0.0966612175107002,0.0170111134648323,0.5131463408470154,-0.4362873435020447,-0.0206401012837886,0.2874806821346283,0
19275,0.0025951934512704,-0.0038337707519531,0.9899269342422484,3.656667947769165,-0.031404785811901,-0.5547494888305664,-0.0964900478720665,0.0273147877305746,0.5194442272186279,-0.0770301520824432,-0.0105534950271248,0.2326756119728088,0
19285,0.0022362160962074,-0.0072573251090943,0.9959004521369934,3.3594958782196045,-0.2008533477783203,0.0615518726408481,-0.0964840352535247,0.027456684038043,0.5197038650512695,-0.0435476377606391,-0.0127144921571016,0.2312799841165542,0
19435,0.0152561357244849,-0.024408932775259,0.9966161847114564,2.815373420715332,0.496023029088974,-0.3870997130870819,-0.0980638936161995,0.0369951985776424,0.5192535519599915,0.3045320510864258,-0.0884608030319213,0.1422388851642608,0
19465,0.0045908191241323,-0.0088936956599354,0.9930782914161682,2.2710890769958496,-0.015056506730616,-1.1789292097091677,-0.100483551621437,0.0393394157290458,0.5195294618606567,0.3808526694774627,-0.0669025629758834,0.1235499009490013,0
19475,0.007584074512124,-0.0124674150720238,0.988697588443756,2.049598217010498,-0.2356283515691757,-0.8796532154083252,-0.0983692705631256,0.038768246769905,0.5195168852806091,0.4088470041751861,-0.0767732933163642,0.1150637194514274,0
19675,0.0040280665270984,0.0012367806630209,0.9921059012413024,-2.422252655029297,0.3001132607460022,-0.2511211335659027,-0.1029172614216804,0.0438362434506416,0.5174034237861633,0.3944403529167175,-0.0686961188912391,0.0876849293708801,0
19715,0.005186908878386,-0.0138806318864226,1.00895357131958,-0.6484805941581726,-1.229498267173767,-0.0689960643649101,-0.1029753684997558,0.0425959825515747,0.5144771933555603,0.325182169675827,-0.0652108117938041,0.0875222608447074,0
19745,0.0109010972082614,0.0054470188915729,0.989435374736786,-0.9285011291503906,-1.6036957502365112,-0.3701258897781372,-0.1012819707393646,0.0428664870560169,0.5139442682266235,0.3075488209724426,-0.0480170771479606,0.0860355123877525,0
19745,0.0109010972082614,0.0054470188915729,0.989435374736786,-0.9285011291503906,-1.6036957502365112,-0.3701258897781372,-0.1012819707393646,0.0428664870560169,0.5139442682266235,0.3075488209724426,-0.0480170771479606,0.0860355123877525,0
19755,0.0160515196621418,-0.044320672750473,1.0228215456008911,-2.8869009017944336,0.4779217839241028,-0.0370934344828128,-0.0993734821677208,0.0430824644863605,0.5108523368835449,0.2753265798091888,-0.0400376804172992,0.0815249681472778,0
19775,0.0080192629247903,-0.0163168050348758,1.0123558044433594,-0.3620021343231201,-0.6845446228981018,0.5566987991333008,-0.099354401230812,0.0431027263402938,0.5104802250862122,0.2654182314872741,-0.0340053290128707,0.0825053825974464,0
19785,0.0010864911600947,-0.0068934150040149,1.0095964670181274,-0.9721164107322692,0.0164097901433706,0.3483903110027313,-0.0993346720933914,0.0431183166801929,0.5101182460784912,0.2608336508274078,-0.0332525931298732,0.0864517837762832,0
19795,-0.0018543682526797,0.0034826740156859,1.0176514387130735,-1.512493133544922,-1.078378200531006,0.3731862306594848,-0.0993143618106842,0.0431293696165084,0.5097637176513672,0.253494530916214,-0.0327535457909107,0.0897873118519783,0
19965,0.0067064929753541,-0.0118173444643616,1.026300311088562,-0.1223894506692886,2.823692321777344,-0.0831461250782013,-0.0998474359512329,0.0378976054489612,0.5046030282974243,-0.1067728921771049,0.0355786494910717,0.176132783293724,0
20065,0.0019523757509887,-0.0119116744026541,1.0293184518814087,-1.2973291873931885,0.2337362468242645,0.5865665674209595,-0.0993422791361808,0.0359463728964328,0.5014965534210205,-0.1588164865970611,-0.0130580505356192,0.1501495391130447,0
20075,0.0142869297415018,-0.0050540710799396,1.0342191457748413,-0.4061630070209503,0.6332606077194214,0.1915764957666397,-0.0993200466036796,0.0358738750219345,0.5016223192214966,-0.1674051135778427,-0.0067612212151288,0.1537362039089203,0
20075,0.0142869297415018,-0.0050540710799396,1.0342191457748413,-0.4061630070209503,0.6332606077194214,0.1915764957666397,-0.0992976501584053,0.0358042567968368,0.5017769932746887,-0.1686574518680572,-0.0078501105308532,0.1574347019195556,0
20075,0.0142869297415018,-0.0050540710799396,1.0342191457748413,-0.4061630070209503,0.6332606077194214,0.1915764957666397,-0.0993060693144798,0.0337582528591156,0.5019724369049072,-0.1639300137758255,0.0002817741187755,0.1610286384820938,0.0
20075,0.0142869297415018,-0.0050540710799396,1.0342191457748413,-0.4061630070209503,0.6332606077194214,0.1915764957666397,-0.0993060693144798,0.0337582528591156,0.5019724369049072,-0.1639300137758255,0.0002817741187755,0.1610286384820938,0.0
20115,0.011994345113635,-0.011879657395184,1.0103594064712524,-0.2817730605602264,0.6786267757415771,-1.2124216556549072,-0.10154639929533,0.0338777787983417,0.5028172135353088,-0.1730131655931472,0.0121894245967268,0.1466210633516311,0
20115,0.011994345113635,-0.011879657395184,1.0103594064712524,-0.2817730605602264,0.6786267757415771,-1.2124216556549072,-0.1015616282820701,0.0337926521897316,0.5031484961509705,-0.1724274754524231,0.0124866971746087,0.1369871795177459,0
20125,0.0045084804296493,-0.0112866852432489,1.0122843980789185,0.6525266766548157,2.3596694469451904,-0.9765153527259828,-0.0990101099014282,0.0360186360776424,0.50350022315979,-0.1816216707229614,-0.0195557381957769,0.1268774420022964,0
20125,0.0045084804296493,-0.0112866852432489,1.0122843980789185,0.6525266766548157,2.3596694469451904,-0.9765153527259828,-0.0989559367299079,0.0359276570379734,0.5027335286140442,-0.1766477525234222,-0.0545765310525894,0.1178035587072372,0.0
20135,0.0106090754270553,-0.0089660407975316,1.0060995817184448,0.0163250137120485,1.947142481803894,-0.202975258231163,-0.0989559367299079,0.0359276570379734,0.5027335286140442,-0.1766477525234222,-0.0545765310525894,0.1178035587072372,0
20145,0.0110260592773556,-0.0075543723069131,1.0082697868347168,0.368762195110321,1.9951810836791992,-0.3410610258579254,-0.1009664312005043,0.0360611453652381,0.5030430555343628,-0.1901028007268905,-0.0562931895256042,0.1110985875129699,0
20235,-0.0048191077075898,0.0078985281288623,1.021756887435913,-0.1537941843271255,0.4060249626636505,-0.8118808269500732,-0.1011781692504882,0.0336648151278495,0.5104855895042419,-0.1535623520612716,-0.0314318686723709,0.0500967279076576,0
20295,0.0039971154183149,-0.0111620780080556,0.9782503843307496,0.8881106972694397,1.6320942640304563,-0.3418069183826446,-0.0986957103013992,0.035784937441349,0.5136613249778748,-0.1203366816043853,-0.1076978966593742,0.0010943869128823,0
20355,0.0066433157771825,-0.0055860397405922,0.9753864407539368,1.1001482009887695,-1.500994324684143,-0.0934289544820785,-0.099674753844738,0.0372625738382339,0.5178819894790649,-0.0656954795122146,-0.0394085831940174,-0.0511863268911838,0
20475,0.0064655309543013,-0.0006033185636624,0.994841992855072,0.0479297041893005,-1.337719202041626,-0.5918591618537903,-0.0975439101457595,0.0443257577717304,0.5146802067756653,0.0238872040063142,0.03377690538764,-0.0754306018352508,0
20475,0.0064655309543013,-0.0006033185636624,0.994841992855072,0.0479297041893005,-1.337719202041626,-0.5918591618537903,-0.0975439101457595,0.0443257577717304,0.5146802067756653,0.0238872040063142,0.03377690538764,-0.0754306018352508,0
20525,-0.0047568827867507,-0.0033845093566924,0.9894404411315918,2.074829339981079,-1.49541437625885,0.8166629672050476,-0.097809612751007,0.0437825769186019,0.5097333192825317,0.1146821230649948,0.0699127987027168,-0.0498211830854415,0
20585,0.0063880253583192,-0.0224107149988412,0.9970080852508544,1.089299201965332,0.2578828334808349,1.4497244358062744,-0.0954271182417869,0.05119464173913,0.5049133896827698,0.1582177281379699,0.0855132639408111,-0.0210983175784349,0
20655,-0.0037560940254479,0.0015369623433798,1.0281509160995483,1.605793833732605,0.7288936376571655,0.7522423267364502,-0.0946421921253204,0.0521045327186584,0.5022597312927246,0.3237228095531463,0.1778335720300674,0.0103695653378963,0
20675,0.0030600195750594,0.0026014889590442,0.9969196915626526,-1.7309175729751587,-1.1410763263702393,0.3261855244636535,-0.0947737470269203,0.0520868971943855,0.5027546286582947,0.3265225291252136,0.1678441911935806,0.0248182397335767,0
20685,0.0059761176817119,-0.0012370198965072,1.0352784395217896,-0.8128438591957092,2.943324089050293,0.4559558033943176,-0.0947239473462104,0.0522530376911163,0.5024505853652954,0.3135320246219635,0.1836985945701599,0.0302952751517295,0
20875,0.0078855529427528,-0.0081135863438248,1.0128777027130127,1.171679973602295,-0.5288105010986328,-0.2362323254346847,-0.0945286899805069,0.0499655567109584,0.5064254999160767,0.2346947640180587,0.0757628455758094,-0.0013539741048589,0
21035,0.0066964300349354,-0.0079841976985335,0.9662995934486388,-0.6020632982254028,1.070509672164917,-0.4454561173915863,-0.0969746559858322,0.0413640365004539,0.5136420130729675,0.0743695348501205,-0.0196740478277206,-0.0614212602376937,0
21065,0.0156486239284276,-0.0054252026602625,0.9762582778930664,-3.426450252532959,1.8427283763885496,-1.4262481927871704,-0.0966464951634407,0.0420221239328384,0.5168032646179199,-0.000614846823737,-0.0723233669996261,-0.0994933098554611,0
21115,0.0073408647440373,-0.0067964550107717,0.9746497869491576,-1.093327522277832,-0.0039934604428708,-0.7510750889778137,-0.096580296754837,0.035887598991394,0.515216588973999,-0.0732905864715576,-0.1105646565556526,-0.1319180727005005,0
21125,0.0139364004135131,-0.0063653509132564,0.9698571562767028,-1.2156667709350586,0.3306950330734253,-1.3845503330230713,-0.0965936183929443,0.0356638953089714,0.5152493715286255,-0.0819162055850029,-0.1071799919009208,-0.1440371125936508,0
21135,0.0181751977652311,-0.0048444829881191,0.977683961391449,-1.776375651359558,-1.2885291576385498,-1.377806305885315,-0.096620462834835,0.0353618450462818,0.5124244689941406,-0.096377857029438,-0.0997223332524299,-0.1581649482250213,0
21245,0.0103911347687244,-0.0109329642727971,1.011707425117493,-2.3166582584381104,0.5416795015335083,0.1984724700450897,-0.0971959382295608,0.0289162527769804,0.5101678967475891,-0.3790288269519806,-0.0708669871091842,-0.2038801461458206,0
21435,0.0160930473357439,-0.020505940541625,1.051387906074524,3.104146718978882,-1.456261157989502,0.144609197974205,-0.0898577943444252,0.0345305278897285,0.5100744962692261,-0.378801554441452,0.0582307465374469,-0.211726427078247,0
21445,0.0075520505197346,-0.0114062745124101,1.0216362476348877,4.305645942687988,-1.3565161228179932,-0.2718138098716736,-0.0902421474456787,0.0367536582052707,0.5107908248901367,-0.3164319097995758,0.0773771330714225,-0.2116063237190246,0
21605,0.0111218793317675,-0.0052276388742029,0.9753988981246948,1.1544383764266968,-0.2610172033309936,-0.7181036472320557,-0.0882066935300827,0.0509211346507072,0.5131874680519104,0.1527124792337417,0.0919100567698478,-0.2673533856868744,0
21635,0.0057740802876651,-0.0102596404030919,0.9907190203666688,3.534836530685425,1.527837157249451,0.2482896894216537,-0.0887045115232467,0.0494896918535232,0.5131425857543945,0.1846882104873657,0.0994489192962646,-0.2716348469257355,0
21695,0.0109260268509387,-0.0018687651026993,0.9782269597053528,3.4392192363739014,0.2282408028841018,0.2099775075912475,-0.0878121703863143,0.0594949983060359,0.5121368765830994,0.3906647562980652,0.0499538145959377,-0.2778933048248291,0
21805,0.0111584365367889,-0.0173367001116275,0.9983401298522948,0.590089738368988,1.1484549045562744,0.3051955997943878,-0.0882994681596756,0.0668151825666427,0.5089941620826721,0.4976332485675812,0.1105215027928352,-0.2549433708190918,0
