timestamp,TimeUS,I,GyrX,GyrY,GyrZ,AccX,AccY,AccZ,EG,EA,T,GH,AH,GHz,AHz
29.22324100,29223241,0,-0.0009135131840594113,0.000983948353677988,-0.0003674589388538152,0.5157116651535034,-0.48183199763298035,-9.8419771194458,0,0,45.86800003051758,1,1,1261,1261
29.22584800,29225848,0,-0.0015704656252637506,0.0009835693053901196,-0.00024434749502688646,0.5184528827667236,-0.48240524530410767,-9.845951080322266,0,0,45.86800003051758,1,1,1261,1261
29.22829600,29228296,0,-0.0019322786247357726,0.0009421722497791052,-0.00049644336104393,0.5194700360298157,-0.482370525598526,-9.850932121276855,0,0,45.86800003051758,1,1,1261,1261
29.23097700,29230977,0,-0.0014932389603927732,0.0010607376461848617,-0.0006958511658012867,0.5162736773490906,-0.48298412561416626,-9.853922843933105,0,0,45.86800003051758,1,1,1261,1261
29.23330200,29233302,0,-0.0012785567669197917,0.0009426373871974647,-0.0006601858185604215,0.5158880352973938,-0.4842856824398041,-9.853839874267578,0,0,45.86800003051758,1,1,1261,1261
29.23574000,29235740,0,-0.0014332598075270653,0.0008056290098465979,0.00015228842676151544,0.5166119933128357,-0.4846896231174469,-9.85483455657959,0,0,45.86800003051758,1,1,1261,1261
29.23829600,29238296,0,-0.001682157046161592,0.0004929568967781961,0.0003087819495704025,0.5167534947395325,-0.48485806584358215,-9.858138084411621,0,0,45.86800003051758,1,1,1261,1261
29.24093200,29240932,0,-0.001642974908463657,5.4816769988974556e-05,0.0004877921601291746,0.5184524059295654,-0.48479071259498596,-9.86435317993164,0,0,45.86800003051758,1,1,1261,1261
29.24322200,29243222,0,-0.0009115485590882599,-0.0002979691489599645,0.0007637387607246637,0.5212998390197754,-0.4857443869113922,-9.867742538452148,0,0,45.86800003051758,1,1,1261,1261
29.24581000,29245810,0,4.181994154350832e-05,-2.4379492970183492e-05,0.0007979532820172608,0.5224760174751282,-0.4861494302749634,-9.867671012878418,0,0,45.86800003051758,1,1,1261,1261
29.24825500,29248255,0,0.0005107804317958653,0.0006124347564764321,0.0006996503798291087,0.5214407444000244,-0.4842054545879364,-9.86555004119873,0,0,45.86800003051758,1,1,1261,1261
29.25096300,29250963,0,0.00047993133193813264,0.0008279948378913105,0.0007037468021735549,0.5186938047409058,-0.4811664819717407,-9.864486694335938,0,0,45.86800003051758,1,1,1261,1261
29.25328300,29253283,0,0.000481769151519984,0.0006161050987429917,0.0004978717188350856,0.5181524157524109,-0.4795582890510559,-9.864579200744629,0,0,45.86800003051758,1,1,1261,1261
29.25576400,29255764,0,0.0007120785885490477,8.216274727601558e-05,0.0001322072494076565,0.5191799402236938,-0.4749988615512848,-9.863815307617188,0,0,45.86800003051758,1,1,1261,1261
29.25832000,29258320,0,0.0009239337523467839,-1.4303089301392902e-05,-0.0004343606415204704,0.5187861323356628,-0.47164300084114075,-9.863255500793457,0,0,45.86800003051758,1,1,1261,1261
29.26093800,29260938,0,0.0010592887410894036,4.8067147872643545e-05,-0.0013660478871315718,0.5186155438423157,-0.46796709299087524,-9.859241485595703,0,0,45.86800003051758,1,1,1261,1261
29.26330900,29263309,0,0.0007765142945572734,9.772575867827982e-05,-0.0015490263467654586,0.519157886505127,-0.46601781249046326,-9.854399681091309,0,0,45.86800003051758,1,1,1261,1261
29.26575700,29265757,0,0.00029758401797153056,0.0001373807026538998,-0.0013180272653698921,0.5208708047866821,-0.4649200737476349,-9.851011276245117,0,0,45.86800003051758,1,1,1261,1261
29.26833500,29268335,0,-0.00045786265400238335,0.00010151125025004148,-0.0007787271752022207,0.5242217779159546,-0.46455198526382446,-9.848145484924316,0,0,45.86800003051758,1,1,1261,1261
29.27096700,29270967,0,-0.0008763087680563331,0.00046934947022236884,-0.00037831394001841545,0.5250099897384644,-0.46450188755989075,-9.848714828491211,0,0,45.86800003051758,1,1,1261,1261
29.27322200,29273222,0,-0.0011697913287207484,0.0013395861024037004,0.00022362542222253978,0.5262540578842163,-0.46310514211654663,-9.849186897277832,0,0,45.86800003051758,1,1,1261,1261
29.27582200,29275822,0,-0.0012149341637268662,0.0017635573167353868,0.0006703371182084084,0.5273222923278809,-0.4627082943916321,-9.848406791687012,0,0,45.86800003051758,1,1,1261,1261
29.27825900,29278259,0,-0.0009437414701096714,0.0018666170071810484,0.0011362785007804632,0.5305262804031372,-0.46478521823883057,-9.847892761230469,0,0,45.86800003051758,1,1,1261,1261
29.28096700,29280967,0,-0.0005958520923741162,0.001612064428627491,0.0010240075644105673,0.5341836810112,-0.4691336154937744,-9.845693588256836,0,0,45.86800003051758,1,1,1261,1261
29.28331600,29283316,0,-0.0006895287660881877,0.0015498449793085456,0.0008486116421408951,0.535584032535553,-0.472441703081131,-9.844913482666016,0,0,45.86800003051758,1,1,1261,1261
29.28572500,29285725,0,-0.0004182635457254946,0.000857411592733115,0.0004371280665509403,0.5370885133743286,-0.47525185346603394,-9.844293594360352,0,0,45.900001525878906,1,1,1261,1261
29.28834000,29288340,0,-0.00023077741207089275,0.000547704694326967,0.00026934390189126134,0.5370789766311646,-0.47482332587242126,-9.842884063720703,0,0,45.900001525878906,1,1,1261,1261
29.29104700,29291047,0,-0.0001374053827021271,0.00047728640493005514,6.752548506483436e-05,0.5371317863464355,-0.4732836186885834,-9.841231346130371,0,0,45.900001525878906,1,1,1261,1261
29.29330800,29293308,0,-0.00028404835029505193,0.000504014955367893,-5.808220157632604e-05,0.5366858839988708,-0.47313418984413147,-9.840442657470703,0,0,45.900001525878906,1,1,1261,1261
29.29580300,29295803,0,-0.0007403228664770722,0.00039181672036647797,8.280397014459595e-05,0.5354633927345276,-0.47576668858528137,-9.839000701904297,0,0,45.900001525878906,1,1,1261,1261
29.29822900,29298229,0,-0.001046340330503881,-2.7418680019763997e-06,-0.0001442433858755976,0.5368450880050659,-0.47942760586738586,-9.840117454528809,0,0,45.900001525878906,1,1,1261,1261
29.30095600,29300956,0,-0.001039708498865366,-0.0006033191457390785,-0.00012681650696322322,0.5413676500320435,-0.48111435770988464,-9.846373558044434,0,0,45.900001525878906,1,1,1261,1261
29.30335700,29303357,0,-0.0009168604156002402,-0.001011664280667901,0.00022458245803136379,0.5448457598686218,-0.48044246435165405,-9.851157188415527,0,0,45.900001525878906,1,1,1261,1261
29.30580100,29305801,0,-0.0005772597505711019,-0.0008140511345118284,0.00024016323732212186,0.5485647320747375,-0.4826333224773407,-9.855375289916992,0,0,45.900001525878906,1,1,1261,1261
29.30840900,29308409,0,-3.216713230358437e-05,-0.0002688292588572949,-1.9653745766845532e-05,0.5494993329048157,-0.48615849018096924,-9.854921340942383,0,0,45.900001525878906,1,1,1261,1261
29.31097500,29310975,0,0.0002723132784012705,0.00016549510473851115,-3.8853751902934164e-05,0.5498069524765015,-0.48856890201568604,-9.852768898010254,0,0,45.900001525878906,1,1,1261,1261
29.31330600,29313306,0,0.0003115579311270267,-0.00017103170102927834,-3.558163734851405e-05,0.550406277179718,-0.49035775661468506,-9.8533353805542,0,0,45.900001525878906,1,1,1261,1261
29.31572800,29315728,0,0.00010831741383299232,-0.0003907310892827809,4.299826468923129e-05,0.5499690771102905,-0.49150606989860535,-9.856151580810547,0,0,45.900001525878906,1,1,1261,1261
29.31830500,29318305,0,-0.00033012329367920756,-0.00022925782832317054,-1.7873040633276105e-05,0.5480740070343018,-0.490547776222229,-9.856924057006836,0,0,45.900001525878906,1,1,1261,1261
29.32094200,29320942,0,-0.000617500685621053,4.669093686970882e-05,-0.00028728783945553005,0.5453910827636719,-0.4885876774787903,-9.85776138305664,0,0,45.900001525878906,1,1,1261,1261
29.32323400,29323234,0,-0.0008895934442989528,-0.00014623945753555745,-0.00034787357435561717,0.541006326675415,-0.48420706391334534,-9.85806941986084,0,0,45.900001525878906,1,1,1261,1261
29.32583400,29325834,0,-0.0011171922087669373,-0.0001875569432741031,-0.0004025805101264268,0.5389131307601929,-0.4810425341129303,-9.856303215026855,0,0,45.900001525878906,1,1,1261,1261
29.32825700,29328257,0,-0.0014218707801774144,-0.00013077992480248213,-0.000714613648597151,0.536013662815094,-0.4758613705635071,-9.856486320495605,0,0,45.900001525878906,1,1,1261,1261
29.33115300,29331153,0,-0.0012772997142747045,-0.00027208292158320546,-0.0006510851089842618,0.5353450179100037,-0.4729650318622589,-9.858386039733887,0,0,45.900001525878906,1,1,1261,1261
29.33327500,29333275,0,-0.0007707924814894795,-0.0004865434020757675,-0.0005661839968524873,0.5344204902648926,-0.47204509377479553,-9.859946250915527,0,0,45.900001525878906,1,1,1261,1261
29.33572300,29335723,0,-8.635908307041973e-05,-0.0007056908216327429,-0.0005844327388331294,0.5312700271606445,-0.47158944606781006,-9.860011100769043,0,0,45.900001525878906,1,1,1261,1261
29.33831100,29338311,0,-0.00011069168976973742,-0.0006953892298042774,-0.0005015277420170605,0.5290088057518005,-0.4717881679534912,-9.858871459960938,0,0,45.900001525878906,1,1,1261,1261
29.34089000,29340890,0,-0.00021539870067499578,-0.0003934134729206562,-7.322023884626105e-05,0.5250207185745239,-0.47379377484321594,-9.857988357543945,0,0,45.900001525878906,1,1,1261,1261
29.34331100,29343311,0,-0.0005314578302204609,-0.0005259796744212508,0.00016261545533780009,0.5224850177764893,-0.47482621669769287,-9.858567237854004,0,0,45.900001525878906,1,1,1261,1261
29.34578100,29345781,0,-0.0011539397528395057,-0.0006837839027866721,0.00017123644647654146,0.5201361775398254,-0.4751768708229065,-9.859289169311523,0,0,45.900001525878906,1,1,1261,1261
29.34824900,29348249,0,-0.0012610980775207281,-0.0006732164765708148,0.00010094673780258745,0.5179952383041382,-0.4749968349933624,-9.859723091125488,0,0,45.900001525878906,1,1,1261,1261
29.35097100,29350971,0,-0.0012523651821538806,-0.00029418509802781045,0.00019878610328305513,0.5161199569702148,-0.4745562970638275,-9.86009407043457,0,0,45.900001525878906,1,1,1261,1261
29.35322600,29353226,0,-0.0009629576234146953,4.402483318699524e-05,0.0007656065281480551,0.5172003507614136,-0.4732464551925659,-9.857206344604492,0,0,45.900001525878906,1,1,1261,1261
29.35600800,29356008,0,-0.0011105025187134743,0.0002244974602945149,0.001262693083845079,0.5202457904815674,-0.47338294982910156,-9.855581283569336,0,0,45.900001525878906,1,1,1261,1261
29.35830200,29358302,0,-0.0014351351419463754,0.0004977521602995694,0.0015363990096375346,0.5259889960289001,-0.4725978970527649,-9.854927062988281,0,0,45.900001525878906,1,1,1261,1261
29.36096800,29360968,0,-0.0013748392229899764,0.0004978888900950551,0.0017214210238307714,0.5303264260292053,-0.47059428691864014,-9.855345726013184,0,0,45.858001708984375,1,1,1261,1261
29.36331600,29363316,0,-0.0009346500737592578,0.00045780750224366784,0.001507819164544344,0.5327013731002808,-0.4699861705303192,-9.855755805969238,0,0,45.858001708984375,1,1,1261,1261
29.36571200,29365712,0,-0.0006995126022957265,0.0005636457353830338,0.0011159904533997178,0.5331413745880127,-0.4691002070903778,-9.854950904846191,0,0,45.858001708984375,1,1,1261,1261
29.36833300,29368333,0,-0.0005712288548238575,0.0004739271244034171,0.0008945075096562505,0.5316550731658936,-0.46851301193237305,-9.852765083312988,0,0,45.858001708984375,1,1,1261,1261
29.37091500,29370915,0,-0.0007410650723613799,0.0003587942919693887,0.0006490637315437198,0.5300112962722778,-0.4691601097583771,-9.85108470916748,0,0,45.858001708984375,1,1,1261,1261
29.37322900,29373229,0,-0.0009018067503347993,5.751045682700351e-05,0.00015209709818009287,0.5279944539070129,-0.47101137042045593,-9.851007461547852,0,0,45.858001708984375,1,1,1261,1261
29.37580800,29375808,0,-0.0007838721503503621,0.0001387156662531197,9.119794412981719e-05,0.5275509357452393,-0.4719548225402832,-9.852264404296875,0,0,45.858001708984375,1,1,1261,1261
29.37822900,29378229,0,-0.0004428672546055168,0.0001689451455604285,0.0002655487915035337,0.5265741944313049,-0.47376659512519836,-9.852341651916504,0,0,45.858001708984375,1,1,1261,1261
29.38096100,29380961,0,-0.00021553727856371552,0.00030213649733923376,0.0005562438745982945,0.525977373123169,-0.4727681875228882,-9.85097599029541,0,0,45.858001708984375,1,1,1261,1261
29.38324400,29383244,0,-6.054147888789885e-05,0.0003939456073567271,0.0004864090296905488,0.5264707803726196,-0.471423476934433,-9.850054740905762,0,0,45.858001708984375,1,1,1261,1261
29.38572600,29385726,0,0.0001596869115019217,0.00035734361154027283,0.0004500697832554579,0.5261452198028564,-0.47378525137901306,-9.851295471191406,0,0,45.858001708984375,1,1,1261,1261
29.38834800,29388348,0,0.00047321742749772966,0.0005553965456783772,0.00022191970492713153,0.5249724984169006,-0.4771544337272644,-9.853902816772461,0,0,45.858001708984375,1,1,1261,1261
29.39090700,29390907,0,0.00047169229947030544,0.0011031060712412,-0.0002843030379153788,0.5226930975914001,-0.4797670245170593,-9.858721733093262,0,0,45.858001708984375,1,1,1261,1261
29.39328200,29393282,0,0.00033940718276426196,0.0013762637972831726,-0.0007140509551391006,0.5196986198425293,-0.48031294345855713,-9.861174583435059,0,0,45.858001708984375,1,1,1261,1261
29.39578500,29395785,0,8.081606938503683e-05,0.001657996908761561,-0.000886759371496737,0.5161359906196594,-0.4801819622516632,-9.86033821105957,0,0,45.858001708984375,1,1,1261,1261
29.39822200,29398222,0,-0.0003579295880626887,0.0019077514298260212,-0.00028772241785191,0.5127630829811096,-0.4779675006866455,-9.857047080993652,0,0,45.858001708984375,1,1,1261,1261
29.40095000,29400950,0,-0.00046730515896342695,0.0016693973448127508,0.00011103006545454264,0.5115271210670471,-0.47640374302864075,-9.854284286499023,0,0,45.858001708984375,1,1,1261,1261
29.40330000,29403300,0,-0.0001841552584664896,0.0012988962698727846,0.00042013105121441185,0.5111479759216309,-0.476589173078537,-9.853033065795898,0,0,45.858001708984375,1,1,1261,1261
29.40573000,29405730,0,3.9766495319781825e-05,0.001003983779810369,0.0005101820570416749,0.5119656920433044,-0.47696036100387573,-9.854475975036621,0,0,45.858001708984375,1,1,1261,1261
29.40841800,29408418,0,7.049975829431787e-05,0.00047975656343623996,0.0004349247901700437,0.5142818093299866,-0.47648459672927856,-9.8560209274292,0,0,45.858001708984375,1,1,1261,1261
29.41092200,29410922,0,-0.0001660488051129505,0.00019539812637958676,0.00020645465701818466,0.5169742107391357,-0.4762861728668213,-9.855303764343262,0,0,45.858001708984375,1,1,1261,1261
29.41323400,29413234,0,-0.0005372437299229205,9.51108886511065e-05,-8.375916513614357e-05,0.5201849937438965,-0.4771856367588043,-9.85373306274414,0,0,45.858001708984375,1,1,1261,1261
29.41577900,29415779,0,-0.0008002607501111925,0.00017735350411385298,-0.0005882383557036519,0.5234885215759277,-0.4779297113418579,-9.850640296936035,0,0,45.858001708984375,1,1,1261,1261
29.41821500,29418215,0,-0.0009575986186973751,0.00036932367947883904,-0.0011027059517800808,0.5252497792243958,-0.4776018559932709,-9.847850799560547,0,0,45.858001708984375,1,1,1261,1261
29.42096300,29420963,0,-0.0008774988236837089,0.0005861754179932177,-0.0016599968075752258,0.5255128741264343,-0.4775161147117615,-9.8475341796875,0,0,45.858001708984375,1,1,1261,1261
29.42330400,29423304,0,-0.0006771997432224452,0.0009035653783939779,-0.0019250627374276519,0.5249885320663452,-0.47722962498664856,-9.84753704071045,0,0,45.858001708984375,1,1,1261,1261
29.42572000,29425720,0,-0.0002079384430544451,0.0009672939195297658,-0.0019768844358623028,0.5226764678955078,-0.4741233289241791,-9.846851348876953,0,0,45.858001708984375,1,1,1261,1261
29.42832000,29428320,0,3.588178878999315e-05,0.00031820862204767764,-0.0016822128091007471,0.521226167678833,-0.4719996750354767,-9.845541954040527,0,0,45.858001708984375,1,1,1261,1261
29.43114000,29431140,0,0.00016274995869025588,-0.000396803836338222,-0.0010339653817936778,0.5193352103233337,-0.4717865586280823,-9.845709800720215,0,0,45.858001708984375,1,1,1261,1261
29.43331300,29433313,0,0.0003191725118085742,-0.0007854118593968451,-0.0005981383146718144,0.5179515480995178,-0.47248005867004395,-9.848346710205078,0,0,45.88999938964844,1,1,1261,1261
29.43575700,29435757,0,0.00019014070858247578,-0.0005441416287794709,-0.00042490067426115274,0.5163009166717529,-0.472378134727478,-9.850950241088867,0,0,45.88999938964844,1,1,1261,1261
29.43821900,29438219,0,-0.00010821635805768892,-3.780092447414063e-05,-0.0002446185681037605,0.5147790908813477,-0.47176212072372437,-9.852893829345703,0,0,45.88999938964844,1,1,1261,1261
29.44106000,29441060,0,-0.00027249561389908195,0.00032551519689150155,1.3335242329048924e-05,0.5172708630561829,-0.4731213450431824,-9.852337837219238,0,0,45.88999938964844,1,1,1261,1261
29.44322200,29443222,0,-0.0002501722483430058,0.0008159988792613149,0.00038565133581869304,0.5211530923843384,-0.47871845960617065,-9.850048065185547,0,0,45.88999938964844,1,1,1261,1261
29.44579500,29445795,0,-0.0005269427201710641,0.0011792711447924376,0.0005126884789206088,0.5225009322166443,-0.4813686013221741,-9.848477363586426,0,0,45.88999938964844,1,1,1261,1261
29.44825600,29448256,0,-0.0008393158204853535,0.0008141238940879703,0.0005007474683225155,0.5243276953697205,-0.4828628897666931,-9.847851753234863,0,0,45.88999938964844,1,1,1261,1261
29.45098700,29450987,0,-0.0009440499707125127,0.0004609680618159473,0.0003868046624120325,0.5241729617118835,-0.4835886061191559,-9.848801612854004,0,0,45.88999938964844,1,1,1261,1261
29.45327900,29453279,0,-0.0007362314499914646,0.0006116616423241794,0.00015459598216693848,0.5235081315040588,-0.48426273465156555,-9.846078872680664,0,0,45.88999938964844,1,1,1261,1261
29.45571200,29455712,0,5.566306754190009e-06,0.000868958595674485,-8.688434172654524e-05,0.5229601860046387,-0.4854775071144104,-9.842377662658691,0,0,45.88999938964844,1,1,1261,1261
29.45829800,29458298,0,0.0002603044849820435,0.0008816649788059294,-0.0001539337245048955,0.5235584378242493,-0.4860211908817291,-9.841928482055664,0,0,45.88999938964844,1,1,1261,1261
29.46088200,29460882,0,2.457298614899628e-05,0.0005633967230096459,-0.0002172790700569749,0.52520751953125,-0.4863103926181793,-9.84259033203125,0,0,45.88999938964844,1,1,1261,1261
29.46328700,29463287,0,-0.00019792521197814494,0.0005872344481758773,-3.197753176209517e-05,0.5262339115142822,-0.4858590066432953,-9.844563484191895,0,0,45.88999938964844,1,1,1261,1261
29.46575700,29465757,0,-0.0003658925124909729,0.0008354131714440882,0.0001524703111499548,0.5281528830528259,-0.48380783200263977,-9.84759521484375,0,0,45.88999938964844,1,1,1261,1261
29.46824700,29468247,0,-9.87065868685022e-05,0.0011352996807545424,0.0003076184366364032,0.5298793315887451,-0.4811895787715912,-9.849032402038574,0,0,45.88999938964844,1,1,1261,1261
29.47096400,29470964,0,0.00033886285382322967,0.0013293186202645302,0.00027666272944770753,0.5307980179786682,-0.4780680537223816,-9.848909378051758,0,0,45.88999938964844,1,1,1261,1261
29.47323100,29473231,0,0.0005070347106084228,0.0013341018930077553,0.00011812688171630725,0.5320488810539246,-0.4765729010105133,-9.847103118896484,0,0,45.88999938964844,1,1,1261,1261
29.47577200,29475772,0,0.00028498010942712426,0.0012826627353206277,0.00036778036155737936,0.5327950119972229,-0.4762861430644989,-9.845709800720215,0,0,45.88999938964844,1,1,1261,1261
29.47824500,29478245,0,5.09467936353758e-05,0.000941943668294698,0.00031759930425323546,0.5348311066627502,-0.4761407673358917,-9.845063209533691,0,0,45.88999938964844,1,1,1261,1261
29.48094900,29480949,0,-6.124781793914735e-05,0.000596983649302274,-8.474342757835984e-05,0.5387159585952759,-0.4774167835712433,-9.849655151367188,0,0,45.88999938964844,1,1,1261,1261
29.48331900,29483319,0,-0.00011250554962316528,0.0004900664207525551,-0.00037579977652058005,0.5368946194648743,-0.4793800413608551,-9.853890419006348,0,0,45.88999938964844,1,1,1261,1261
29.48571900,29485719,0,-0.0001568931038491428,0.0001260024291696027,-0.000654050032608211,0.531879723072052,-0.48408079147338867,-9.85683822631836,0,0,45.88999938964844,1,1,1261,1261
29.48835000,29488350,0,-0.00019679997058119625,-0.00023880248772911727,-0.0005788196576759219,0.530343770980835,-0.4859316051006317,-9.856636047363281,0,0,45.88999938964844,1,1,1261,1261
29.49087000,29490870,0,-0.0005111684440635145,-0.0007197093218564987,-0.0003302181139588356,0.5308058857917786,-0.4843296706676483,-9.855107307434082,0,0,45.88999938964844,1,1,1261,1261
29.49337700,29493377,0,-0.0008580105495639145,-0.0008782388758845627,-0.00016989324649330229,0.5327909588813782,-0.48102444410324097,-9.853128433227539,0,0,45.88999938964844,1,1,1261,1261
29.49576300,29495763,0,-0.0009918087162077427,-0.0008924992871470749,-0.00025181256933137774,0.5353537201881409,-0.47807547450065613,-9.851107597351074,0,0,45.88999938964844,1,1,1261,1261
29.49822200,29498222,0,-0.00038795481668785214,-0.0008003080147318542,-0.0005301919882185757,0.541113018989563,-0.4743989109992981,-9.847018241882324,0,0,45.88999938964844,1,1,1261,1261
29.50095600,29500956,0,0.00025394701515324414,-0.00028048380045220256,-0.0005788938142359257,0.5438463687896729,-0.47318482398986816,-9.843769073486328,0,0,45.88999938964844,1,1,1261,1261
29.50330600,29503306,0,0.0006144257495179772,0.00025133739109151065,-0.0006306813447736204,0.5452789664268494,-0.4732128977775574,-9.8379487991333,0,0,45.88999938964844,1,1,1261,1261
29.50577300,29505773,0,0.0005131508223712444,0.0005044747376814485,-0.0006267117569223046,0.5451305508613586,-0.4745214283466339,-9.837084770202637,0,0,45.88999938964844,1,1,1261,1261
29.50836300,29508363,0,0.0003559569304343313,0.0006114939460530877,-0.0007990571903064847,0.5436246991157532,-0.4764193594455719,-9.83895492553711,0,0,45.874000549316406,1,1,1261,1261
29.51098100,29510981,0,-0.00010038865730166435,0.00040051041287370026,-0.0013774619437754154,0.5416984558105469,-0.4785030484199524,-9.842448234558105,0,0,45.874000549316406,1,1,1261,1261
29.51331000,29513310,0,-0.0009421747527085245,0.0005870827008038759,-0.0014548796461895108,0.5406771898269653,-0.48147961497306824,-9.844705581665039,0,0,45.874000549316406,1,1,1261,1261
29.51571300,29515713,0,-0.0014948250027373433,0.0007929736166261137,-0.0015670339344069362,0.538142740726471,-0.4830009341239929,-9.845370292663574,0,0,45.874000549316406,1,1,1261,1261
29.51830100,29518301,0,-0.0019443643977865577,0.0007660373230464756,-0.001514328527264297,0.5338975787162781,-0.48303189873695374,-9.843810081481934,0,0,45.874000549316406,1,1,1261,1261
29.52090300,29520903,0,-0.0019431409891694784,0.0006885172915644944,-0.0013387297512963414,0.5302549600601196,-0.4815217852592468,-9.84256362915039,0,0,45.874000549316406,1,1,1261,1261
29.52324300,29523243,0,-0.0018254431197419763,0.00046879140427336097,-0.0008143211016431451,0.5287822484970093,-0.4802420139312744,-9.844230651855469,0,0,45.874000549316406,1,1,1261,1261
29.52578700,29525787,0,-0.0013532013399526477,0.000496138643939048,-0.0005451787728816271,0.5271425247192383,-0.4791841208934784,-9.845855712890625,0,0,45.874000549316406,1,1,1261,1261
29.52824200,29528242,0,-0.0009126009535975754,0.0009755807113833725,-0.00012152543786214665,0.5243054628372192,-0.4779577851295471,-9.845738410949707,0,0,45.874000549316406,1,1,1261,1261
29.53115400,29531154,0,-0.0002515721716918051,0.0008754815207794309,4.9571630370337516e-05,0.5226432681083679,-0.4780312180519104,-9.844820976257324,0,0,45.874000549316406,1,1,1261,1261
29.53328900,29533289,0,1.2437564691936132e-05,0.0004640997212845832,9.59397220867686e-05,0.5223062038421631,-0.47773995995521545,-9.84401798248291,0,0,45.874000549316406,1,1,1261,1261
29.53573200,29535732,0,5.6650653277756646e-05,-0.00010720065620262176,0.00012099247396690771,0.5232396125793457,-0.4765896499156952,-9.84179973602295,0,0,45.874000549316406,1,1,1261,1261
29.53830900,29538309,0,-0.00020892782777082175,-0.0003741321270354092,0.00016028857498895377,0.5243176817893982,-0.4768504202365875,-9.841054916381836,0,0,45.874000549316406,1,1,1261,1261
29.54088900,29540889,0,-0.00032413136796094477,-0.0002786068362183869,0.00028914460563100874,0.5233031511306763,-0.47783082723617554,-9.842057228088379,0,0,45.874000549316406,1,1,1261,1261
29.54329100,29543291,0,7.053109584376216e-05,-5.138126289239153e-05,0.0003195773751940578,0.5216974020004272,-0.4791753590106964,-9.844171524047852,0,0,45.874000549316406,1,1,1261,1261
29.54576800,29545768,0,0.0002943721483461559,-6.827936886111274e-05,0.00024872797075659037,0.5211345553398132,-0.48001307249069214,-9.844880104064941,0,0,45.874000549316406,1,1,1261,1261
29.54824900,29548249,0,0.000577929022256285,-0.00012186376261524856,0.0004512920568231493,0.5209755897521973,-0.48215973377227783,-9.84273910522461,0,0,45.874000549316406,1,1,1261,1261
29.55096600,29550966,0,0.0007779512670822442,-0.00023971770133357495,0.0005952930077910423,0.5223334431648254,-0.48379695415496826,-9.842082977294922,0,0,45.874000549316406,1,1,1261,1261
29.55321700,29553217,0,0.0009353013010695577,-0.0005747029790654778,0.00047003061627037823,0.523594081401825,-0.4842359125614166,-9.845128059387207,0,0,45.874000549316406,1,1,1261,1261
29.55579600,29555796,0,0.001129625365138054,-0.0006015843246132135,0.0003062829782720655,0.523780345916748,-0.4834316074848175,-9.848166465759277,0,0,45.874000549316406,1,1,1261,1261
29.55825300,29558253,0,0.0011636213166639209,-0.0004381693433970213,0.00040369355701841414,0.5244612693786621,-0.4823569059371948,-9.849946975708008,0,0,45.874000549316406,1,1,1261,1261
29.56098900,29560989,0,0.0010776165872812271,-0.00022708946198690683,0.0005767642287537456,0.5262227654457092,-0.48117396235466003,-9.848062515258789,0,0,45.874000549316406,1,1,1261,1261
29.56329300,29563293,0,0.0006706496351398528,1.93446012417553e-05,0.00043002996244467795,0.5260125398635864,-0.48108989000320435,-9.847376823425293,0,0,45.874000549316406,1,1,1261,1261
29.56572900,29565729,0,0.00037730243639089167,0.0005869559827260673,0.0006013758247718215,0.524128794670105,-0.4815097749233246,-9.850000381469727,0,0,45.874000549316406,1,1,1261,1261
29.56831200,29568312,0,0.0003429418138694018,0.0006694532348774374,0.0008784050005488098,0.5243798494338989,-0.4826955497264862,-9.852694511413574,0,0,45.874000549316406,1,1,1261,1261
29.57092200,29570922,0,0.0006412592483684421,0.0005174341495148838,0.0011189030483365059,0.5243510007858276,-0.4848431646823883,-9.855537414550781,0,0,45.874000549316406,1,1,1261,1261
29.57329700,29573297,0,0.0011397756170481443,0.0003489348746370524,0.0009591524722054601,0.5244596600532532,-0.48541778326034546,-9.855208396911621,0,0,45.874000549316406,1,1,1261,1261
29.57579200,29575792,0,0.0013852836564183235,0.0001494497701060027,0.0010601242538541555,0.5252897143363953,-0.4857640862464905,-9.852828979492188,0,0,45.874000549316406,1,1,1261,1261
29.57821900,29578219,0,0.001185150584205985,-0.00027997829602099955,0.0010605022544041276,0.52677983045578,-0.4879191219806671,-9.850105285644531,0,0,45.874000549316406,1,1,1261,1261
29.58097000,29580970,0,0.00067129050148651,-0.0004968990106135607,0.001098975888453424,0.5277373194694519,-0.489250510931015,-9.85024642944336,0,0,45.874000549316406,1,1,1261,1261
29.58321900,29583219,0,0.00014880129310768098,-0.0002220223395852372,0.001139369560405612,0.5257853269577026,-0.48811015486717224,-9.851310729980469,0,0,45.88999938964844,1,1,1261,1261
29.58571900,29585719,0,-0.0002438155934214592,0.00031576206674799323,0.0010749063221737742,0.5225690603256226,-0.48549023270606995,-9.852396965026855,0,0,45.88999938964844,1,1,1261,1261
29.58832700,29588327,0,-0.0004155407950747758,0.0010584889678284526,0.0007416941807605326,0.521205723285675,-0.48244354128837585,-9.85184097290039,0,0,45.88999938964844,1,1,1261,1261
29.59103200,29591032,0,-0.00046477318392135203,0.0010951851727440953,0.00038975250208750367,0.5220302939414978,-0.4792870283126831,-9.849456787109375,0,0,45.88999938964844,1,1,1261,1261
29.59323700,29593237,0,-0.0003543721104506403,0.0010979402577504516,0.00044496802729554474,0.5209152698516846,-0.47687092423439026,-9.848210334777832,0,0,45.88999938964844,1,1,1261,1261
29.59578800,29595788,0,-0.000613901240285486,0.0006845018942840397,0.0006836485699750483,0.520233154296875,-0.47661978006362915,-9.850558280944824,0,0,45.88999938964844,1,1,1261,1261
29.59821900,29598219,0,-0.00110309396404773,0.00033476768294349313,0.0008544719312340021,0.5205171704292297,-0.47697049379348755,-9.853877067565918,0,0,45.88999938964844,1,1,1261,1261
29.60096300,29600963,0,-0.0013065967941656709,3.4087406675098464e-05,0.0007115843473002315,0.5190650224685669,-0.4761525094509125,-9.855069160461426,0,0,45.88999938964844,1,1,1261,1261
29.60359100,29603591,0,-0.0013620824320241809,5.010816948924912e-06,0.0005011120229028165,0.5176212191581726,-0.4740351140499115,-9.854986190795898,0,0,45.88999938964844,1,1,1261,1261
29.60572900,29605729,0,-0.001985276350751519,0.0003972784907091409,0.00033678262843750417,0.5185966491699219,-0.4725727438926697,-9.852364540100098,0,0,45.88999938964844,1,1,1261,1261
29.60840600,29608406,0,-0.002135463524609804,0.0007212276686914265,0.0003919097362086177,0.5204256176948547,-0.4725434482097626,-9.850005149841309,0,0,45.88999938964844,1,1,1261,1261
29.61088100,29610881,0,-0.0020098737441003323,0.0008701028418727219,0.0003669958095997572,0.520891010761261,-0.4711339771747589,-9.847979545593262,0,0,45.88999938964844,1,1,1261,1261
29.61330600,29613306,0,-0.001767100766301155,0.0010230587795376778,0.0002004640846280381,0.5212347507476807,-0.4699384868144989,-9.849538803100586,0,0,45.88999938964844,1,1,1261,1261
29.61575300,29615753,0,-0.0010284247109666467,0.0013917215401306748,-0.00022651487961411476,0.5236315131187439,-0.4681738018989563,-9.852823257446289,0,0,45.88999938964844,1,1,1261,1261
29.61826000,29618260,0,-2.7245057935942896e-05,0.001557257492095232,-0.0005954193766228855,0.5263231992721558,-0.46594828367233276,-9.854397773742676,0,0,45.88999938964844,1,1,1261,1261
29.62096100,29620961,0,0.0005634551052935421,0.002038425300270319,-0.000995742972008884,0.5292832851409912,-0.46283695101737976,-9.854676246643066,0,0,45.88999938964844,1,1,1261,1261
29.62323700,29623237,0,0.001279684598557651,0.0021601165644824505,-0.00118999311234802,0.5331964492797852,-0.4612656831741333,-9.854768753051758,0,0,45.88999938964844,1,1,1261,1261
29.62578800,29625788,0,0.0017622127197682858,0.0016240004915744066,-0.0010756149422377348,0.5366182327270508,-0.46115538477897644,-9.855264663696289,0,0,45.88999938964844,1,1,1261,1261
29.62827400,29628274,0,0.0017295447178184986,0.000604183180257678,-0.0010263362200930715,0.5394942760467529,-0.46126067638397217,-9.855195045471191,0,0,45.88999938964844,1,1,1261,1261
29.63114600,29631146,0,0.001532500609755516,0.00011858535435749218,-0.0008151066140271723,0.5414875745773315,-0.46133068203926086,-9.854899406433105,0,0,45.88999938964844,1,1,1261,1261
29.63327400,29633274,0,0.0012572875712066889,-6.729482265654951e-05,-0.0005299134645611048,0.5421584248542786,-0.4617082178592682,-9.853318214416504,0,0,45.88999938964844,1,1,1261,1261
29.63571500,29635715,0,0.0005621574237011373,-0.000604770437348634,-9.867713379207999e-05,0.5445461869239807,-0.4616645574569702,-9.847800254821777,0,0,45.88999938964844,1,1,1261,1261
29.63830700,29638307,0,-3.0317543860292062e-05,-0.0008783198427408934,0.00037926845834590495,0.5462955236434937,-0.4628904163837433,-9.84363079071045,0,0,45.88999938964844,1,1,1261,1261
29.64088800,29640888,0,-0.00045811719610355794,-0.0006877951673232019,0.0006303659756667912,0.547051191329956,-0.46632495522499084,-9.841653823852539,0,0,45.88999938964844,1,1,1261,1261
29.64321900,29643219,0,-0.0005372661980800331,-0.0002874360652640462,0.0006541489856317639,0.5465803742408752,-0.4708930253982544,-9.842399597167969,0,0,45.88999938964844,1,1,1261,1261
29.64581700,29645817,0,-0.00037225455162115395,4.169677049503662e-05,0.0007163266418501735,0.5457821488380432,-0.4734480082988739,-9.843265533447266,0,0,45.88999938964844,1,1,1261,1261
29.64823800,29648238,0,-0.00028884230414405465,0.0006672618328593671,0.0007047444814816117,0.5427090525627136,-0.47560781240463257,-9.842035293579102,0,0,45.88999938964844,1,1,1261,1261
29.65097600,29650976,0,-0.000614118471276015,0.0008484456920996308,0.000748863851185888,0.5405886173248291,-0.4764716625213623,-9.8394136428833,0,0,45.88999938964844,1,1,1261,1261
29.65323100,29653231,0,-0.0008876746287569404,0.0009666551486589015,0.0006446532788686454,0.5394625663757324,-0.47735196352005005,-9.837602615356445,0,0,45.88999938964844,1,1,1261,1261
29.65576600,29655766,0,-0.0009283488616347313,0.0009642253862693906,0.0008130501955747604,0.5370936989784241,-0.47904831171035767,-9.838123321533203,0,0,45.88999938964844,1,1,1261,1261
29.65828400,29658284,0,-0.0007697191904298961,0.0009229962015524507,0.0009802111890166998,0.5363701581954956,-0.4795224964618683,-9.840191841125488,0,0,45.906002044677734,1,1,1261,1261
29.66094100,29660941,0,0.00011479792010504752,0.000860771513544023,0.0007367264479398727,0.5336990356445312,-0.48026803135871887,-9.841554641723633,0,0,45.906002044677734,1,1,1261,1261
29.66329500,29663295,0,0.0006796031957492232,0.001080851536244154,0.0006358721293509007,0.5321150422096252,-0.4805319309234619,-9.840814590454102,0,0,45.906002044677734,1,1,1261,1261
29.66572300,29665723,0,0.0011721609625965357,0.001808304456062615,0.0011938328389078379,0.5311566591262817,-0.48417729139328003,-9.840201377868652,0,0,45.906002044677734,1,1,1261,1261
29.66831400,29668314,0,0.0009472696692682803,0.0019206617726013064,0.001541760633699596,0.5305663347244263,-0.4876030385494232,-9.839621543884277,0,0,45.906002044677734,1,1,1261,1261
29.67095300,29670953,0,0.0007267552427947521,0.0017542679561302066,0.0015035575488582253,0.5289267897605896,-0.4910140335559845,-9.840702056884766,0,0,45.906002044677734,1,1,1261,1261
29.67321800,29673218,0,0.0005432916805148125,0.001699532032944262,0.0009758581290952861,0.5247552394866943,-0.4938925802707672,-9.845474243164062,0,0,45.906002044677734,1,1,1261,1261
29.67579500,29675795,0,0.0005325441597960889,0.0016919920453801751,0.0006080775638110936,0.5218040943145752,-0.4950816333293915,-9.8478422164917,0,0,45.906002044677734,1,1,1261,1261
29.67820900,29678209,0,0.000568369694519788,0.001564323902130127,9.510893141850829e-05,0.5177733302116394,-0.4958312511444092,-9.849968910217285,0,0,45.906002044677734,1,1,1261,1261
29.68097800,29680978,0,0.0003149804542772472,0.0012855088571086526,-0.00014728713722433895,0.5164774060249329,-0.49547818303108215,-9.849869728088379,0,0,45.906002044677734,1,1,1261,1261
29.68324800,29683248,0,-0.0002947655157186091,0.0011441868264228106,-0.0003707213909365237,0.5176701545715332,-0.4951130449771881,-9.849863052368164,0,0,45.906002044677734,1,1,1261,1261
29.68571000,29685710,0,-0.000773036852478981,0.001152371522039175,-0.0008069589384831488,0.5201690196990967,-0.4945068359375,-9.851631164550781,0,0,45.906002044677734,1,1,1261,1261
29.68851700,29688517,0,-0.0010803906479850411,0.0010551613522693515,-0.0010120291262865067,0.5219500064849854,-0.49303942918777466,-9.855422973632812,0,0,45.906002044677734,1,1,1261,1261
29.69096800,29690968,0,-0.0015352516202256083,0.001070300117135048,-0.0008657178259454668,0.5230686068534851,-0.490800678730011,-9.858752250671387,0,0,45.906002044677734,1,1,1261,1261
29.69329900,29693299,0,-0.0018020779825747013,0.0009568384266458452,-0.00047268610796891153,0.5247637033462524,-0.489301472902298,-9.85913372039795,0,0,45.906002044677734,1,1,1261,1261
29.69570700,29695707,0,-0.0022204862907528877,0.0010506758699193597,-0.0002717002062126994,0.5271700024604797,-0.4883454740047455,-9.859203338623047,0,0,45.906002044677734,1,1,1261,1261
29.69830000,29698300,0,-0.0025118228513747454,0.0010168930748477578,0.00022844855266157538,0.5265059471130371,-0.48821505904197693,-9.858489036560059,0,0,45.906002044677734,1,1,1261,1261
29.70096300,29700963,0,-0.002509375335648656,0.0009261866798624396,0.0004727512423414737,0.5253697633743286,-0.48742905259132385,-9.858755111694336,0,0,45.906002044677734,1,1,1261,1261
29.70330200,29703302,0,-0.0017692489782348275,0.0010908582480624318,0.0006871703662909567,0.5240886211395264,-0.4841478168964386,-9.86101245880127,0,0,45.906002044677734,1,1,1261,1261
29.70581800,29705818,0,-0.0013476703315973282,0.0011588700581341982,0.0005265038344077766,0.5225363373756409,-0.48220089077949524,-9.861737251281738,0,0,45.906002044677734,1,1,1261,1261
29.70833300,29708333,0,-0.000593600096181035,0.0012579192407429218,0.0002355193573748693,0.5204738974571228,-0.4796946942806244,-9.85937213897705,0,0,45.906002044677734,1,1,1261,1261
29.71095900,29710959,0,-0.0001990998862311244,0.0014056714717298746,0.0001504555984865874,0.5206197500228882,-0.47800251841545105,-9.857170104980469,0,0,45.906002044677734,1,1,1261,1261
29.71327600,29713276,0,-4.072771480423398e-05,0.0013733702944591641,-0.00017151374777313322,0.5214890241622925,-0.47748440504074097,-9.858162879943848,0,0,45.906002044677734,1,1,1261,1261
29.71571500,29715715,0,0.0002442297409288585,0.0008767120307311416,-0.00035554025089368224,0.5247518420219421,-0.4771222174167633,-9.861808776855469,0,0,45.906002044677734,1,1,1261,1261
29.71829600,29718296,0,0.0003575473092496395,0.0007922622608020902,-0.0005922667915001512,0.5273902416229248,-0.4771535396575928,-9.862865447998047,0,0,45.906002044677734,1,1,1261,1261
29.72088700,29720887,0,0.0005368578131310642,0.0015734888147562742,-0.00046240250230766833,0.531160295009613,-0.47938093543052673,-9.86075210571289,0,0,45.906002044677734,1,1,1261,1261
29.72333200,29723332,0,0.0006883730529807508,0.0016767359338700771,-0.00038645221502520144,0.5331918597221375,-0.48124536871910095,-9.85828685760498,0,0,45.906002044677734,1,1,1261,1261
29.72575600,29725756,0,0.0010150029556825757,0.0014400993240997195,-0.0001937216002261266,0.5349587202072144,-0.48347607254981995,-9.85574722290039,0,0,45.906002044677734,1,1,1261,1261
29.72826400,29728264,0,0.0008849420701153576,0.0006717841606587172,-0.00029772031120955944,0.5361329913139343,-0.4851421117782593,-9.85411548614502,0,0,45.906002044677734,1,1,1261,1261
29.73113000,29731130,0,0.0007081393268890679,-0.0003006851766258478,-0.0006957878940738738,0.5350487232208252,-0.4844895899295807,-9.854999542236328,0,0,45.895999908447266,1,1,1261,1261
29.73329100,29733291,0,0.0006733856862410903,-0.0011908813612535596,-0.0011104282457381487,0.533185601234436,-0.48225584626197815,-9.857800483703613,0,0,45.895999908447266,1,1,1261,1261
29.73570900,29735709,0,0.0007537760538980365,-0.0013908222317695618,-0.0010101080406457186,0.5325812697410583,-0.4783273935317993,-9.85861587524414,0,0,45.895999908447266,1,1,1261,1261
29.73830700,29738307,0,0.0010890307603403926,-0.0012746567372232676,-0.0005570297362282872,0.5310145616531372,-0.47435471415519714,-9.858177185058594,0,0,45.895999908447266,1,1,1261,1261
29.74098400,29740984,0,0.0012601498747244477,-0.0011704779462888837,5.496113590197638e-05,0.5290353298187256,-0.47109609842300415,-9.858996391296387,0,0,45.895999908447266,1,1,1261,1261
29.74322100,29743221,0,0.0011028453009203076,-0.0011905679712072015,0.00044539550435729325,0.5292671322822571,-0.466998815536499,-9.859222412109375,0,0,45.895999908447266,1,1,1261,1261
29.74578600,29745786,0,0.0007009541732259095,-0.00125268311239779,0.00022057532623875886,0.531147837638855,-0.4608306288719177,-9.86037540435791,0,0,45.895999908447266,1,1,1261,1261
29.74823900,29748239,0,0.0005628034705296159,-0.0008439371013082564,0.0002898329694289714,0.5323468446731567,-0.4569668173789978,-9.86226749420166,0,0,45.895999908447266,1,1,1261,1261
29.75096800,29750968,0,0.0005273977294564247,-0.00035160552943125367,0.00035661301808431745,0.5340117812156677,-0.45681217312812805,-9.861068725585938,0,0,45.895999908447266,1,1,1261,1261
29.75325000,29753250,0,0.0006364775472320616,-7.194003410404548e-05,0.00016479718033224344,0.5361801385879517,-0.4580710530281067,-9.85777759552002,0,0,45.895999908447266,1,1,1261,1261
29.75571800,29755718,0,0.0006051695672795177,8.024679846130311e-05,-0.00021923545864410698,0.5388140678405762,-0.4618183374404907,-9.850666046142578,0,0,45.895999908447266,1,1,1261,1261
29.75832100,29758321,0,0.0004613487108144909,-0.00020953429338987917,-0.00039833193295635283,0.5402618050575256,-0.46500882506370544,-9.847899436950684,0,0,45.895999908447266,1,1,1261,1261
29.76092900,29760929,0,1.5041582628327888e-05,-0.0003980171459261328,-0.0001548343716422096,0.5410588383674622,-0.46915897727012634,-9.849761962890625,0,0,45.895999908447266,1,1,1261,1261
29.76332300,29763323,0,-9.19201920623891e-05,-0.00032257699058391154,-3.9847065636422485e-05,0.5398498773574829,-0.4725082516670227,-9.852072715759277,0,0,45.895999908447266,1,1,1261,1261
29.76573600,29765736,0,2.1797713998239487e-05,-0.00041041692020371556,0.00018259808712173253,0.5384123921394348,-0.4759852886199951,-9.857349395751953,0,0,45.895999908447266,1,1,1261,1261
29.76825200,29768252,0,0.0006199415074661374,-0.00030134429107420146,0.0004879352927673608,0.5370765924453735,-0.47684067487716675,-9.86106014251709,0,0,45.895999908447266,1,1,1261,1261
29.77099200,29770992,0,0.0005771811120212078,-0.00021823571296408772,0.0007144936826080084,0.5357365608215332,-0.47586506605148315,-9.861726760864258,0,0,45.895999908447266,1,1,1261,1261
29.77325500,29773255,0,0.000249374657869339,-0.0003465756890363991,0.0006851268117316067,0.5342715978622437,-0.4736161530017853,-9.859789848327637,0,0,45.895999908447266,1,1,1261,1261
29.77572100,29775721,0,-0.00017240156012121588,-0.00045595370465889573,0.0004256222164258361,0.5350582003593445,-0.4730690121650696,-9.861492156982422,0,0,45.895999908447266,1,1,1261,1261
29.77829100,29778291,0,-4.070173963555135e-05,-0.0004908948903903365,0.00044505184632726014,0.5368895530700684,-0.47208717465400696,-9.862740516662598,0,0,45.895999908447266,1,1,1261,1261
29.78092400,29780924,0,2.7618185413302854e-05,-0.00014861802628729492,0.0004188106395304203,0.5368788838386536,-0.47109848260879517,-9.861154556274414,0,0,45.895999908447266,1,1,1261,1261
29.78329200,29783292,0,-0.00019826507195830345,0.00020429793221410364,0.000449043873231858,0.5363067388534546,-0.4718044400215149,-9.857887268066406,0,0,45.895999908447266,1,1,1261,1261
29.78572400,29785724,0,-0.00019473933207336813,0.00023959996178746223,0.00038050953298807144,0.538928210735321,-0.47646671533584595,-9.853537559509277,0,0,45.895999908447266,1,1,1261,1261
29.78825500,29788255,0,-0.00026570927002467215,0.0001332839747192338,0.00029226471087895334,0.5397749543190002,-0.47856226563453674,-9.8518705368042,0,0,45.895999908447266,1,1,1261,1261
29.79096500,29790965,0,-0.00038087478606030345,0.00020689495431724936,7.062354416120797e-05,0.5395345091819763,-0.47917285561561584,-9.850004196166992,0,0,45.895999908447266,1,1,1261,1261
29.79328300,29793283,0,-0.00030376770882867277,0.00013127880811225623,-0.00024569020024500787,0.5397564768791199,-0.47995439171791077,-9.849027633666992,0,0,45.895999908447266,1,1,1261,1261
29.79572700,29795727,0,0.00023930799216032028,-2.5764433303265832e-05,-0.0003221276856493205,0.5393443703651428,-0.4822865128517151,-9.847647666931152,0,0,45.895999908447266,1,1,1261,1261
29.79822100,29798221,0,0.0005403666291385889,-8.195912960218266e-05,-0.0004904476227238774,0.5347710251808167,-0.48503485321998596,-9.850263595581055,0,0,45.895999908447266,1,1,1261,1261
29.80097000,29800970,0,0.0009103204356506467,-0.0003708544827532023,-0.000958373537287116,0.5315843224525452,-0.48708614706993103,-9.854771614074707,0,0,45.895999908447266,1,1,1261,1261
29.80329600,29803296,0,0.0014441815437749028,-0.0009899642318487167,-0.0012775585055351257,0.5308578014373779,-0.488582968711853,-9.859540939331055,0,0,45.895999908447266,1,1,1261,1261
29.80577100,29805771,0,0.001858609146438539,-0.0016952542355284095,-0.0013809429947286844,0.5311272144317627,-0.48814401030540466,-9.86299991607666,0,0,45.91600036621094,1,1,1261,1261
29.80839100,29808391,0,0.002035672776401043,-0.0020051500760018826,-0.0015434117522090673,0.5323530435562134,-0.486400842666626,-9.86516284942627,0,0,45.91600036621094,1,1,1261,1261
29.81089900,29810899,0,0.0017281601903960109,-0.001705497270449996,-0.0008342050714418292,0.5323754549026489,-0.4802340865135193,-9.8649263381958,0,0,45.91600036621094,1,1,1261,1261
29.81324100,29813241,0,0.0014356934698298573,-0.0012802841374650598,-1.4231344721338246e-05,0.5281407833099365,-0.474934458732605,-9.861715316772461,0,0,45.91600036621094,1,1,1261,1261
29.81576200,29815762,0,0.0014156269608065486,-0.000794192950706929,0.0004991689929738641,0.5241364240646362,-0.4728472828865051,-9.859829902648926,0,0,45.91600036621094,1,1,1261,1261
29.81825800,29818258,0,0.0014749323017895222,-0.0004486609250307083,0.0008461691322736442,0.5230712294578552,-0.47313618659973145,-9.859003067016602,0,0,45.91600036621094,1,1,1261,1261
29.82093900,29820939,0,0.001587170409038663,-0.00034860734012909234,0.0007947838166728616,0.5227867364883423,-0.47360759973526,-9.858736038208008,0,0,45.91600036621094,1,1,1261,1261
29.82332300,29823323,0,0.0015685393009334803,-0.0002864236303139478,0.0007078138878569007,0.5226603746414185,-0.4738845229148865,-9.858007431030273,0,0,45.91600036621094,1,1,1261,1261
29.82571400,29825714,0,0.0013250602642074227,4.9449106882093474e-05,0.0006276396452449262,0.5224863886833191,-0.47416672110557556,-9.856795310974121,0,0,45.91600036621094,1,1,1261,1261
29.82833100,29828331,0,0.001089494558982551,0.0003634254971984774,0.0006548381643369794,0.5234076976776123,-0.4736553430557251,-9.85593032836914,0,0,45.91600036621094,1,1,1261,1261
29.83107300,29831073,0,0.000998590956442058,0.0006583683425560594,0.0009172797435894608,0.5244120955467224,-0.4745394289493561,-9.855029106140137,0,0,45.91600036621094,1,1,1261,1261
29.83323000,29833230,0,0.000984936486929655,0.0008959861006587744,0.0010969669092446566,0.5255613327026367,-0.47454574704170227,-9.85378646850586,0,0,45.91600036621094,1,1,1261,1261
29.83578300,29835783,0,0.0009362470591440797,0.0007547266432084143,0.0008981357677839696,0.5279231071472168,-0.47524991631507874,-9.853073120117188,0,0,45.91600036621094,1,1,1261,1261
29.83824000,29838240,0,0.001363052288070321,0.0005640252493321896,-5.139799031894654e-05,0.5299569368362427,-0.4772075414657593,-9.853690147399902,0,0,45.91600036621094,1,1,1261,1261
29.84095200,29840952,0,0.0015911859227344394,0.0004498431517276913,-0.0006540438043884933,0.5306577682495117,-0.4777717590332031,-9.854873657226562,0,0,45.91600036621094,1,1,1261,1261
29.84329200,29843292,0,0.001770088798366487,0.0005812437157146633,-0.0009473849786445498,0.5295283198356628,-0.47733691334724426,-9.854379653930664,0,0,45.91600036621094,1,1,1261,1261
29.84571500,29845715,0,0.001585916499607265,0.0006382394931279123,-0.0013035028241574764,0.5285833477973938,-0.4770793616771698,-9.85504150390625,0,0,45.91600036621094,1,1,1261,1261
29.84833000,29848330,0,0.000910620903596282,0.0005499745602719486,-0.0014254237757995725,0.5284509062767029,-0.4772275388240814,-9.857240676879883,0,0,45.91600036621094,1,1,1261,1261
29.85088600,29850886,0,0.0005577761330641806,0.00041227592737413943,-0.001574174384586513,0.5278648138046265,-0.47707170248031616,-9.85798454284668,0,0,45.91600036621094,1,1,1261,1261
29.85330600,29853306,0,0.0004082235391251743,0.0005386921693570912,-0.00155845214612782,0.525833785533905,-0.4758429527282715,-9.857929229736328,0,0,45.91600036621094,1,1,1261,1261
29.85576700,29855767,0,0.00024217773170676082,0.0005142063018865883,-0.0014978164108470082,0.5247364044189453,-0.47469407320022583,-9.857524871826172,0,0,45.91600036621094,1,1,1261,1261
29.85824900,29858249,0,0.0003097467706538737,0.00044761691242456436,-0.0009400103008374572,0.5245866775512695,-0.4724395275115967,-9.855414390563965,0,0,45.91600036621094,1,1,1261,1261
29.86097600,29860976,0,0.00025486486265435815,0.0002293396246386692,-0.0009298649383708835,0.5239981412887573,-0.4733808636665344,-9.854113578796387,0,0,45.91600036621094,1,1,1261,1261
29.86321500,29863215,0,1.1652296961983666e-05,-0.00028426130302250385,-0.0006613280274905264,0.526061475276947,-0.4744225740432739,-9.85193157196045,0,0,45.91600036621094,1,1,1261,1261
29.86578500,29865785,0,-0.0003179269260726869,-0.0004818181914743036,-0.00010767461935756728,0.5283113121986389,-0.4761373996734619,-9.851092338562012,0,0,45.91600036621094,1,1,1261,1261
29.86823200,29868232,0,-0.0004603769048117101,-0.0003622408548835665,0.00014371653378475457,0.5304900407791138,-0.47788485884666443,-9.85084056854248,0,0,45.91600036621094,1,1,1261,1261
29.87096100,29870961,0,-0.0005589676438830793,-1.2997791600355413e-05,0.00036244228249415755,0.5340930819511414,-0.47886863350868225,-9.849813461303711,0,0,45.91600036621094,1,1,1261,1261
29.87327700,29873277,0,-0.0004884549998678267,-0.00010449373803567141,0.00041403641807846725,0.536041259765625,-0.47926589846611023,-9.847429275512695,0,0,45.91600036621094,1,1,1261,1261
29.87572100,29875721,0,-0.00021077535348013043,-0.00044780244934372604,8.955218504524964e-07,0.5357822179794312,-0.48165521025657654,-9.845913887023926,0,0,45.91600036621094,1,1,1261,1261
29.87829300,29878293,0,-0.0001300098665524274,-0.00032607311732135713,-0.0001231071655638516,0.5362722277641296,-0.4826454222202301,-9.847443580627441,0,0,45.91600036621094,1,1,1261,1261
29.88088400,29880884,0,0.00016947418043855578,-0.000184129094122909,1.0590140846034046e-05,0.5394967198371887,-0.48388734459877014,-9.850893020629883,0,0,45.86800003051758,1,1,1261,1261
29.88328500,29883285,0,0.0003751880722120404,-0.0003456870617810637,7.2444654506398365e-06,0.5404617786407471,-0.4842347502708435,-9.8508939743042,0,0,45.86800003051758,1,1,1261,1261
29.88575600,29885756,0,0.00019523166702128947,-0.00018948462093248963,-0.0001743942266330123,0.5381315350532532,-0.4824100136756897,-9.848785400390625,0,0,45.86800003051758,1,1,1261,1261
29.88828900,29888289,0,-0.00012123539636377245,0.00026727962540462613,-0.0004500359355006367,0.5354220867156982,-0.4817057251930237,-9.846123695373535,0,0,45.86800003051758,1,1,1261,1261
29.89105500,29891055,0,-0.00036702948273159564,0.00045521106221713126,-0.0004878306353930384,0.5343704223632812,-0.4813168942928314,-9.84393310546875,0,0,45.86800003051758,1,1,1261,1261
29.89321700,29893217,0,-0.00010549386206548661,0.00025778418057598174,-0.0006959625752642751,0.5315101742744446,-0.47933048009872437,-9.846312522888184,0,0,45.86800003051758,1,1,1261,1261
29.89579200,29895792,0,0.00030105694895610213,0.00034262987901456654,-0.0006565808434970677,0.5300533771514893,-0.4765283167362213,-9.84921646118164,0,0,45.86800003051758,1,1,1261,1261
29.89824000,29898240,0,0.0009282011887989938,0.0004161698743700981,-0.0004543466493487358,0.5285562872886658,-0.47413545846939087,-9.852438926696777,0,0,45.86800003051758,1,1,1261,1261
29.90095500,29900955,0,0.0010154469637200236,0.00027150107780471444,-0.00020852980378549546,0.5262145400047302,-0.47238248586654663,-9.851037979125977,0,0,45.86800003051758,1,1,1261,1261
29.90334900,29903349,0,0.0008787875412963331,0.0002604024775791913,0.00010690811177482828,0.5244326591491699,-0.4711073935031891,-9.846863746643066,0,0,45.86800003051758,1,1,1261,1261
29.90572800,29905728,0,0.0009605286759324372,-0.0001738429709803313,8.400375372730196e-05,0.5250239372253418,-0.47169727087020874,-9.84434700012207,0,0,45.86800003051758,1,1,1261,1261
29.90839200,29908392,0,0.0007942379452288151,-0.0003819349512923509,-0.0002443102712277323,0.5256511569023132,-0.47228407859802246,-9.846002578735352,0,0,45.86800003051758,1,1,1261,1261
29.91089000,29910890,0,0.0005742566427215934,-0.0004932222072966397,-0.0007735852850601077,0.5252647399902344,-0.47411492466926575,-9.848413467407227,0,0,45.86800003051758,1,1,1261,1261
29.91329800,29913298,0,0.0005650760722346604,-0.00013926243991591036,-0.0011448238510638475,0.5255451202392578,-0.4762476682662964,-9.851128578186035,0,0,45.86800003051758,1,1,1261,1261
29.91575000,29915750,0,0.0005476997466757894,0.0002721825730986893,-0.0014029134763404727,0.5262754559516907,-0.47629812359809875,-9.851366996765137,0,0,45.86800003051758,1,1,1261,1261
29.91822100,29918221,0,0.0005120144342072308,0.0009029324864968657,-0.0015875259414315224,0.5280402302742004,-0.4769330322742462,-9.847871780395508,0,0,45.86800003051758,1,1,1261,1261
29.92096800,29920968,0,-7.685009768465534e-05,0.0011617307318374515,-0.0015811625635251403,0.5287908911705017,-0.4767952859401703,-9.846417427062988,0,0,45.86800003051758,1,1,1261,1261
29.92326000,29923260,0,-0.00010615569044603035,0.0010820722673088312,-0.0015412004431709647,0.528914213180542,-0.47783148288726807,-9.84704875946045,0,0,45.86800003051758,1,1,1261,1261
29.92571600,29925716,0,5.300718839862384e-05,0.0009136300650425255,-0.0011172284139320254,0.5290160775184631,-0.47881805896759033,-9.849799156188965,0,0,45.86800003051758,1,1,1261,1261
29.92831300,29928313,0,0.00017805039533413947,0.0008245451026596129,-0.0009625492966733873,0.5289073586463928,-0.4776161015033722,-9.851912498474121,0,0,45.86800003051758,1,1,1261,1261
29.93114100,29931141,0,0.00017552114150021225,0.001248072599992156,-0.0007317657582461834,0.5314364433288574,-0.47629034519195557,-9.852421760559082,0,0,45.86800003051758,1,1,1261,1261
29.93330800,29933308,0,9.53137205215171e-05,0.0014269871171563864,-0.0006447581108659506,0.5333811640739441,-0.47589942812919617,-9.851269721984863,0,0,45.86800003051758,1,1,1261,1261
29.93572000,29935720,0,-0.0003893158573191613,0.0013414999702945352,-8.158788841683418e-05,0.5345708131790161,-0.47615504264831543,-9.850727081298828,0,0,45.86800003051758,1,1,1261,1261
29.93826300,29938263,0,-0.0009605208761058748,0.001276639522984624,0.0005132821970619261,0.5344899296760559,-0.47638148069381714,-9.852087020874023,0,0,45.86800003051758,1,1,1261,1261
29.94094000,29940940,0,-0.001281387754715979,0.0011929516913369298,0.0011428012512624264,0.5325319170951843,-0.4771229326725006,-9.854753494262695,0,0,45.86800003051758,1,1,1261,1261
29.94323100,29943231,0,-0.001451974269002676,0.0011795534519478679,0.0017101455014199018,0.5313262939453125,-0.4774150848388672,-9.855835914611816,0,0,45.86800003051758,1,1,1261,1261
29.94578600,29945786,0,-0.0012913718819618225,0.0011942159617319703,0.0016637229127809405,0.5320373773574829,-0.4779195189476013,-9.854096412658691,0,0,45.86800003051758,1,1,1261,1261
29.94824400,29948244,0,-0.0014565859455615282,0.001284391270019114,0.0011804146924987435,0.53286212682724,-0.479897677898407,-9.849621772766113,0,0,45.86800003051758,1,1,1261,1261
29.95095900,29950959,0,-0.0014025956625118852,0.0010860917391255498,0.0008882292895577848,0.5330352783203125,-0.48093050718307495,-9.847088813781738,0,0,45.86800003051758,1,1,1261,1261
29.95326100,29953261,0,-0.001327264471910894,0.0007017619209364057,0.0005282903439365327,0.5331300497055054,-0.48250216245651245,-9.844087600708008,0,0,45.86800003051758,1,1,1261,1261
29.95573400,29955734,0,-0.0010245987214148045,0.00024293667229358107,1.1461735084594693e-05,0.5324417352676392,-0.48448705673217773,-9.843804359436035,0,0,45.88199996948242,1,1,1261,1261
29.95830000,29958300,0,-0.00027904685703106225,0.0002728839754126966,-0.0006742185796611011,0.5304179191589355,-0.48663708567619324,-9.846410751342773,0,0,45.88199996948242,1,1,1261,1261
29.96092600,29960926,0,0.00028813836979679763,0.0003537875018082559,-0.0012313227634876966,0.5278061032295227,-0.48823076486587524,-9.848648071289062,0,0,45.88199996948242,1,1,1261,1261
29.96333800,29963338,0,0.0008074644720181823,0.0004538154462352395,-0.001393773127347231,0.5275049805641174,-0.48912906646728516,-9.848502159118652,0,0,45.88199996948242,1,1,1261,1261
29.96571400,29965714,0,0.0009704841068014503,0.0006105079082772136,-0.0015076398849487305,0.5284059643745422,-0.4891851544380188,-9.850327491760254,0,0,45.88199996948242,1,1,1261,1261
29.96832200,29968322,0,0.0007304899045266211,0.0007245664019137621,-0.0016442042542621493,0.5297449231147766,-0.48649463057518005,-9.854493141174316,0,0,45.88199996948242,1,1,1261,1261
29.97091800,29970918,0,0.0005324322846718132,0.001037344802170992,-0.0015077150892466307,0.5302169919013977,-0.4828426241874695,-9.856407165527344,0,0,45.88199996948242,1,1,1261,1261
29.97322000,29973220,0,0.0002588382048998028,0.001505003310739994,-0.0008454330381937325,0.5298075079917908,-0.4771668612957001,-9.856204986572266,0,0,45.88199996948242,1,1,1261,1261
29.97581200,29975812,0,8.213784167310223e-05,0.001433296361938119,-0.0006420121062546968,0.5290915966033936,-0.47528666257858276,-9.853507041931152,0,0,45.88199996948242,1,1,1261,1261
29.97821400,29978214,0,-0.0006779632531106472,0.00104566290974617,-0.00016722516738809645,0.5273463726043701,-0.4751031696796417,-9.846556663513184,0,0,45.88199996948242,1,1,1261,1261
29.98098100,29980981,0,-0.0006924616754986346,0.000783001072704792,0.00018038910639006644,0.527749240398407,-0.47479498386383057,-9.844515800476074,0,0,45.88199996948242,1,1,1261,1261
29.98323300,29983233,0,-0.000977728283032775,0.00022397282009478658,0.0005321448552422225,0.5317637324333191,-0.47399720549583435,-9.844632148742676,0,0,45.88199996948242,1,1,1261,1261
29.98572600,29985726,0,-0.0011367736151441932,0.00016501540085300803,0.0007106533739715815,0.5348732471466064,-0.4742773175239563,-9.845898628234863,0,0,45.88199996948242,1,1,1261,1261
29.98831000,29988310,0,-0.0010433829156681895,0.0005049186875112355,0.0008650790550746024,0.5347350239753723,-0.47498151659965515,-9.84484577178955,0,0,45.88199996948242,1,1,1261,1261
29.99091400,29990914,0,-0.0006310376338660717,0.00037665991112589836,0.0007184013957157731,0.5355514287948608,-0.4742543399333954,-9.841443061828613,0,0,45.88199996948242,1,1,1261,1261
29.99322700,29993227,0,-0.0005378025816753507,0.00012332567712292075,0.00040123489452525973,0.5368102788925171,-0.47245585918426514,-9.838232040405273,0,0,45.88199996948242,1,1,1261,1261
29.99579400,29995794,0,-0.0004322874592617154,-0.0003161079657729715,-0.00015901321603450924,0.5385379195213318,-0.47266024351119995,-9.837411880493164,0,0,45.88199996948242,1,1,1261,1261
29.99824500,29998245,0,-0.000396750052459538,-0.0006927018985152245,-0.0005532470531761646,0.5394418835639954,-0.4734746813774109,-9.842164039611816,0,0,45.88199996948242,1,1,1261,1261
30.00095100,30000951,0,-0.00021572198602370918,-0.0007132304599508643,-0.0004488297854550183,0.5380797982215881,-0.47618845105171204,-9.849618911743164,0,0,45.88199996948242,1,1,1261,1261
30.00337300,30003373,0,0.0003227903798688203,-0.00042887727613560855,-0.0005106335738673806,0.5379199981689453,-0.4775192141532898,-9.85292911529541,0,0,45.88199996948242,1,1,1261,1261
30.00572500,30005725,0,0.0006534373387694359,2.0506300643319264e-05,-0.0006382543360814452,0.5369570851325989,-0.4767206609249115,-9.852178573608398,0,0,45.88199996948242,1,1,1261,1261
30.00839700,30008397,0,0.0008480578544549644,0.00041652709478512406,-0.0004920937353745103,0.5357282757759094,-0.4761820435523987,-9.851658821105957,0,0,45.88199996948242,1,1,1261,1261
30.01091700,30010917,0,0.0006219685892574489,0.00021155289141461253,-0.0003688339493237436,0.5365612506866455,-0.4749602675437927,-9.851869583129883,0,0,45.88199996948242,1,1,1261,1261
30.01329900,30013299,0,0.00024288884014822543,-4.596198414219543e-05,-0.0001716154656605795,0.535995602607727,-0.4730306565761566,-9.853652954101562,0,0,45.88199996948242,1,1,1261,1261
30.01579100,30015791,0,-4.224549775244668e-05,-7.514477329095826e-05,-0.00011101350537501276,0.5342889428138733,-0.47101640701293945,-9.8551607131958,0,0,45.88199996948242,1,1,1261,1261
30.01821200,30018212,0,-0.00019113736925646663,0.0003229329304303974,-0.00014036201173439622,0.5298380851745605,-0.4680795669555664,-9.856741905212402,0,0,45.88199996948242,1,1,1261,1261
30.02115400,30021154,0,-0.00022883900965098292,0.0006079157465137541,2.3317979866988026e-05,0.5280554294586182,-0.4671408236026764,-9.854753494262695,0,0,45.88199996948242,1,1,1261,1261
30.02322000,30023220,0,-0.00013949170534033328,0.00046308586024679244,0.00018017565889749676,0.52727210521698,-0.46834805607795715,-9.851325035095215,0,0,45.88199996948242,1,1,1261,1261
30.02579800,30025798,0,-4.641298437491059e-05,0.00029309873934835196,9.698996291263029e-05,0.5260217785835266,-0.46985122561454773,-9.848431587219238,0,0,45.88199996948242,1,1,1262,1262
30.02828400,30028284,0,-4.9208370910491794e-05,0.00026683288160711527,8.587218326283619e-05,0.5248368382453918,-0.47081902623176575,-9.847723960876465,0,0,45.900001525878906,1,1,1262,1262
