timestamp,TimeUS,I,GyrX,GyrY,GyrZ,AccX,AccY,AccZ,EG,EA,T,GH,AH,GHz,AHz
710.17411000,710174110,0,-0.00030943143065087497,0.0003583793295547366,-0.0007362703327089548,0.19788016378879547,-0.24420273303985596,-9.862167358398438,0,0,50.71000289916992,1,1,196,196
710.17835200,710178352,0,-0.0002189612278016284,9.365485311718658e-05,-0.0008597653941251338,0.19795025885105133,-0.24436846375465393,-9.862384796142578,0,0,50.71000289916992,1,1,196,196
710.18356400,710183564,0,-8.05324743851088e-05,0.0001871478889370337,-0.00081860605860129,0.19798247516155243,-0.2445647418498993,-9.862525939941406,0,0,50.71000289916992,1,1,196,196
710.18867100,710188671,0,-0.00010456697054905817,0.00038064116961322725,-0.0009175844606943429,0.1979386955499649,-0.24480123817920685,-9.862654685974121,0,0,50.71000289916992,1,1,196,196
710.19320100,710193201,0,-0.00035947616561315954,0.00037297987728379667,-0.0010639471001923084,0.19783411920070648,-0.24504432082176208,-9.862826347351074,0,0,50.71000289916992,1,1,196,196
710.19850700,710198507,0,-0.0006216198671609163,0.00021805426513310522,-0.0009406679891981184,0.19768275320529938,-0.24527093768119812,-9.863059043884277,0,0,50.71000289916992,1,1,196,196
710.20359000,710203590,0,-0.0010460495250299573,-2.926425622717943e-05,-0.0006075981655158103,0.19746942818164825,-0.24549545347690582,-9.863327980041504,0,0,50.71000289916992,1,1,196,196
710.20883800,710208838,0,-0.0016220881370827556,-0.00011381661897758022,-8.215433626901358e-05,0.1971949189901352,-0.24571681022644043,-9.86362075805664,0,0,50.71000289916992,1,1,196,196
710.21352900,710213529,0,-0.0019459797767922282,-5.1210776291554794e-05,0.0005892982590012252,0.19689521193504333,-0.24589909613132477,-9.863968849182129,0,0,50.71000289916992,1,1,196,196
710.21862100,710218621,0,-0.0017693385016173124,1.665912350290455e-05,0.000987059436738491,0.19661667943000793,-0.24603134393692017,-9.86440658569336,0,0,50.71000289916992,1,1,196,196
710.22402200,710224022,0,-0.001230471534654498,0.0002842925605364144,0.0009647201513871551,0.19637969136238098,-0.246132031083107,-9.864921569824219,0,0,50.71000289916992,1,1,196,196
710.22913100,710229131,0,-0.0007304325117729604,0.0005944467848166823,0.000746074307244271,0.19616729021072388,-0.24621088802814484,-9.865447998046875,0,0,50.71000289916992,1,1,196,196
710.23417300,710234173,0,-0.00045316689647734165,0.0005475771031342447,0.0003188691334798932,0.19596412777900696,-0.24627675116062164,-9.8659029006958,0,0,50.71000289916992,1,1,196,196
710.23872100,710238721,0,-0.00023183879966381937,0.0002867223520297557,-0.00017617049161344767,0.19577741622924805,-0.24634456634521484,-9.866264343261719,0,0,50.71000289916992,1,1,196,196
710.24408700,710244087,0,-8.100694685708731e-05,0.00023854884784668684,-0.00044772130786441267,0.19561348855495453,-0.2464277446269989,-9.866567611694336,0,0,50.70800018310547,1,1,196,196
710.24917100,710249171,0,-0.0002570239594206214,0.00045952387154102325,-0.0005587877822108567,0.1954779475927353,-0.2465241551399231,-9.866852760314941,0,0,50.70800018310547,1,1,196,196
710.25440500,710254405,0,-0.0005017335643060505,0.0007127314456738532,-0.0005712105776183307,0.1953965425491333,-0.24660387635231018,-9.867138862609863,0,0,50.70800018310547,1,1,196,196
710.25934300,710259343,0,-0.0004148662555962801,0.0008259310270659626,-0.0005340445786714554,0.19539202749729156,-0.24666818976402283,-9.867411613464355,0,0,50.70800018310547,1,1,196,196
710.26418100,710264181,0,-0.0001867498503997922,0.0007971811573952436,-0.0004278673732187599,0.19543540477752686,-0.2467672973871231,-9.867615699768066,0,0,50.70800018310547,1,1,196,196
710.26934300,710269343,0,6.374389340635389e-05,0.0007589606684632599,6.291392764978809e-06,0.19547240436077118,-0.2469179481267929,-9.86772632598877,0,0,50.70800018310547,1,1,196,196
710.27461900,710274619,0,0.00032806015224196017,0.0008291085832752287,0.0006166371167637408,0.19549649953842163,-0.24710685014724731,-9.867803573608398,0,0,50.70800018310547,1,1,196,196
710.27968000,710279680,0,0.0002307052054675296,0.0009371627820655704,0.0009797947714105248,0.19554388523101807,-0.24734985828399658,-9.867914199829102,0,0,50.70800018310547,1,1,196,196
710.28435000,710284350,0,-0.00012553902342915535,0.0009366249432787299,0.0009950262028723955,0.19562578201293945,-0.2476678490638733,-9.868059158325195,0,0,50.70800018310547,1,1,196,196
710.28974100,710289741,0,-0.00016635826614219695,0.0007789732771925628,0.0007356709102168679,0.19571013748645782,-0.24805104732513428,-9.868193626403809,0,0,50.70800018310547,1,1,196,196
710.29470300,710294703,0,-4.839482789975591e-05,0.0005247615044936538,0.0005017422372475266,0.19576822221279144,-0.24847640097141266,-9.868274688720703,0,0,50.70800018310547,1,1,196,196
710.29986500,710299865,0,-8.856311615090817e-05,0.00022201800311449915,0.0004315585538279265,0.19578847289085388,-0.24890899658203125,-9.868295669555664,0,0,50.70800018310547,1,1,196,196
710.30456600,710304566,0,-0.00019634331692941487,-9.671194129623473e-05,0.00034815663821063936,0.1957537680864334,-0.24930360913276672,-9.868247985839844,0,0,50.70800018310547,1,1,196,196
710.30968500,710309685,0,-0.0005257843877188861,-0.00020204648899380118,0.000274932332104072,0.19565612077713013,-0.24962694942951202,-9.868124961853027,0,0,50.70800018310547,1,1,196,196
710.31480500,710314805,0,-0.001053988584317267,-2.6587260435917415e-05,0.0002210515522165224,0.1955236792564392,-0.2498636543750763,-9.867963790893555,0,0,50.70800018310547,1,1,196,196
710.32032400,710320324,0,-0.0014673705445602536,0.00019566965056583285,0.0001344009069725871,0.19539585709571838,-0.25002145767211914,-9.867810249328613,0,0,50.70800018310547,1,1,196,196
710.32527100,710325271,0,-0.0016914736479520798,0.0003963336639571935,4.922856533084996e-05,0.1952938735485077,-0.25013571977615356,-9.867693901062012,0,0,50.70800018310547,1,1,196,196
710.32984100,710329841,0,-0.001780821243301034,0.0006523329066112638,-0.00017639659927226603,0.195229634642601,-0.2502243220806122,-9.86763858795166,0,0,50.70800018310547,1,1,196,196
710.33513900,710335139,0,-0.0017881132662296295,0.0007261430728249252,-0.000582513865083456,0.19519947469234467,-0.2502404749393463,-9.867637634277344,0,0,50.70800018310547,1,1,196,196
710.34022500,710340225,0,-0.0015967546496540308,0.0005929716280661523,-0.0006785527220927179,0.19519305229187012,-0.25014275312423706,-9.867657661437988,0,0,50.70800018310547,1,1,196,196
710.34539200,710345392,0,-0.0010323177557438612,0.0005979098496027291,-0.0003441056760493666,0.19522185623645782,-0.24997872114181519,-9.867683410644531,0,0,50.70800018310547,1,1,196,196
710.35015800,710350158,0,-0.00040124516817741096,0.00045719038462266326,-0.00018611658015288413,0.19531002640724182,-0.2498331516981125,-9.867704391479492,0,0,50.70800018310547,1,1,196,196
710.35513000,710355130,0,-0.00012647070980165154,-0.00014663650654256344,-0.0005123554728925228,0.19545777142047882,-0.24973294138908386,-9.867708206176758,0,0,50.70800018310547,1,1,196,196
710.36034700,710360347,0,-2.3606935428688303e-05,-0.0007469903794117272,-0.0009527753572911024,0.1956300139427185,-0.24963895976543427,-9.867676734924316,0,0,50.70800018310547,1,1,196,196
710.36573100,710365731,0,-0.00018122687470167875,-0.0009109554812312126,-0.0010973172029480338,0.1957951784133911,-0.24950213730335236,-9.867585182189941,0,0,50.70800018310547,1,1,196,196
710.37077100,710370771,0,-0.0006954733980819583,-0.0007286532782018185,-0.0010719039710238576,0.1959460824728012,-0.2492998242378235,-9.867447853088379,0,0,50.70800018310547,1,1,196,196
710.37533000,710375330,0,-0.0009624153026379645,-0.0003116206789854914,-0.00102297926787287,0.19607633352279663,-0.2490260899066925,-9.867311477661133,0,0,50.70800018310547,1,1,196,196
710.38085600,710380856,0,-0.0010584051487967372,0.0001350951351923868,-0.000814493396319449,0.1961803436279297,-0.24868300557136536,-9.86719799041748,0,0,50.70800018310547,1,1,196,196
710.38573700,710385737,0,-0.0013697365066036582,0.0003496498102322221,-0.0004656635574065149,0.1962742656469345,-0.2482939213514328,-9.867120742797852,0,0,50.70800018310547,1,1,196,196
710.39108300,710391083,0,-0.0016170550370588899,0.0005161830340512097,3.924178963643499e-05,0.19637957215309143,-0.2479008585214615,-9.867095947265625,0,0,50.70800018310547,1,1,196,196
710.39596000,710395960,0,-0.0015742091927677393,0.0007848410750739276,0.0008348766714334488,0.19648747146129608,-0.24755549430847168,-9.867098808288574,0,0,50.70800018310547,1,1,196,196
710.40074700,710400747,0,-0.0013485279632732272,0.0008911627228371799,0.001401409856043756,0.1965690702199936,-0.2472967803478241,-9.86706829071045,0,0,50.70800018310547,1,1,196,196
710.40595500,710405955,0,-0.0010801180033013225,0.0006882240413688123,0.0012197666801512241,0.19661268591880798,-0.2471311390399933,-9.866973876953125,0,0,50.70800018310547,1,1,196,196
710.41125900,710411259,0,-0.0008443720289506018,0.00037765290471725166,0.000769232923630625,0.19662904739379883,-0.2470567375421524,-9.86683177947998,0,0,50.70800018310547,1,1,196,196
710.41629200,710416292,0,-0.0006708535947836936,0.00023507517471443862,0.000542656984180212,0.1966419219970703,-0.24708537757396698,-9.866673469543457,0,0,50.70800018310547,1,1,196,196
710.42091200,710420912,0,-0.0006140494369901717,0.00030629566754214466,0.00030989263905212283,0.19667255878448486,-0.24722009897232056,-9.866509437561035,0,0,50.70800018310547,1,1,196,196
710.42619600,710426196,0,-0.0006242449744604528,0.00030758214415982366,-0.00030113800312392414,0.19672589004039764,-0.24742792546749115,-9.866342544555664,0,0,50.70800018310547,1,1,196,196
710.43122300,710431223,0,-0.0006117692682892084,0.000169864681083709,-0.0009194014710374177,0.19679923355579376,-0.24763703346252441,-9.866199493408203,0,0,50.70800018310547,1,1,196,196
710.43649100,710436491,0,-0.0006435959367081523,-7.034412192297168e-06,-0.0010501820361241698,0.19686907529830933,-0.2477901428937912,-9.866114616394043,0,0,50.70800018310547,1,1,196,196
710.44136700,710441367,0,-0.0007429637480527163,-0.0002730065316427499,-0.0008695124415680766,0.19687941670417786,-0.2479132115840912,-9.866109848022461,0,0,50.70800018310547,1,1,196,196
710.44621500,710446215,0,-0.0009076197748072445,-0.0004762723983731121,-0.0005757603794336319,0.1967945247888565,-0.24804365634918213,-9.866190910339355,0,0,50.70800018310547,1,1,196,196
710.45148900,710451489,0,-0.001018241047859192,-0.0005040448741056025,-0.00018073382670991123,0.19663888216018677,-0.2481449842453003,-9.86634349822998,0,0,50.70800018310547,1,1,196,196
710.45678800,710456788,0,-0.0008178307325579226,-0.0004951417213305831,0.00013189483433961868,0.19646279513835907,-0.24817068874835968,-9.86655044555664,0,0,50.70800018310547,1,1,196,196
710.46185700,710461857,0,-0.0005611093947663903,-0.0004704755556304008,0.00018532660033088177,0.19629041850566864,-0.24812160432338715,-9.866790771484375,0,0,50.70800018310547,1,1,196,196
710.46645400,710466454,0,-0.0004862536152359098,-0.00033782070386223495,0.0001043473239406012,0.1961084008216858,-0.2480338215827942,-9.867011070251465,0,0,50.70800018310547,1,1,196,196
710.47185300,710471853,0,-0.0003024264588020742,-0.00023246972705237567,-7.750694931019098e-05,0.19589082896709442,-0.24793994426727295,-9.86716365814209,0,0,50.70800018310547,1,1,196,196
710.47681700,710476817,0,-5.0218321121064946e-05,-0.00021366596047300845,-0.0002189289079979062,0.19562172889709473,-0.2478061318397522,-9.867267608642578,0,0,50.70800018310547,1,1,196,196
710.48199400,710481994,0,-2.5883718990371563e-05,-0.0001345980999758467,-0.00020773000142071396,0.195308119058609,-0.2475465089082718,-9.86738395690918,0,0,50.70800018310547,1,1,196,196
710.48676800,710486768,0,-0.00037857735878787935,-4.237220491631888e-05,-0.00017849092546384782,0.19497044384479523,-0.24712683260440826,-9.867546081542969,0,0,50.70800018310547,1,1,196,196
710.49183000,710491830,0,-0.0008943353313952684,3.79022749257274e-05,1.1588152119657025e-05,0.1946202516555786,-0.24659433960914612,-9.8677339553833,0,0,50.70800018310547,1,1,196,196
710.49697200,710496972,0,-0.001070005469955504,0.00020192658121231943,0.00024092722742352635,0.1942608654499054,-0.24601995944976807,-9.867894172668457,0,0,50.73200225830078,1,1,196,196
710.50233300,710502333,0,-0.00089043885236606,0.00037352964864112437,0.00023300123575609177,0.19388839602470398,-0.2454603761434555,-9.868008613586426,0,0,50.73200225830078,1,1,196,196
710.50738100,710507381,0,-0.0005766501999460161,0.0004094830946996808,7.94210791354999e-06,0.1934923529624939,-0.24494528770446777,-9.86811637878418,0,0,50.73200225830078,1,1,196,196
710.51191300,710511913,0,-0.0001554490881972015,0.00042618048610165715,-0.00022368886857293546,0.19307759404182434,-0.24448703229427338,-9.868237495422363,0,0,50.73200225830078,1,1,196,196
710.51724300,710517243,0,0.00012844325101468712,0.0004830427933484316,-0.0002019831008510664,0.19266244769096375,-0.2440892904996872,-9.868342399597168,0,0,50.73200225830078,1,1,196,196
710.52228900,710522289,0,0.00018525250197853893,0.00038984842831268907,-0.0001688602933427319,0.1922563761472702,-0.24373404681682587,-9.86841869354248,0,0,50.73200225830078,1,1,196,196
710.52746100,710527461,0,0.00022766186157241464,0.00019071917631663382,-0.00029483530670404434,0.19186082482337952,-0.24339096248149872,-9.868475914001465,0,0,50.73200225830078,1,1,196,196
710.53226000,710532260,0,0.00020213666721247137,-1.9646653527161106e-05,-0.00036657985765486956,0.19148394465446472,-0.24304677546024323,-9.868499755859375,0,0,50.73200225830078,1,1,196,196
710.53727100,710537271,0,0.00014920007379259914,-0.00014111243945080787,-0.00029289000667631626,0.19115398824214935,-0.24272455275058746,-9.868488311767578,0,0,50.73200225830078,1,1,196,196
710.54245100,710542451,0,0.00014630240912083536,-0.0001434134755982086,-0.00016428415256086737,0.19090987741947174,-0.24246583878993988,-9.868465423583984,0,0,50.73200225830078,1,1,196,196
710.54779400,710547794,0,-9.545124339638278e-05,-0.00035166009911336005,-0.00014020715025253594,0.19076499342918396,-0.24229341745376587,-9.868446350097656,0,0,50.73200225830078,1,1,196,196
710.55282000,710552820,0,-0.0005088570760563016,-0.0007224605069495738,-0.00011816801998065785,0.1906818151473999,-0.24220626056194305,-9.868425369262695,0,0,50.73200225830078,1,1,196,196
710.55766200,710557662,0,-0.0008171895169652998,-0.0009922657627612352,-4.879343759967014e-05,0.19060535728931427,-0.24218890070915222,-9.868380546569824,0,0,50.73200225830078,1,1,196,196
710.56276500,710562765,0,-0.0010143427643924952,-0.0010551245650276542,8.214628178393468e-05,0.19052836298942566,-0.24219916760921478,-9.868302345275879,0,0,50.73200225830078,1,1,196,196
710.56780300,710567803,0,-0.0009087159996852279,-0.000796003092546016,0.00026927515864372253,0.1904793083667755,-0.2421850860118866,-9.868221282958984,0,0,50.73200225830078,1,1,196,196
710.57293800,710572938,0,-0.00046863892930559814,-0.0004869499243795872,0.00028824261971749365,0.19046255946159363,-0.24214236438274384,-9.868186950683594,0,0,50.73200225830078,1,1,196,196
710.57830500,710578305,0,-0.0001664596638875082,-0.00021515671687666327,0.00027577896253205836,0.19046780467033386,-0.24212318658828735,-9.868215560913086,0,0,50.73200225830078,1,1,196,196
710.58287100,710582871,0,-0.0002532638900447637,0.0003537573211360723,0.0005140998982824385,0.19052070379257202,-0.24220211803913116,-9.868294715881348,0,0,50.73200225830078,1,1,196,196
710.58789900,710587899,0,-0.0004560910747386515,0.0009521291358396411,0.0007724487804807723,0.1906718760728836,-0.24242432415485382,-9.868382453918457,0,0,50.73200225830078,1,1,196,196
710.59340300,710593403,0,-0.0005689085810445249,0.00118290598038584,0.0007786066271364689,0.19093108177185059,-0.24275244772434235,-9.868435859680176,0,0,50.73200225830078,1,1,196,196
710.59833800,710598338,0,-0.00061640894273296,0.0012450753711163998,0.0007683845469728112,0.1912434697151184,-0.24309653043746948,-9.868457794189453,0,0,50.73200225830078,1,1,196,196
710.60288200,710602882,0,-0.000623307132627815,0.0012143893400207162,0.0009630278218537569,0.19155269861221313,-0.24341091513633728,-9.868473052978516,0,0,50.73200225830078,1,1,196,196
710.60820200,710608202,0,-0.000714776455424726,0.0009347354061901569,0.001059061149135232,0.1918712556362152,-0.24371786415576935,-9.868494987487793,0,0,50.73200225830078,1,1,196,196
710.61323600,710613236,0,-0.0009339003008790314,0.0005914277862757444,0.0008783173398114741,0.1922452747821808,-0.24404433369636536,-9.868545532226562,0,0,50.73200225830078,1,1,196,196
710.61848100,710618481,0,-0.0010126817505806684,0.0003909330698661506,0.0006537399021908641,0.19266670942306519,-0.24438638985157013,-9.868627548217773,0,0,50.73200225830078,1,1,196,196
710.62403500,710624035,0,-0.0007981577655300498,0.00019298862025607377,0.00039996305713430047,0.19307918846607208,-0.24471941590309143,-9.868714332580566,0,0,50.73200225830078,1,1,196,196
710.62827900,710628279,0,-0.0004859157488681376,-1.725989204715006e-05,2.441824835841544e-05,0.19345325231552124,-0.24502141773700714,-9.868779182434082,0,0,50.73200225830078,1,1,196,196
710.63343100,710633431,0,-0.0003994022263213992,-8.647411596029997e-05,-0.00044037579209543765,0.19381175935268402,-0.2452799528837204,-9.868782043457031,0,0,50.73200225830078,1,1,196,196
710.63895100,710638951,0,-0.0007538558566011488,-2.1946880224277265e-05,-0.0008558968547731638,0.1941961795091629,-0.2454630732536316,-9.868700981140137,0,0,50.73200225830078,1,1,196,196
710.64380100,710643801,0,-0.0013015758013352752,4.105389962205663e-05,-0.0012710380833595991,0.19462256133556366,-0.2455427050590515,-9.868559837341309,0,0,50.73200225830078,1,1,196,196
710.64907100,710649071,0,-0.0015699852956458926,3.8198955735424533e-05,-0.0016565682599321008,0.19506299495697021,-0.24556420743465424,-9.86837100982666,0,0,50.73200225830078,1,1,196,196
710.65374900,710653749,0,-0.0015991927357390523,0.000109777734905947,-0.0016357034910470247,0.19547146558761597,-0.24560348689556122,-9.868142127990723,0,0,50.73200225830078,1,1,196,196
710.65878300,710658783,0,-0.001613668049685657,0.00020276580471545458,-0.0012667865958064795,0.19582799077033997,-0.24566544592380524,-9.867892265319824,0,0,50.73200225830078,1,1,196,196
710.66399000,710663990,0,-0.0016182418912649155,2.425655475235544e-05,-0.0009098610025830567,0.19613592326641083,-0.24568437039852142,-9.867631912231445,0,0,50.73200225830078,1,1,196,196
710.66928300,710669283,0,-0.0016171801835298538,-0.0003013404493685812,-0.0007872520363889635,0.19638462364673615,-0.2455947995185852,-9.867399215698242,0,0,50.73200225830078,1,1,196,196
710.67372300,710673723,0,-0.0014556334353983402,-0.0004221568233333528,-0.0008535141823813319,0.19655084609985352,-0.24538762867450714,-9.867255210876465,0,0,50.73200225830078,1,1,196,196
710.67898000,710678980,0,-0.0011966860620304942,-0.00036856901715509593,-0.0009442477021366358,0.1966283619403839,-0.24510447680950165,-9.86719799041748,0,0,50.73200225830078,1,1,196,196
710.68429300,710684293,0,-0.0010477442992851138,-0.0002949156332761049,-0.001028730534017086,0.19664697349071503,-0.24479685723781586,-9.86717700958252,0,0,50.73200225830078,1,1,196,196
710.68941100,710689411,0,-0.0008228151127696037,-0.00017357287288177758,-0.0010408521629869938,0.1966547667980194,-0.24451115727424622,-9.867168426513672,0,0,50.73200225830078,1,1,196,196
710.69456200,710694562,0,-0.0006060603773221374,-5.344044620869681e-05,-0.0008053321507759392,0.19667375087738037,-0.24426066875457764,-9.867169380187988,0,0,50.73200225830078,1,1,196,196
710.69924400,710699244,0,-0.0005940787959843874,-1.0310908692190424e-05,-0.00028739453409798443,0.1966887265443802,-0.24400821328163147,-9.867173194885254,0,0,50.73200225830078,1,1,196,196
710.70429300,710704293,0,-0.00041896989569067955,4.0164934034692124e-05,0.00021038918930571526,0.1966859996318817,-0.24371354281902313,-9.86713695526123,0,0,50.73200225830078,1,1,196,196
710.70948500,710709485,0,-4.254496889188886e-05,0.0001895039458759129,0.00044210045598447323,0.1966954469680786,-0.24338282644748688,-9.866995811462402,0,0,50.73200225830078,1,1,196,196
710.71479200,710714792,0,0.0002502931747585535,0.00035654703970067203,0.0005008595180697739,0.19676461815834045,-0.2430497258901596,-9.86673355102539,0,0,50.73200225830078,1,1,196,196
710.71982500,710719825,0,0.0005506176385097206,0.0003936800640076399,0.0005180293810553849,0.19689388573169708,-0.24273742735385895,-9.866376876831055,0,0,50.73200225830078,1,1,196,196
710.82822400,710828224,0,-0.0002857474610209465,0.00046355233644135296,-0.00026536910445429385,0.19641123712062836,-0.24444997310638428,-9.863076210021973,0,0,50.724002838134766,1,1,196,196
710.83075100,710830751,0,-0.00044698812416754663,0.00043950608232989907,-0.0001582266268087551,0.1962515115737915,-0.24448540806770325,-9.862753868103027,0,0,50.724002838134766,1,1,196,196
710.83598700,710835987,0,-0.000699738273397088,0.00042159829172305763,-0.00019827029609587044,0.19606702029705048,-0.24445953965187073,-9.86248779296875,0,0,50.724002838134766,1,1,196,196
710.84131400,710841314,0,-0.0006828910554759204,0.0005154999089427292,-0.0004587233124766499,0.19586847722530365,-0.2443789839744568,-9.862286567687988,0,0,50.724002838134766,1,1,196,196
710.84575500,710845755,0,-0.0005932290805503726,0.0005389193538576365,-0.000667646701913327,0.19565849006175995,-0.24425694346427917,-9.862151145935059,0,0,50.724002838134766,1,1,196,196
710.85092400,710850924,0,-0.000381172401830554,0.00041869597043842077,-0.0005472953780554235,0.19541853666305542,-0.24413344264030457,-9.86208438873291,0,0,50.724002838134766,1,1,196,196
710.85631600,710856316,0,5.8098998124478385e-05,0.0002536149404477328,-0.0002934166113846004,0.19513915479183197,-0.2440723329782486,-9.86205005645752,0,0,50.724002838134766,1,1,196,196
710.86133900,710861339,0,0.00025572709273546934,0.0001524143444839865,-0.0001839472388383001,0.19484709203243256,-0.2440953403711319,-9.861995697021484,0,0,50.724002838134766,1,1,196,196
710.86648200,710866482,0,0.0002461479161866009,0.0002070841146633029,-0.00016512513684574515,0.19456641376018524,-0.24415156245231628,-9.861917495727539,0,0,50.724002838134766,1,1,196,196
710.87125300,710871253,0,0.0002447943261358887,0.00027275001048110425,-0.0001933366002049297,0.19427655637264252,-0.24418818950653076,-9.861845016479492,0,0,50.724002838134766,1,1,196,196
710.87628500,710876285,0,8.96359997568652e-05,0.00012001385039184242,-0.00023844173119869083,0.19395221769809723,-0.24420009553432465,-9.861799240112305,0,0,50.724002838134766,1,1,196,196
710.88163700,710881637,0,-0.00016099424101412296,-0.00015953787078615278,-0.00012469622015487403,0.1935988962650299,-0.24420379102230072,-9.861793518066406,0,0,50.724002838134766,1,1,196,196
710.88681200,710886812,0,-0.0003023420867975801,-0.00023372874420601875,9.512181713944301e-05,0.19324268400669098,-0.24421408772468567,-9.861814498901367,0,0,50.724002838134766,1,1,196,196
710.89158800,710891588,0,-0.0003635220928117633,-8.979116682894528e-05,0.00021681576617993414,0.1929069459438324,-0.2442302703857422,-9.861818313598633,0,0,50.724002838134766,1,1,196,196
710.89671600,710896716,0,-0.00026896403869614005,2.4568649678258225e-05,0.00021489255595952272,0.19259847700595856,-0.2442096471786499,-9.8617582321167,0,0,50.724002838134766,1,1,196,196
710.90178900,710901789,0,-1.3358643627725542e-05,4.951318624080159e-05,0.00015428528422489762,0.1923232078552246,-0.24410726130008698,-9.861626625061035,0,0,50.724002838134766,1,1,196,196
710.90682300,710906823,0,0.00011064496356993914,2.680205216165632e-05,0.0001302917517023161,0.19210022687911987,-0.2439393252134323,-9.86147403717041,0,0,50.724002838134766,1,1,196,196
710.91198500,710911985,0,0.00014724649372510612,3.847981133731082e-05,0.0003918748698197305,0.1919393390417099,-0.24376259744167328,-9.861371994018555,0,0,50.724002838134766,1,1,196,196
710.91674300,710916743,0,8.218146103899926e-05,6.427925109164789e-05,0.00068550935247913,0.19182096421718597,-0.24363501369953156,-9.861359596252441,0,0,50.724002838134766,1,1,196,196
710.92179600,710921796,0,-0.0003345980367157608,-6.62785823806189e-05,0.0004623819550033659,0.19172734022140503,-0.24358709156513214,-9.861419677734375,0,0,50.724002838134766,1,1,196,196
710.92696600,710926966,0,-0.0007843383937142789,-0.0002457252994645387,0.0001944728137459606,0.19167739152908325,-0.24359674751758575,-9.861510276794434,0,0,50.724002838134766,1,1,196,196
710.93239100,710932391,0,-0.0010555530898272991,-0.00030770926969125867,0.00032682056189514697,0.1917087733745575,-0.24364393949508667,-9.861590385437012,0,0,50.724002838134766,1,1,196,196
710.93735700,710937357,0,-0.0013985035475343466,-0.00035397917963564396,0.0005189036019146442,0.1918337345123291,-0.24377334117889404,-9.861649513244629,0,0,50.724002838134766,1,1,196,196
710.94191300,710941913,0,-0.001549905864521861,-0.0003835907264146954,0.0005435398779809475,0.19202770292758942,-0.24401052296161652,-9.861686706542969,0,0,50.724002838134766,1,1,196,196
710.94751000,710947510,0,-0.0013691753847524524,-0.0003467194037511945,0.0003779628314077854,0.19226135313510895,-0.24429386854171753,-9.861734390258789,0,0,50.724002838134766,1,1,196,196
710.95234500,710952345,0,-0.0011708274250850081,-2.203643998655025e-05,0.0001542457757750526,0.19252213835716248,-0.24456091225147247,-9.861846923828125,0,0,50.724002838134766,1,1,196,196
710.95746800,710957468,0,-0.0008452836773358285,0.0006392925279214978,-5.3009014663985e-05,0.19280566275119781,-0.24479080736637115,-9.862009048461914,0,0,50.724002838134766,1,1,196,196
710.96233800,710962338,0,-0.000365341838914901,0.001067351084202528,-0.000264079513726756,0.19310790300369263,-0.24497216939926147,-9.862131118774414,0,0,50.724002838134766,1,1,196,196
710.96729000,710967290,0,-1.1875320524268318e-05,0.0009306284482590854,-0.0002772299339994788,0.19342514872550964,-0.24510201811790466,-9.862174034118652,0,0,50.724002838134766,1,1,196,196
710.97251000,710972510,0,0.0001585930585861206,0.0006037583225406706,1.7456790374126285e-05,0.19373992085456848,-0.24517101049423218,-9.862181663513184,0,0,50.724002838134766,1,1,196,196
710.97791300,710977913,0,4.991084279026836e-05,0.0005666815559379756,0.00024294939066749066,0.19400174915790558,-0.24514317512512207,-9.862198829650879,0,0,50.724002838134766,1,1,196,196
710.98287800,710982878,0,-0.0002759921771939844,0.000780735572334379,0.0002327856345800683,0.19415871798992157,-0.2449939250946045,-9.86225414276123,0,0,50.724002838134766,1,1,196,196
710.98740700,710987407,0,-0.0004832313279621303,0.0008617792627774179,0.00016470253467559814,0.19420692324638367,-0.24475790560245514,-9.862354278564453,0,0,50.724002838134766,1,1,196,196
710.99290800,710992908,0,-0.0004874546139035374,0.0007052409346215427,-2.292563658556901e-05,0.19416454434394836,-0.24451547861099243,-9.86247444152832,0,0,50.724002838134766,1,1,196,196
710.99784500,710997845,0,-0.0003938415611628443,0.0006241449154913425,-0.00028323527658358216,0.19402733445167542,-0.24431075155735016,-9.862577438354492,0,0,50.724002838134766,1,1,196,196
711.00302800,711003028,0,-0.0002193272957811132,0.0007531351875513792,-0.0005267940578050911,0.19378510117530823,-0.24411992728710175,-9.862643241882324,0,0,50.724002838134766,1,1,196,196
711.00835100,711008351,0,-4.0669845475349575e-05,0.0008516609668731689,-0.0007668514153920114,0.19345028698444366,-0.24394968152046204,-9.86267375946045,0,0,50.75600051879883,1,1,196,196
711.01279800,711012798,0,0.00015730400627944618,0.0008108117035590112,-0.0008524275617673993,0.19306260347366333,-0.24386176466941833,-9.862722396850586,0,0,50.75600051879883,1,1,196,196
711.01793400,711017934,0,0.0005360266077332199,0.000764114607591182,-0.0007419341709464788,0.1926717460155487,-0.24387599527835846,-9.862836837768555,0,0,50.75600051879883,1,1,196,196
711.02340300,711023403,0,0.000820881046820432,0.0007765256450511515,-0.0006122768390923738,0.19231536984443665,-0.24395360052585602,-9.862960815429688,0,0,50.75600051879883,1,1,196,196
711.02836800,711028368,0,0.0006885479670017958,0.0007093891617842019,-0.0004991037421859801,0.19199888408184052,-0.2440595030784607,-9.863000869750977,0,0,50.75600051879883,1,1,196,196
711.03290300,711032903,0,0.00038305213092826307,0.000459519011201337,-0.00020551738271024078,0.19169895350933075,-0.2442040890455246,-9.862931251525879,0,0,50.75600051879883,1,1,196,196
711.03830300,711038303,0,0.0001605679135536775,0.00017175203538499773,0.0004322169115766883,0.19141560792922974,-0.24444535374641418,-9.862777709960938,0,0,50.75600051879883,1,1,196,196
711.04338500,711043385,0,0.00012707967835012823,2.8120968636358157e-05,0.0012136040022596717,0.191190704703331,-0.244820699095726,-9.862598419189453,0,0,50.75600051879883,1,1,196,196
711.04850200,711048502,0,0.0004011865530628711,8.709729445399716e-05,0.001593098510056734,0.1910683512687683,-0.24529285728931427,-9.86245346069336,0,0,50.75600051879883,1,1,196,196
711.05381400,711053814,0,0.0007680560229346156,0.0001258815755136311,0.0012841803254559636,0.19106647372245789,-0.24580691754817963,-9.862359046936035,0,0,50.75600051879883,1,1,196,196
711.05826700,711058267,0,0.0010013615246862173,-1.0654381185304374e-05,0.0004967585555277765,0.19116543233394623,-0.24632753431797028,-9.862327575683594,0,0,50.75600051879883,1,1,196,196
711.06344800,711063448,0,0.0009140419424511492,-9.862249135039747e-05,-0.0003635744797065854,0.19132603704929352,-0.2468159943819046,-9.862385749816895,0,0,50.75600051879883,1,1,196,196
711.06883900,711068839,0,0.0003747903974726796,-9.332098852610216e-05,-0.0008252699044533074,0.1915339231491089,-0.24725183844566345,-9.862545013427734,0,0,50.75600051879883,1,1,196,196
711.07386900,711073869,0,-0.00022108631674200296,-4.450358392205089e-05,-0.0006891871453262866,0.1917828917503357,-0.24764502048492432,-9.862772941589355,0,0,50.75600051879883,1,1,196,196
711.07900900,711079009,0,-0.0006208446575328708,6.811930506955832e-05,-0.00029439665377140045,0.19204619526863098,-0.24799081683158875,-9.863025665283203,0,0,50.75600051879883,1,1,196,196
711.08391300,711083913,0,-0.0009531775140203536,0.00013628900342155248,-6.473818939412013e-05,0.19232077896595,-0.24822917580604553,-9.863292694091797,0,0,50.75600051879883,1,1,196,196
711.08893500,711088935,0,-0.0010822380427271128,0.00027507293270900846,9.327098814537749e-05,0.19264580309391022,-0.24828612804412842,-9.863585472106934,0,0,50.75600051879883,1,1,196,196
711.09397200,711093972,0,-0.0009833171498030424,0.0006834886153228581,0.00039646870573051274,0.1930420696735382,-0.24816644191741943,-9.8638916015625,0,0,50.75600051879883,1,1,196,196
711.09933400,711099334,0,-0.0009530315874144435,0.0009292973554693162,0.0006564106442965567,0.1934787929058075,-0.24793830513954163,-9.864188194274902,0,0,50.75600051879883,1,1,196,196
711.10378200,711103782,0,-0.0009088615770451725,0.0006801291019655764,0.0007389445090666413,0.19390718638896942,-0.24762845039367676,-9.864473342895508,0,0,50.75600051879883,1,1,196,196
711.10893000,711108930,0,-0.0006034548860043287,0.0003490702947601676,0.0005623883916996419,0.19426971673965454,-0.24719135463237762,-9.86473274230957,0,0,50.75600051879883,1,1,196,196
711.11434000,711114340,0,-0.0001282903685932979,9.702086390461773e-05,8.628387149656191e-05,0.1945221871137619,-0.24658697843551636,-9.86491870880127,0,0,50.75600051879883,1,1,196,196
711.11936400,711119364,0,0.0003340174735058099,-1.4765689229534473e-05,-0.00028078947798348963,0.19469572603702545,-0.24586442112922668,-9.865011215209961,0,0,50.75600051879883,1,1,196,196
711.12454200,711124542,0,0.0006460901349782944,0.00022590973821934313,-0.0005231762770563364,0.19487449526786804,-0.2451312392950058,-9.865026473999023,0,0,50.75600051879883,1,1,196,196
711.12935400,711129354,0,0.0006666631670668721,0.0005873964983038604,-0.0008687241352163255,0.19509190320968628,-0.24444176256656647,-9.864977836608887,0,0,50.75600051879883,1,1,196,196
711.13431700,711134317,0,0.0004912213771604002,0.0008297854219563305,-0.000984557787887752,0.19530761241912842,-0.24380241334438324,-9.864880561828613,0,0,50.75600051879883,1,1,196,196
711.13946300,711139463,0,0.00020415081235114485,0.0008620000444352627,-0.0008097242098301649,0.19548560678958893,-0.24326756596565247,-9.864752769470215,0,0,50.75600051879883,1,1,196,196
711.14506600,711145066,0,-0.0001848209067247808,0.0006294199265539646,-0.0005832517053931952,0.19564278423786163,-0.2428993582725525,-9.864620208740234,0,0,50.75600051879883,1,1,196,196
711.14930100,711149301,0,-0.00038755653076805174,0.0005796526675112545,-0.00037689259625039995,0.19582238793373108,-0.24267533421516418,-9.86450481414795,0,0,50.75600051879883,1,1,196,196
711.15444500,711154445,0,-0.0004612159391399473,0.0009430805803276598,-0.00011561758583411574,0.1960279792547226,-0.24252578616142273,-9.864384651184082,0,0,50.75600051879883,1,1,196,196
711.15982400,711159824,0,-0.0006693060859106481,0.0012213930021971464,0.00022556235489901155,0.19621369242668152,-0.24242272973060608,-9.864218711853027,0,0,50.75600051879883,1,1,196,196
711.16489900,711164899,0,-0.0007424733485095203,0.0012459963327273726,0.0004321151354815811,0.19634555280208588,-0.24238990247249603,-9.864013671875,0,0,50.75600051879883,1,1,196,196
711.17004000,711170040,0,-0.0005260350299067795,0.0010918441694229841,0.00042816056520678103,0.19642844796180725,-0.24246203899383545,-9.863801956176758,0,0,50.75600051879883,1,1,196,196
711.17471300,711174713,0,-0.00037202759995125234,0.0007774319965392351,0.00042974247480742633,0.19647404551506042,-0.24266266822814941,-9.863607406616211,0,0,50.75600051879883,1,1,196,196
711.17976800,711179768,0,-0.00022563822858501226,0.000553959864191711,0.0005389919970184565,0.1964789777994156,-0.2429770678281784,-9.863429069519043,0,0,50.75600051879883,1,1,196,196
711.18501200,711185012,0,4.616425940184854e-05,0.0003654645406641066,0.00046741010737605393,0.19644053280353546,-0.24334952235221863,-9.863237380981445,0,0,50.75600051879883,1,1,196,196
711.19046500,711190465,0,8.133172741509043e-06,2.0287443476263434e-05,7.57756697566947e-06,0.19636347889900208,-0.24372977018356323,-9.863035202026367,0,0,50.75600051879883,1,1,196,196
711.19540500,711195405,0,-0.00032841836218722165,-0.00017348858818877488,-0.0004941588849760592,0.19623133540153503,-0.24410080909729004,-9.862909317016602,0,0,50.75600051879883,1,1,196,196
711.19996100,711199961,0,-0.0005830451846122742,0.00011206829367438331,-0.0008113600197248161,0.19602268934249878,-0.24445444345474243,-9.862929344177246,0,0,50.75600051879883,1,1,196,196
711.20545100,711205451,0,-0.0008535091765224934,0.0007808501832187176,-0.0009776613442227244,0.1957608312368393,-0.2447764277458191,-9.863064765930176,0,0,50.75600051879883,1,1,196,196
711.21035500,711210355,0,-0.0011833889875561,0.0014478133525699377,-0.0007756375125609338,0.19549480080604553,-0.2450612634420395,-9.86324691772461,0,0,50.75600051879883,1,1,196,196
711.27116100,711271161,0,-0.0012657514307647943,0.0017713407287374139,-0.0003849118365906179,0.1952475905418396,-0.24531815946102142,-9.863310813903809,0,0,50.75600051879883,1,1,196,196
711.28138400,711281384,0,-0.0010555597255006433,0.0017614591633901,-8.662795880809426e-05,0.1950116604566574,-0.24556951224803925,-9.862902641296387,0,0,50.75600051879883,1,1,196,196
711.29136900,711291369,0,-0.0007998195942491293,0.0015942287864163518,0.00026650194195099175,0.19479422271251678,-0.24583546817302704,-9.861860275268555,0,0,50.75600051879883,1,1,196,196
711.30146800,711301468,0,-0.0005202234024181962,0.0013322203885763884,0.0005760033964179456,0.19462253153324127,-0.2461128681898117,-9.860506057739258,0,0,50.75600051879883,1,1,196,196
711.31178200,711311782,0,-0.0001791858085198328,0.0009187384857796133,0.00059278286062181,0.19449983537197113,-0.24639195203781128,-9.859245300292969,0,0,50.75600051879883,1,1,196,196
711.32182000,711321820,0,1.843088466557674e-05,0.0004093162133358419,0.0003610461426433176,0.19440066814422607,-0.24668489396572113,-9.858193397521973,0,0,50.75600051879883,1,1,196,196
711.33142000,711331420,0,0.0001611083425814286,6.0130500060040504e-05,0.00010906331590376794,0.19430221617221832,-0.2469954788684845,-9.857300758361816,0,0,50.75600051879883,1,1,196,196
711.34178600,711341786,0,0.00035465534892864525,-3.810503039858304e-05,0.000107908395875711,0.19419792294502258,-0.24728509783744812,-9.856521606445312,0,0,50.75600051879883,1,1,196,196
711.35180200,711351802,0,0.00032356244628317654,2.990468829011661e-06,0.00033216277370229363,0.19408205151557922,-0.2475052922964096,-9.855839729309082,0,0,50.71000289916992,1,1,196,196
711.36201600,711362016,0,8.595018880441785e-05,0.0001551990571897477,0.0004090999427717179,0.19393549859523773,-0.24764811992645264,-9.855242729187012,0,0,50.71000289916992,1,1,196,196
711.37231300,711372313,0,-9.80126642389223e-05,0.0003303972480352968,0.0004004338406957686,0.1937553882598877,-0.24774883687496185,-9.85470962524414,0,0,50.71000289916992,1,1,196,196
711.38237700,711382377,0,-0.00011462673137430102,0.0004292656958568841,0.0005632503307424486,0.19356723129749298,-0.24783924221992493,-9.854231834411621,0,0,50.71000289916992,1,1,196,196
711.39259900,711392599,0,5.733919169870205e-05,0.0004721118020825088,0.0006704682018607855,0.1933799833059311,-0.24794088304042816,-9.853805541992188,0,0,50.71000289916992,1,1,196,196
711.40316900,711403169,0,0.00023273380065802485,0.000532384729012847,0.0006245827535167336,0.19318066537380219,-0.24806596338748932,-9.85342788696289,0,0,50.71000289916992,1,1,196,196
711.41253100,711412531,0,0.000217078544665128,0.0005363972741179168,0.0006199537310749292,0.19297869503498077,-0.24819029867649078,-9.85310173034668,0,0,50.71000289916992,1,1,196,196
711.42247800,711422478,0,0.00016590292216278613,0.0003547324740793556,0.0006359524559229612,0.1927965134382248,-0.24829928576946259,-9.852839469909668,0,0,50.71000289916992,1,1,196,196
711.43297200,711432972,0,0.0002132110676029697,0.0002782789524644613,0.0006059757433831692,0.19261910021305084,-0.24841484427452087,-9.852655410766602,0,0,50.71000289916992,1,1,196,196
711.44287800,711442878,0,0.0001928842393681407,0.000425217323936522,0.0005599600845016539,0.19241903722286224,-0.248535618185997,-9.852585792541504,0,0,50.71000289916992,1,1,196,196
711.45312600,711453126,0,-1.3741437214775942e-05,0.0005971669452264905,0.0005680483882315457,0.19220687448978424,-0.24862541258335114,-9.852653503417969,0,0,50.71000289916992,1,1,196,196
711.46338700,711463387,0,-0.00021585167269222438,0.0007470627315342426,0.0006003881571814418,0.19201308488845825,-0.24865898489952087,-9.852821350097656,0,0,50.71000289916992,1,1,196,196
711.47348500,711473485,0,-0.00032316811848431826,0.0008041106048040092,0.0005325847887434065,0.19185087084770203,-0.24863505363464355,-9.85303020477295,0,0,50.71000289916992,1,1,196,196
711.48363100,711483631,0,-0.0005219720769673586,0.0007528465357609093,0.0003776740049943328,0.19170384109020233,-0.2485528141260147,-9.853254318237305,0,0,50.71000289916992,1,1,196,196
711.49416000,711494160,0,-0.0006725063431076705,0.0006599687621928751,0.00021177790767978877,0.19155731797218323,-0.24840489029884338,-9.853496551513672,0,0,50.71000289916992,1,1,196,196
711.50344800,711503448,0,-0.0006122055929154158,0.0006709102308377624,0.00017877522623166442,0.19141905009746552,-0.24819901585578918,-9.853761672973633,0,0,50.71000289916992,1,1,196,196
711.51365700,711513657,0,-0.000568427552934736,0.0007292929221875966,0.00037379824789240956,0.19129598140716553,-0.24797050654888153,-9.854037284851074,0,0,50.71000289916992,1,1,196,196
711.52400800,711524008,0,-0.0005412015598267317,0.0006407948094420135,0.0005338698974810541,0.19118724763393402,-0.2477719932794571,-9.854321479797363,0,0,50.71000289916992,1,1,196,196
711.53405100,711534051,0,-0.00042193318950012326,0.0004996180068701506,0.0003822488069999963,0.19109195470809937,-0.24764345586299896,-9.854625701904297,0,0,50.71000289916992,1,1,196,196
711.54419700,711544197,0,-0.0003349405596964061,0.00030852254712954164,5.9017271269112825e-05,0.1910092681646347,-0.2475922852754593,-9.854947090148926,0,0,50.71000289916992,1,1,196,196
711.55478100,711554781,0,-0.00028057274175807834,0.00013136632333043963,-0.00012428598711267114,0.19093838334083557,-0.24761062860488892,-9.85525894165039,0,0,50.71000289916992,1,1,196,196
711.56458600,711564586,0,-0.00030521221924573183,0.00010123928223038092,-4.6479279262712225e-05,0.19087839126586914,-0.24768409132957458,-9.8555269241333,0,0,50.71000289916992,1,1,196,196
711.57482900,711574829,0,-0.0005733989528380334,4.198570240987465e-05,0.00019336675177328289,0.19082856178283691,-0.2477714717388153,-9.855717658996582,0,0,50.71000289916992,1,1,196,196
711.58461500,711584615,0,-0.0009049170184880495,-1.9466757294139825e-05,0.0003578689938876778,0.19078809022903442,-0.2478218525648117,-9.85583209991455,0,0,50.71000289916992,1,1,196,196
711.59458800,711594588,0,-0.0010431320406496525,8.818539936328307e-05,0.0003485053312033415,0.19075623154640198,-0.24781782925128937,-9.855911254882812,0,0,50.71000289916992,1,1,196,196
711.60469000,711604690,0,-0.0010616538347676396,0.000308014452457428,0.0003105876676272601,0.19073225557804108,-0.2477651685476303,-9.856016159057617,0,0,50.71000289916992,1,1,196,196
711.61526400,711615264,0,-0.0010719908168539405,0.0004326339403633028,0.00016119025531224906,0.1907084882259369,-0.2476692795753479,-9.856163024902344,0,0,50.71000289916992,1,1,196,196
711.62507200,711625072,0,-0.0009710376616567373,0.0003291151951998472,-0.00011726291268132627,0.19067108631134033,-0.24754221737384796,-9.856313705444336,0,0,50.71000289916992,1,1,196,196
711.63527800,711635278,0,-0.0007315392722375691,0.00018973088299389929,-0.0001916428591357544,0.19062864780426025,-0.24740907549858093,-9.856422424316406,0,0,50.71000289916992,1,1,196,196
711.64564400,711645644,0,-0.00047320628073066473,0.00016610929742455482,-0.00010113968164660037,0.19060997664928436,-0.2472921758890152,-9.856487274169922,0,0,50.71000289916992,1,1,196,196
711.65572200,711655722,0,-0.0002569613279774785,0.00020247056090738624,-5.508791218744591e-05,0.19061966240406036,-0.24719053506851196,-9.856527328491211,0,0,50.71000289916992,1,1,196,196
711.66584600,711665846,0,-0.00026159262051805854,0.0003129685064777732,6.595291779376566e-05,0.1906336545944214,-0.24708214402198792,-9.856557846069336,0,0,50.71000289916992,1,1,196,196
711.67555400,711675554,0,-0.0005288454703986645,0.0004370373208075762,0.000251554447459057,0.19064445793628693,-0.24695438146591187,-9.856600761413574,0,0,50.71000289916992,1,1,196,196
711.68560700,711685607,0,-0.0007633930072188377,0.0004903872613795102,0.00027329649310559034,0.19067329168319702,-0.2468169927597046,-9.85665512084961,0,0,50.71000289916992,1,1,196,196
711.69595200,711695952,0,-0.0008832628955133259,0.00044672979856841266,5.444414637167938e-05,0.19073212146759033,-0.24667879939079285,-9.856677055358887,0,0,50.71000289916992,1,1,196,196
711.70618900,711706189,0,-0.000924634572584182,0.0002073531213682145,-0.0002887524024117738,0.19079641997814178,-0.24654768407344818,-9.856648445129395,0,0,50.71000289916992,1,1,196,196
711.71620800,711716208,0,-0.0007623156416229904,-7.819997699698433e-05,-0.0006234911852516234,0.19081632792949677,-0.2464306652545929,-9.856611251831055,0,0,50.71000289916992,1,1,196,196
711.72635700,711726357,0,-0.0003767702146433294,-0.00017134344670921564,-0.0008879918023012578,0.19077539443969727,-0.2463129460811615,-9.856606483459473,0,0,50.71000289916992,1,1,196,196
711.73687800,711736878,0,9.18561709113419e-05,-0.00015413365326821804,-0.0011192932724952698,0.1907152235507965,-0.24617432057857513,-9.856632232666016,0,0,50.71000289916992,1,1,196,196
711.74676600,711746766,0,0.0004021694476250559,-3.493276744848117e-05,-0.0012889906065538526,0.1906871497631073,-0.24601078033447266,-9.856650352478027,0,0,50.71000289916992,1,1,196,196
711.75630900,711756309,0,0.00041747133946046233,0.0002674293064046651,-0.0012903596507385373,0.1907089203596115,-0.2458259016275406,-9.8566312789917,0,0,50.71000289916992,1,1,196,196
711.76665700,711766657,0,0.00023612295626662672,0.000597511709202081,-0.0012110302923247218,0.19076119363307953,-0.24562303721904755,-9.856588363647461,0,0,50.71000289916992,1,1,196,196
711.88164800,711881648,0,-0.00021096326236147434,0.0007522118394263089,-0.00018200709018856287,0.19168904423713684,-0.24401172995567322,-9.857203483581543,0,0,50.68600082397461,1,1,196,196
711.88828300,711888283,0,-2.5892562916851602e-05,0.0006552578415721655,-8.086192246992141e-05,0.1917407512664795,-0.2440563291311264,-9.8572998046875,0,0,50.68600082397461,1,1,196,196
711.89865500,711898655,0,0.0003302257973700762,0.00040184560930356383,-3.373547951923683e-05,0.19177183508872986,-0.244111105799675,-9.857376098632812,0,0,50.68600082397461,1,1,196,196
711.90881300,711908813,0,0.000750313454773277,0.00017645909974817187,-7.440635090461001e-05,0.19179128110408783,-0.2441466599702835,-9.857470512390137,0,0,50.68600082397461,1,1,196,196
711.91860900,711918609,0,0.000749217695556581,0.0001670376950642094,-0.00014898391964379698,0.19179320335388184,-0.24415087699890137,-9.85757064819336,0,0,50.68600082397461,1,1,196,196
711.92882000,711928820,0,0.00033642665948718786,0.00026266774511896074,-6.701127858832479e-05,0.19179341197013855,-0.24414095282554626,-9.857629776000977,0,0,50.68600082397461,1,1,196,196
711.93917100,711939171,0,-3.343781645526178e-05,0.0003369124315213412,0.00023155308736022562,0.19181305170059204,-0.244160458445549,-9.857621192932129,0,0,50.68600082397461,1,1,196,196
711.94858700,711948587,0,-0.0003623161173891276,0.0002809216966852546,0.0006272295140661299,0.1918569803237915,-0.24424110352993011,-9.857582092285156,0,0,50.68600082397461,1,1,196,196
711.95881700,711958817,0,-0.000711908214725554,0.00017377693438902497,0.0009383907890878618,0.1919153779745102,-0.2443620264530182,-9.857577323913574,0,0,50.68600082397461,1,1,196,196
711.96916900,711969169,0,-0.0008969280170276761,0.0003267170104663819,0.001094968756660819,0.19195841252803802,-0.2444763034582138,-9.857645034790039,0,0,50.68600082397461,1,1,196,196
711.97919600,711979196,0,-0.0009667259873822331,0.0006263484247028828,0.0011467222357168794,0.19194549322128296,-0.2445630431175232,-9.857770919799805,0,0,50.68600082397461,1,1,196,196
711.98946700,711989467,0,-0.0009150002151727676,0.0007788122165948153,0.0010328209027647972,0.19187557697296143,-0.2446315586566925,-9.85792064666748,0,0,50.68600082397461,1,1,196,196
711.99964500,711999645,0,-0.0006574370199814439,0.0007781409076415002,0.0007569591398350894,0.19180405139923096,-0.2446834295988083,-9.858068466186523,0,0,50.68600082397461,1,1,196,196
712.00976700,712009767,0,-0.0004051268333569169,0.0006517667206935585,0.0005109337507747114,0.1917804330587387,-0.24469910562038422,-9.858206748962402,0,0,50.68600082397461,1,1,196,196
712.01989900,712019899,0,-0.00025789032224565744,0.0004376553697511554,0.0003278174845036119,0.19182078540325165,-0.24466830492019653,-9.85833740234375,0,0,50.68600082397461,1,1,196,196
712.02979400,712029794,0,-0.00013730757927987725,0.0002766327525023371,5.296919698594138e-05,0.19192515313625336,-0.24461007118225098,-9.858445167541504,0,0,50.68600082397461,1,1,196,196
712.03968400,712039684,0,-0.0001586412254255265,0.00022548688866663724,-0.00031669053714722395,0.1920582354068756,-0.24455560743808746,-9.858505249023438,0,0,50.68600082397461,1,1,196,196
712.04992100,712049921,0,-0.00029623130103573203,0.00018428715702611953,-0.0005532134091481566,0.19215326011180878,-0.24451883137226105,-9.858513832092285,0,0,50.68600082397461,1,1,196,196
712.06022400,712060224,0,-0.0002514893130864948,0.00015598726167809218,-0.0006266816635616124,0.19217176735401154,-0.2444910854101181,-9.858498573303223,0,0,50.68600082397461,1,1,196,196
712.07024600,712070246,0,-0.00012847686593886465,0.00019211492326576263,-0.0007130485610105097,0.192121684551239,-0.24447159469127655,-9.858482360839844,0,0,50.68600082397461,1,1,196,196
712.08040500,712080405,0,-0.00020306346414145082,0.00025188166182488203,-0.0007358311559073627,0.19202445447444916,-0.24448056519031525,-9.858464241027832,0,0,50.68600082397461,1,1,196,196
712.09087200,712090872,0,-0.00019931048154830933,0.000363791361451149,-0.0006710602319799364,0.1919136494398117,-0.24453593790531158,-9.85843276977539,0,0,50.68600082397461,1,1,196,196
712.10078900,712100789,0,-0.00015886891924310476,0.000531151657924056,-0.0006826001335866749,0.1918262392282486,-0.2446185201406479,-9.858373641967773,0,0,50.68600082397461,1,1,196,196
712.11100000,712111000,0,-0.0004249002959113568,0.0007445770897902548,-0.0006756517104804516,0.19176730513572693,-0.24467605352401733,-9.858284950256348,0,0,50.68600082397461,1,1,196,196
712.12097200,712120972,0,-0.0006794200744479895,0.0009378062095493078,-0.00045057368697598577,0.1917201727628708,-0.24468283355236053,-9.85818099975586,0,0,50.68600082397461,1,1,196,196
712.13077500,712130775,0,-0.0006674363976344466,0.000977837829850614,-0.00021845129958819598,0.19167694449424744,-0.24465815722942352,-9.858087539672852,0,0,50.68600082397461,1,1,196,196
712.14100500,712141005,0,-0.0005304869846440852,0.0009367552120238543,-0.00029220469878055155,0.19164440035820007,-0.24463343620300293,-9.858003616333008,0,0,50.68600082397461,1,1,196,196
712.15133200,712151332,0,-0.0004135790513828397,0.0009177079191431403,-0.00039218549500219524,0.1916356235742569,-0.24462279677391052,-9.857915878295898,0,0,50.68600082397461,1,1,196,196
712.16133200,712161332,0,-0.0004347013891674578,0.0007549532456323504,-0.0003269232402089983,0.19164815545082092,-0.24461087584495544,-9.857823371887207,0,0,50.68600082397461,1,1,196,196
712.17157900,712171579,0,-0.0005175975966267288,0.0003977183368988335,-0.00030094882822595537,0.19166569411754608,-0.24456284940242767,-9.857734680175781,0,0,50.68600082397461,1,1,196,196
712.18195500,712181955,0,-0.0005082811112515628,0.00012354143837001175,-0.00035155031946487725,0.19168762862682343,-0.24446187913417816,-9.85762882232666,0,0,50.68600082397461,1,1,196,196
712.19206300,712192063,0,-0.0004040801140945405,4.860524131800048e-05,-0.00037606555270031095,0.19173432886600494,-0.24432805180549622,-9.857474327087402,0,0,50.68600082397461,1,1,196,196
712.20153100,712201531,0,-0.00032781725167296827,0.0001363531337119639,-0.0003306011494714767,0.19180992245674133,-0.24417966604232788,-9.857268333435059,0,0,50.68600082397461,1,1,196,196
712.21190400,712211904,0,-0.00022731725766789168,0.0002844788832589984,-0.0003660263610072434,0.19188296794891357,-0.24401207268238068,-9.857040405273438,0,0,50.68600082397461,1,1,196,196
712.22207000,712222070,0,2.2891243133926764e-05,0.0002214901614934206,-0.0005384301766753197,0.1919253170490265,-0.24382127821445465,-9.856828689575195,0,0,50.68600082397461,1,1,196,196
712.23211200,712232112,0,0.00024248256522696465,-8.791537402430549e-05,-0.0006895209080539644,0.19193996489048004,-0.24363180994987488,-9.856674194335938,0,0,50.68600082397461,1,1,196,196
712.24239100,712242391,0,0.0002460166288074106,-0.0003485368797555566,-0.000800548936240375,0.19195067882537842,-0.24347959458827972,-9.856600761413574,0,0,50.68600082397461,1,1,196,196
712.25249800,712252498,0,0.00014561947318725288,-0.0003236394259147346,-0.0009758135420270264,0.1919788271188736,-0.24337561428546906,-9.85659122467041,0,0,50.68600082397461,1,1,196,196
712.26264800,712262648,0,-3.724941416294314e-05,-0.00011457686923677102,-0.0011997780529782176,0.19202236831188202,-0.24331538379192352,-9.856605529785156,0,0,50.68600082397461,1,1,196,196
712.27301900,712273019,0,-0.00027602730551734567,3.5801276681013405e-05,-0.001297385897487402,0.19205845892429352,-0.24328066408634186,-9.856612205505371,0,0,50.68600082397461,1,1,196,196
712.28303100,712283031,0,-0.0002836284111253917,0.00018106913194060326,-0.0010519800707697868,0.1920667290687561,-0.24323402345180511,-9.856612205505371,0,0,50.68600082397461,1,1,196,196
712.29272600,712292726,0,-0.00017926983127836138,0.00040050261304713786,-0.0006912126555107534,0.192050039768219,-0.24317696690559387,-9.856621742248535,0,0,50.68600082397461,1,1,195,196
712.30302500,712303025,0,-0.0002527245960664004,0.0006119778845459223,-0.0005573398666456342,0.1920320689678192,-0.24318085610866547,-9.856637001037598,0,0,50.68600082397461,1,1,195,196
712.31315400,712313154,0,-0.0003439450229052454,0.0007251625647768378,-0.0004530167207121849,0.1920410543680191,-0.24330921471118927,-9.85663890838623,0,0,50.68600082397461,1,1,195,196
712.32320900,712323209,0,-0.00047828195965848863,0.0006636656471528113,-0.00027810802566818893,0.1920950710773468,-0.24356216192245483,-9.856605529785156,0,0,50.68600082397461,1,1,195,196
712.33367200,712333672,0,-0.0007646564627066255,0.00042553216917440295,-0.00015673047164455056,0.19218909740447998,-0.24390418827533722,-9.856549263000488,0,0,50.68600082397461,1,1,195,196
712.34358500,712343585,0,-0.0009090395760722458,0.0002027616574196145,7.306917541427538e-05,0.19229735434055328,-0.24428893625736237,-9.856508255004883,0,0,50.68600082397461,1,1,195,196
712.35381500,712353815,0,-0.0008516910602338612,0.00013672112254425883,0.0004145634884480387,0.19240376353263855,-0.24466770887374878,-9.856487274169922,0,0,50.68600082397461,1,1,195,196
712.36408700,712364087,0,-0.0007619636016897857,5.329125269781798e-05,0.000583890185225755,0.1925288885831833,-0.24501097202301025,-9.85644245147705,0,0,50.68600082397461,1,1,195,196
712.37351700,712373517,0,-0.0006218422786332667,-0.00017995100643020123,0.0004794668057002127,0.1927119642496109,-0.24531345069408417,-9.856341361999512,0,0,50.698001861572266,1,1,195,196
712.48866800,712488668,0,-0.00043933402048423886,0.00013922066136728972,0.00022850336972624063,0.19382871687412262,-0.24643807113170624,-9.855080604553223,0,0,50.698001861572266,1,1,195,196
712.49530000,712495300,0,-0.0003374204388819635,-4.930420618620701e-05,0.0003632943844422698,0.19387903809547424,-0.2468780279159546,-9.855066299438477,0,0,50.698001861572266,1,1,195,196
712.50532400,712505324,0,-0.0001700978900771588,-0.00015446936595253646,0.0004966643755324185,0.19398027658462524,-0.24732606112957,-9.855091094970703,0,0,50.698001861572266,1,1,195,196
712.51565900,712515659,0,-5.7279634347651154e-05,-0.0002516755776014179,0.00044497798080556095,0.19413349032402039,-0.24773673713207245,-9.855179786682129,0,0,50.698001861572266,1,1,195,196
712.52570200,712525702,0,-0.00020348432008177042,-0.00027318819775246084,0.00031509273685514927,0.19431135058403015,-0.24805566668510437,-9.855324745178223,0,0,50.698001861572266,1,1,195,196
712.53591000,712535910,0,-0.00033920229179784656,-9.627754479879513e-05,0.0003315323847346008,0.1944892555475235,-0.24824166297912598,-9.855484008789062,0,0,50.698001861572266,1,1,195,196
712.54569800,712545698,0,-0.0002324004308320582,0.00014045463467482477,0.0004146351129747927,0.19464518129825592,-0.24829363822937012,-9.855633735656738,0,0,50.698001861572266,1,1,195,196
712.55589900,712555899,0,-8.351071301149204e-05,0.0002536190440878272,0.0004604878486134112,0.1947525441646576,-0.24826031923294067,-9.855790138244629,0,0,50.698001861572266,1,1,195,196
712.56590400,712565904,0,3.377086386535666e-06,0.00033803112455643713,0.0004268072370905429,0.19480186700820923,-0.2481788545846939,-9.855963706970215,0,0,50.698001861572266,1,1,195,196
712.57617400,712576174,0,-6.187742110341787e-05,0.0005500147817656398,0.00025645107962191105,0.19480593502521515,-0.2480407953262329,-9.856144905090332,0,0,50.698001861572266,1,1,195,196
712.58630800,712586308,0,-0.0001869211409939453,0.0006756960065104067,5.448034426080994e-05,0.19480445981025696,-0.24784591794013977,-9.85632610321045,0,0,50.698001861572266,1,1,195,196
712.59652800,712596528,0,-0.00021046883193776011,0.0005772848380729556,3.5347875382285565e-05,0.19485394656658173,-0.2476292997598648,-9.856491088867188,0,0,50.698001861572266,1,1,195,196
712.60700300,712607003,0,-0.00023353246797341853,0.0003912636311724782,0.0003180294297635555,0.19497673213481903,-0.24744342267513275,-9.856613159179688,0,0,50.698001861572266,1,1,195,196
712.61681100,712616811,0,-0.00035713883698917925,0.0002528368204366416,0.0007416832377202809,0.19515042006969452,-0.24734212458133698,-9.856687545776367,0,0,50.698001861572266,1,1,195,196
712.62702800,712627028,0,-0.0005570081411860883,0.0003225281252525747,0.0009909106884151697,0.1953476518392563,-0.24735203385353088,-9.856741905212402,0,0,50.698001861572266,1,1,195,196
712.63683500,712636835,0,-0.0007537903729826212,0.0003198739141225815,0.000949507812038064,0.19555780291557312,-0.24743345379829407,-9.856804847717285,0,0,50.698001861572266,1,1,195,196
712.64680800,712646808,0,-0.0008048475137911737,-3.282735633547418e-05,0.0007247617468237877,0.19577129185199738,-0.24749444425106049,-9.856895446777344,0,0,50.698001861572266,1,1,195,196
712.65696100,712656961,0,-0.0005655099521391094,-0.0003250296867918223,0.0004041917563881725,0.19597257673740387,-0.24745990335941315,-9.857011795043945,0,0,50.698001861572266,1,1,195,196
712.66735800,712667358,0,-0.0002874197671189904,-0.0003198703343514353,0.00010123195534106344,0.19614772498607635,-0.24731211364269257,-9.857121467590332,0,0,50.698001861572266,1,1,195,196
712.67735000,712677350,0,-0.0002038104721577838,-0.00017365158419124782,-2.8066175218555145e-05,0.19626353681087494,-0.2470707893371582,-9.857176780700684,0,0,50.698001861572266,1,1,195,196
712.68757100,712687571,0,-0.0001769910886650905,1.1049701242882293e-05,-0.00010148649016628042,0.19626961648464203,-0.2467542290687561,-9.857146263122559,0,0,50.698001861572266,1,1,195,196
712.69804200,712698042,0,-7.727467163931578e-05,0.00017761197523213923,-0.0003443590539973229,0.19614949822425842,-0.24638612568378448,-9.857062339782715,0,0,50.698001861572266,1,1,195,196
712.70797400,712707974,0,-1.5115138012333773e-05,0.00030256854370236397,-0.0006728338776156306,0.19593115150928497,-0.24600905179977417,-9.856992721557617,0,0,50.698001861572266,1,1,195,196
712.71750800,712717508,0,-0.00014119541447144002,0.0004356023564469069,-0.0008192486711777747,0.19565410912036896,-0.24566806852817535,-9.856964111328125,0,0,50.698001861572266,1,1,195,196
712.72796900,712727969,0,-0.00027961601153947413,0.0007041897042654455,-0.0005863826954737306,0.19534718990325928,-0.24539637565612793,-9.856937408447266,0,0,50.698001861572266,1,1,195,196
712.73787800,712737878,0,-0.0003965592186432332,0.0009844296146184206,-6.034445686964318e-05,0.19503626227378845,-0.2452092170715332,-9.856891632080078,0,0,50.698001861572266,1,1,195,196
712.74810200,712748102,0,-0.0005854492192156613,0.001056815031915903,0.00034374147071503103,0.19477251172065735,-0.24511277675628662,-9.856858253479004,0,0,50.698001861572266,1,1,195,196
712.75840600,712758406,0,-0.0006660260260105133,0.0009102376643568277,0.0004516449407674372,0.19460847973823547,-0.24509111046791077,-9.856870651245117,0,0,50.698001861572266,1,1,195,196
712.76853900,712768539,0,-0.0006789160543121397,0.0005300237098708749,0.0003966934746131301,0.19454161822795868,-0.24509452283382416,-9.85694408416748,0,0,50.698001861572266,1,1,195,196
712.77869200,712778692,0,-0.0007622512639500201,6.0700534959323704e-05,0.0002747968246694654,0.19452716410160065,-0.2450784146785736,-9.857067108154297,0,0,50.698001861572266,1,1,195,196
712.78920200,712789202,0,-0.0007574299816042185,-0.0003583871584851295,9.235208563040942e-05,0.19451770186424255,-0.24503092467784882,-9.857190132141113,0,0,50.698001861572266,1,1,195,196
712.79849300,712798493,0,-0.0005534383235499263,-0.0007232622010633349,-0.00013561034575104713,0.1944708377122879,-0.2449486255645752,-9.857276916503906,0,0,50.698001861572266,1,1,195,196
712.80875600,712808756,0,-0.000294623663648963,-0.0008320751949213445,-0.00023490494641009718,0.19436980783939362,-0.24482868611812592,-9.85733699798584,0,0,50.698001861572266,1,1,195,196
712.81900100,712819001,0,-0.00021879959967918694,-0.000586352834943682,-0.00014775063027627766,0.19422785937786102,-0.24466878175735474,-9.857388496398926,0,0,50.698001861572266,1,1,195,196
712.82901100,712829011,0,-0.0002980708668474108,-0.0001671589125180617,-4.1413783037569374e-05,0.194050133228302,-0.24446703493595123,-9.857410430908203,0,0,50.698001861572266,1,1,195,196
