timestamp,TimeUS,I,GyrX,GyrY,GyrZ,AccX,AccY,AccZ,EG,EA,T,GH,AH,GHz,AHz
695.71005300,695710053,0,-0.0058850860223174095,-0.0010067019611597061,0.0007893780129961669,0.45694786310195923,-0.3801276683807373,-9.856086730957031,0,0,45.18400192260742,1,1,257,269
695.71268000,695712680,0,-0.0071675595827400684,-0.0014323751674965024,0.0013470593839883804,0.45760995149612427,-0.37826845049858093,-9.856952667236328,0,0,45.18400192260742,1,1,257,269
695.71502400,695715024,0,-0.007213243283331394,-0.0015084468759596348,0.0010981367668136954,0.4575963616371155,-0.37637901306152344,-9.858112335205078,0,0,45.18400192260742,1,1,257,269
695.71770300,695717703,0,-0.006530731916427612,-0.0011670379899442196,0.0003801307175308466,0.45690780878067017,-0.37425270676612854,-9.859990119934082,0,0,45.18400192260742,1,1,257,269
695.71993100,695719931,0,-0.005706101190298796,-0.0004296590923331678,0.0007459689513780177,0.4561093747615814,-0.3737168312072754,-9.860568046569824,0,0,45.18400192260742,1,1,257,269
695.72268700,695722687,0,-0.005445539485663176,-0.00035153786302544177,0.001435249112546444,0.45529207587242126,-0.37344783544540405,-9.860797882080078,0,0,45.18400192260742,1,1,257,269
695.72498200,695724982,0,-0.005907352082431316,-0.001098270295187831,0.0013702220749109983,0.4541747272014618,-0.37334883213043213,-9.861330032348633,0,0,45.18400192260742,1,1,257,269
695.72769700,695727697,0,-0.006417499389499426,-0.0013139201328158379,0.0008504683501087129,0.45387256145477295,-0.37335091829299927,-9.862034797668457,0,0,45.18400192260742,1,1,257,269
695.73001200,695730012,0,-0.006683282554149628,-0.0012611462734639645,0.0007678746478632092,0.45423898100852966,-0.37367862462997437,-9.862630844116211,0,0,45.18400192260742,1,1,257,269
695.73280100,695732801,0,-0.006053769029676914,-0.0012040199944749475,0.0012598169269040227,0.4556120038032532,-0.37410038709640503,-9.862541198730469,0,0,45.18400192260742,1,1,257,269
695.73503400,695735034,0,-0.005266495514661074,-0.0007743517635390162,0.0010825821664184332,0.4565223455429077,-0.374864399433136,-9.861740112304688,0,0,45.18400192260742,1,1,257,269
695.73787800,695737878,0,-0.005104847718030214,-0.0005578076234087348,0.00027973507530987263,0.4574436545372009,-0.3762815594673157,-9.86178207397461,0,0,45.18400192260742,1,1,257,269
695.74002400,695740024,0,-0.005262110847979784,-0.0015487978234887123,3.245059269829653e-05,0.45925626158714294,-0.3791898787021637,-9.86170482635498,0,0,45.18400192260742,1,1,257,269
695.74262800,695742628,0,-0.005241157487034798,-0.0025253095664083958,-3.7175781471887603e-05,0.4600791037082672,-0.381222128868103,-9.862045288085938,0,0,45.18400192260742,1,1,257,269
695.74494300,695744943,0,-0.005572332069277763,-0.002461695345118642,0.0007707312470301986,0.4609103500843048,-0.38267987966537476,-9.86275577545166,0,0,45.18400192260742,1,1,257,269
695.74770600,695747706,0,-0.005267206579446793,-0.0017150690546259284,0.0014838352799415588,0.4615577459335327,-0.3836820721626282,-9.863017082214355,0,0,45.18400192260742,1,1,257,269
695.74994000,695749940,0,-0.004962161183357239,0.00011743391223717481,0.0020173233933746815,0.46255984902381897,-0.38457128405570984,-9.863142013549805,0,0,45.18400192260742,1,1,257,269
695.75272900,695752729,0,-0.00480955746024847,0.0003913419786840677,0.002031977754086256,0.4633800685405731,-0.3846937417984009,-9.863513946533203,0,0,45.18400192260742,1,1,257,269
695.75494500,695754945,0,-0.004277691710740328,-0.0007060305797494948,0.0015017405385151505,0.4641568064689636,-0.38497814536094666,-9.864380836486816,0,0,45.18400192260742,1,1,257,269
695.75782000,695757820,0,-0.00376522121950984,-0.001273651490919292,0.0011566667817533016,0.46422290802001953,-0.3850562572479248,-9.865363121032715,0,0,45.18400192260742,1,1,257,269
695.75998500,695759985,0,-0.0035627251490950584,-0.0015414492227137089,0.00080123171210289,0.4640905559062958,-0.38563072681427,-9.866442680358887,0,0,45.18400192260742,1,1,257,269
695.76270200,695762702,0,-0.0037011061795055866,-0.0014248753432184458,0.0003195978351868689,0.4632139503955841,-0.3867539167404175,-9.867208480834961,0,0,45.18400192260742,1,1,257,269
695.76500800,695765008,0,-0.003991997800767422,-0.0009463431197218597,-0.00025860214373096824,0.46215206384658813,-0.3874255120754242,-9.867060661315918,0,0,45.18400192260742,1,1,257,269
695.76760300,695767603,0,-0.004579775035381317,-0.0009850068017840385,-0.0002615595003589988,0.46091145277023315,-0.38841792941093445,-9.865764617919922,0,0,45.18400192260742,1,1,257,269
695.76999600,695769996,0,-0.005638017784804106,-0.0007808689842931926,-0.0006618851330131292,0.4603152275085449,-0.38937482237815857,-9.864910125732422,0,0,45.18400192260742,1,1,257,269
695.77265600,695772656,0,-0.006850632838904858,-0.0007367568905465305,-0.0006767084705643356,0.45938533544540405,-0.3901976943016052,-9.864449501037598,0,0,45.18400192260742,1,1,257,269
695.77493900,695774939,0,-0.007341032847762108,-0.00012402927677612752,-0.00035111233592033386,0.45760414004325867,-0.39052096009254456,-9.864017486572266,0,0,45.18400192260742,1,1,257,269
695.77765700,695777657,0,-0.006644079927355051,-0.00017483618285041302,-0.00023489429440815002,0.45470550656318665,-0.3907685875892639,-9.862377166748047,0,0,45.18400192260742,1,1,257,269
695.77993900,695779939,0,-0.0055043562315404415,-0.0008024370763450861,-2.4562426915508695e-05,0.45335185527801514,-0.3909386992454529,-9.86076545715332,0,0,45.18400192260742,1,1,257,269
695.78266800,695782668,0,-0.005006265826523304,-0.0015220979694277048,0.0007090725121088326,0.45155322551727295,-0.3909141719341278,-9.85897445678711,0,0,45.18400192260742,1,1,257,269
695.78497900,695784979,0,-0.005068126134574413,-0.001557107432745397,0.0009505925117991865,0.4511395990848541,-0.39083555340766907,-9.858600616455078,0,0,45.18400192260742,1,1,257,269
695.78766000,695787660,0,-0.005136025603860617,-0.0024615104775875807,0.0011093545472249389,0.45063304901123047,-0.3901436924934387,-9.857994079589844,0,0,45.18400192260742,1,1,257,269
695.78999800,695789998,0,-0.004905716981738806,-0.0025826378259807825,0.0010443405481055379,0.45044219493865967,-0.3897690773010254,-9.858060836791992,0,0,45.18400192260742,1,1,257,269
695.79268700,695792687,0,-0.0040984912775456905,-0.001959125278517604,0.0007323535392060876,0.45051196217536926,-0.38977721333503723,-9.857982635498047,0,0,45.176002502441406,1,1,257,269
695.79499000,695794990,0,-0.0036019368562847376,-0.0004828986420761794,0.0009651202708482742,0.45088666677474976,-0.3900769352912903,-9.857258796691895,0,0,45.176002502441406,1,1,257,269
695.79760700,695797607,0,-0.003728260286152363,-5.674274234479526e-06,0.00132317456882447,0.4507436752319336,-0.39024817943573,-9.856756210327148,0,0,45.176002502441406,1,1,257,269
695.79998700,695799987,0,-0.00429514329880476,5.846760541317053e-05,0.001329168793745339,0.4502164423465729,-0.390016108751297,-9.856852531433105,0,0,45.176002502441406,1,1,257,269
695.80275700,695802757,0,-0.004365289583802223,-0.00019797841378021985,0.001003013108856976,0.4499548077583313,-0.38979390263557434,-9.85718822479248,0,0,45.176002502441406,1,1,257,269
695.80515700,695805157,0,-0.0037117551546543837,-0.0007866921951062977,-0.0005172273376956582,0.44895997643470764,-0.389495849609375,-9.858811378479004,0,0,45.176002502441406,1,1,257,269
695.80753800,695807538,0,-0.0036011638585478067,-0.0010653735371306539,-0.00046393711818382144,0.44888466596603394,-0.38942432403564453,-9.85900592803955,0,0,45.176002502441406,1,1,257,269
695.81009400,695810094,0,-0.004323011264204979,-0.0004643342981580645,0.0007358329021371901,0.4505702257156372,-0.38925766944885254,-9.859477996826172,0,0,45.176002502441406,1,1,257,269
695.81256800,695812568,0,-0.00444675562903285,-0.0003538768505677581,0.001081339200027287,0.4511806070804596,-0.389399915933609,-9.859439849853516,0,0,45.176002502441406,1,1,257,269
695.81547000,695815470,0,-0.00453988928347826,-0.0005562111618928611,0.0017366628162562847,0.45214927196502686,-0.3898147940635681,-9.859274864196777,0,0,45.176002502441406,1,1,257,269
695.81767800,695817678,0,-0.005396445281803608,-0.0014438916696235538,0.001475412747822702,0.4544467329978943,-0.3911692202091217,-9.859572410583496,0,0,45.176002502441406,1,1,257,269
695.82002300,695820023,0,-0.005301211029291153,-0.0014316169545054436,0.0011358631309121847,0.4548903703689575,-0.39167389273643494,-9.859708786010742,0,0,45.176002502441406,1,1,257,269
695.82261800,695822618,0,-0.005252775736153126,-0.00015524966875091195,0.00029114741482771933,0.4556604027748108,-0.39283138513565063,-9.85981273651123,0,0,45.176002502441406,1,1,257,269
695.82503000,695825030,0,-0.0057093254290521145,0.0002858522057067603,-9.660940850153565e-05,0.4557494819164276,-0.39307868480682373,-9.859878540039062,0,0,45.176002502441406,1,1,257,269
695.82764900,695827649,0,-0.006802760064601898,0.0009446697076782584,-0.00028287104214541614,0.4562857449054718,-0.3931382894515991,-9.86013126373291,0,0,45.176002502441406,1,1,257,269
695.82996200,695829962,0,-0.0076914275996387005,0.00047910906141623855,0.00025294203078374267,0.4572621285915375,-0.39282935857772827,-9.860112190246582,0,0,45.176002502441406,1,1,257,269
695.83284100,695832841,0,-0.007314380723983049,4.239208283252083e-05,0.0004484449455048889,0.45895999670028687,-0.39174503087997437,-9.860445976257324,0,0,45.176002502441406,1,1,257,269
695.83492100,695834921,0,-0.0060018436051905155,-0.00010856467997655272,0.00023302076442632824,0.46012911200523376,-0.39052557945251465,-9.861039161682129,0,0,45.176002502441406,1,1,257,269
695.83787500,695837875,0,-0.004830587189644575,-0.0004993710317648947,2.1535328414756805e-05,0.4609336853027344,-0.38954946398735046,-9.861084938049316,0,0,45.176002502441406,1,1,257,269
695.83991800,695839918,0,-0.004657943267375231,-0.0006213034503161907,0.000778198940679431,0.46154701709747314,-0.3888256549835205,-9.860639572143555,0,0,45.176002502441406,1,1,257,269
695.84270800,695842708,0,-0.0047573186457157135,-0.00028227304574102163,0.0010653880890458822,0.46189144253730774,-0.3881864547729492,-9.860095024108887,0,0,45.176002502441406,1,1,257,269
695.84501600,695845016,0,-0.005373718217015266,-0.0003329401952214539,0.0009640614152885973,0.46147844195365906,-0.3879237473011017,-9.860091209411621,0,0,45.176002502441406,1,1,257,269
695.84770300,695847703,0,-0.005095876287668943,-0.0007160360109992325,0.001015306799672544,0.4602043628692627,-0.3885796368122101,-9.86154556274414,0,0,45.176002502441406,1,1,257,269
695.85002100,695850021,0,-0.004473645705729723,-0.0008505529258400202,0.001789703732356429,0.459052175283432,-0.38892051577568054,-9.86233139038086,0,0,45.176002502441406,1,1,257,269
695.85262600,695852626,0,-0.004267098847776651,-0.0005142046138644218,0.0018416030798107386,0.4574507474899292,-0.38888564705848694,-9.862053871154785,0,0,45.176002502441406,1,1,257,269
695.85500400,695855004,0,-0.004371612798422575,-0.0006726614665240049,0.0014925890136510134,0.4554968774318695,-0.3890773355960846,-9.86084270477295,0,0,45.176002502441406,1,1,257,269
695.85761000,695857610,0,-0.004173410590738058,-0.0010594422928988934,0.001523710903711617,0.45446258783340454,-0.38940227031707764,-9.860475540161133,0,0,45.176002502441406,1,1,257,269
695.85993800,695859938,0,-0.004231896251440048,-0.000845635193400085,0.0020158267579972744,0.45340070128440857,-0.39000144600868225,-9.861233711242676,0,0,45.176002502441406,1,1,257,269
695.86265300,695862653,0,-0.004431225825101137,-0.0008017811924219131,0.0026868460699915886,0.4528951942920685,-0.3902038037776947,-9.862518310546875,0,0,45.176002502441406,1,1,257,269
695.86493400,695864934,0,-0.004571770317852497,-0.0013667274033650756,0.0025341606233268976,0.4522591829299927,-0.3897857367992401,-9.863694190979004,0,0,45.15800094604492,1,1,257,269
695.86764900,695867649,0,-0.004522883798927069,-0.0017850531730800867,0.0021036991383880377,0.45191746950149536,-0.3897092938423157,-9.864087104797363,0,0,45.15800094604492,1,1,257,269
695.86993700,695869937,0,-0.0037706256844103336,-0.001660453504882753,0.0010282612638548017,0.4516235589981079,-0.39020827412605286,-9.863588333129883,0,0,45.15800094604492,1,1,257,269
695.87267000,695872670,0,-0.003939144778996706,-0.0017458696383982897,0.00021323795954231173,0.45115143060684204,-0.3908618092536926,-9.862772941589355,0,0,45.15800094604492,1,1,257,269
695.87494400,695874944,0,-0.004324030131101608,-0.00136086146812886,0.0009367701131850481,0.45082002878189087,-0.39147627353668213,-9.862479209899902,0,0,45.15800094604492,1,1,257,269
695.87766300,695877663,0,-0.003928620833903551,-0.0004328888317104429,0.0012908898061141372,0.45084521174430847,-0.3917452394962311,-9.862749099731445,0,0,45.15800094604492,1,1,257,269
695.87999300,695879993,0,-0.004454080481082201,-0.00044150868779979646,0.001316978596150875,0.45112600922584534,-0.39212989807128906,-9.862332344055176,0,0,45.15800094604492,1,1,257,269
695.88264900,695882649,0,-0.00542484549805522,-0.00028846869827248156,0.0015994732966646552,0.45157405734062195,-0.39241668581962585,-9.86111831665039,0,0,45.15800094604492,1,1,257,269
695.88499600,695884996,0,-0.005212260875850916,-0.0005192629178054631,0.0013161193346604705,0.4528351426124573,-0.3933058977127075,-9.858611106872559,0,0,45.15800094604492,1,1,257,269
695.88759200,695887592,0,-0.0042968313209712505,-0.0011568544432520866,0.0010414953576400876,0.4530026614665985,-0.39393436908721924,-9.857248306274414,0,0,45.15800094604492,1,1,257,269
695.88999100,695889991,0,-0.004076842684298754,-0.0014316276647150517,0.0014423648826777935,0.4530283212661743,-0.39425137639045715,-9.856339454650879,0,0,45.15800094604492,1,1,257,269
695.89265400,695892654,0,-0.004464152734726667,-0.0013811980606988072,0.001665067975409329,0.4532797932624817,-0.39411619305610657,-9.855998992919922,0,0,45.15800094604492,1,1,257,269
695.89515600,695895156,0,-0.005976073443889618,-0.0008440673700533807,0.001365631353110075,0.4544212222099304,-0.39324578642845154,-9.855024337768555,0,0,45.15800094604492,1,1,257,269
695.89749100,695897491,0,-0.006388016045093536,-0.00023631226213183254,0.0012083954643458128,0.4561171233654022,-0.3929772973060608,-9.853781700134277,0,0,45.15800094604492,1,1,257,269
695.90023600,695900236,0,-0.006065418943762779,-0.0004954396281391382,0.0013480279594659805,0.45770296454429626,-0.3926718831062317,-9.852972030639648,0,0,45.15800094604492,1,1,257,269
695.90257600,695902576,0,-0.006884661503136158,-0.0009985913056880236,0.0012309084413573146,0.45941001176834106,-0.39165616035461426,-9.852055549621582,0,0,45.15800094604492,1,1,257,269
695.90510400,695905104,0,-0.007032354362308979,-0.0015922373859211802,0.0013374713016673923,0.4596806764602661,-0.39069342613220215,-9.851667404174805,0,0,45.15800094604492,1,1,257,269
695.90749300,695907493,0,-0.006375980097800493,-0.001814153860323131,0.0013525924878194928,0.4597265422344208,-0.38896459341049194,-9.852203369140625,0,0,45.15800094604492,1,1,257,269
695.91013000,695910130,0,-0.0058885617181658745,-0.0017400812357664108,0.001764331478625536,0.4598044455051422,-0.38843777775764465,-9.852693557739258,0,0,45.15800094604492,1,1,257,269
695.91268600,695912686,0,-0.003702310612425208,-0.0017270395765081048,0.002338825026527047,0.459881991147995,-0.38814079761505127,-9.854391098022461,0,0,45.15800094604492,1,1,257,269
695.91501700,695915017,0,-0.0033504320308566093,-0.0016615507192909718,0.0019447954837232828,0.45978522300720215,-0.38851845264434814,-9.854671478271484,0,0,45.15800094604492,1,1,257,269
695.91766300,695917663,0,-0.003662925213575363,-0.0012644127709791064,0.0008195043774321675,0.45880207419395447,-0.3908056318759918,-9.855501174926758,0,0,45.15800094604492,1,1,257,269
695.92001100,695920011,0,-0.003745908150449395,-0.0012656246544793248,0.0005856923526152968,0.4585426449775696,-0.3909537196159363,-9.855949401855469,0,0,45.15800094604492,1,1,257,269
695.92260500,695922605,0,-0.004066444933414459,-0.0016665927832946181,0.00020465596753638238,0.4573589265346527,-0.3909165561199188,-9.85792350769043,0,0,45.15800094604492,1,1,257,269
695.92501600,695925016,0,-0.004462081473320723,-0.00170858483761549,0.0003769409959204495,0.45713427662849426,-0.39104101061820984,-9.858210563659668,0,0,45.15800094604492,1,1,257,269
695.92764600,695927646,0,-0.005332876928150654,-0.0012719182996079326,0.0005310520064085722,0.4567316770553589,-0.3914990723133087,-9.858038902282715,0,0,45.15800094604492,1,1,257,269
695.92992500,695929925,0,-0.005350415129214525,-0.0006203692173585296,0.0005168511415831745,0.45654886960983276,-0.39173099398612976,-9.856836318969727,0,0,45.15800094604492,1,1,257,269
695.93278700,695932787,0,-0.005269348155707121,-0.00012475447147153318,0.0011634527472779155,0.45628800988197327,-0.39197948575019836,-9.85578441619873,0,0,45.15800094604492,1,1,257,269
695.93492000,695934920,0,-0.005058323498815298,-0.0005169446230866015,0.0011118149850517511,0.45631861686706543,-0.39191603660583496,-9.855802536010742,0,0,45.15800094604492,1,1,257,269
695.93787000,695937870,0,-0.004954110831022263,-5.981313006486744e-05,0.001015263726003468,0.4566720128059387,-0.3910284638404846,-9.85595703125,0,0,45.15800094604492,1,1,257,269
695.94009600,695940096,0,-0.0041300286538898945,-8.159982826327905e-05,0.0006636639591306448,0.45738980174064636,-0.38865748047828674,-9.855369567871094,0,0,45.16200256347656,1,1,257,269
695.94253000,695942530,0,-0.0038351009134203196,-0.00011848104622913525,0.0007506367401219904,0.45756325125694275,-0.388146311044693,-9.855019569396973,0,0,45.16200256347656,1,1,257,269
695.94514300,695945143,0,-0.003885591635480523,-0.0005810704897157848,0.001345782307907939,0.45770955085754395,-0.38762858510017395,-9.854049682617188,0,0,45.16200256347656,1,1,257,269
695.94747400,695947474,0,-0.0044079795479774475,-0.0010568334255367517,0.0018044105963781476,0.45770320296287537,-0.38775792717933655,-9.853646278381348,0,0,45.16200256347656,1,1,257,269
695.95017500,695950175,0,-0.005111694801598787,-0.002262369729578495,0.0018681351793929935,0.45741191506385803,-0.38812047243118286,-9.854904174804688,0,0,45.16200256347656,1,1,257,269
695.95246400,695952464,0,-0.005395372863858938,-0.0024247232358902693,0.001010621665045619,0.4566103219985962,-0.3880125880241394,-9.856508255004883,0,0,45.16200256347656,1,1,257,269
695.95517100,695955171,0,-0.005241017322987318,-0.00173558306414634,-0.0001453998702345416,0.45563191175460815,-0.38731878995895386,-9.857827186584473,0,0,45.16200256347656,1,1,257,269
695.95742600,695957426,0,-0.005485079251229763,-0.0012491634115576744,0.00017110799672082067,0.45543304085731506,-0.38707447052001953,-9.858805656433105,0,0,45.16200256347656,1,1,257,269
695.96017100,695960171,0,-0.00566515326499939,-0.0009141374030150473,0.0011681407922878861,0.4555874466896057,-0.3874366581439972,-9.860051155090332,0,0,45.16200256347656,1,1,257,269
695.96243500,695962435,0,-0.006029026582837105,-0.00018136741709895432,0.0006276321946643293,0.4556041955947876,-0.38752153515815735,-9.860733985900879,0,0,45.16200256347656,1,1,257,269
695.96517800,695965178,0,-0.0059562441892921925,3.163473593303934e-05,-7.336663202295313e-06,0.4554269015789032,-0.38754239678382874,-9.862281799316406,0,0,45.16200256347656,1,1,257,269
695.96749000,695967490,0,-0.0055024889297783375,-0.0002331298601347953,-0.0002104408195009455,0.4548119604587555,-0.38726747035980225,-9.864466667175293,0,0,45.16200256347656,1,1,257,269
695.97016700,695970167,0,-0.004980454687029123,1.7467280486016534e-05,-4.46472768089734e-06,0.453763872385025,-0.3873654007911682,-9.865928649902344,0,0,45.16200256347656,1,1,257,269
695.97250800,695972508,0,-0.0038839636836200953,0.0005344299133867025,-1.104377497540554e-05,0.45309823751449585,-0.3881443440914154,-9.866548538208008,0,0,45.16200256347656,1,1,257,269
695.97510300,695975103,0,-0.0035443948581814766,0.0004590764583554119,0.00035631482023745775,0.4529534876346588,-0.38886740803718567,-9.866247177124023,0,0,45.16200256347656,1,1,257,269
695.97747800,695977478,0,-0.0035918112844228745,-0.00041089855949394405,0.0007930744322948158,0.4531908929347992,-0.3891885578632355,-9.865569114685059,0,0,45.16200256347656,1,1,257,269
695.98010400,695980104,0,-0.004036265891045332,-0.0010269751073792577,0.0011039669625461102,0.45335620641708374,-0.38917481899261475,-9.865189552307129,0,0,45.16200256347656,1,1,257,269
695.98243100,695982431,0,-0.0042458223178982735,-0.0010345180053263903,0.0014097786042839289,0.45296645164489746,-0.38888034224510193,-9.864950180053711,0,0,45.16200256347656,1,1,257,269
695.98515400,695985154,0,-0.004341418854892254,-0.000981587334536016,0.0014527121093124151,0.4525935649871826,-0.38829004764556885,-9.863382339477539,0,0,45.16200256347656,1,1,257,269
695.98748400,695987484,0,-0.004508777987211943,-0.0010882363421842456,0.00037984835216775537,0.452639102935791,-0.388089120388031,-9.861898422241211,0,0,45.16200256347656,1,1,257,269
695.99019600,695990196,0,-0.0047208997420966625,-0.0016520592616871,-0.0011117173125967383,0.4527939260005951,-0.38768911361694336,-9.860880851745605,0,0,45.16200256347656,1,1,257,269
695.99251700,695992517,0,-0.004872343502938747,-0.0016664443537592888,-0.0017542216228321195,0.45338016748428345,-0.38658109307289124,-9.859879493713379,0,0,45.16200256347656,1,1,257,269
695.99514300,695995143,0,-0.004959787242114544,-0.0014942452544346452,-0.0010070414282381535,0.45358893275260925,-0.3857896327972412,-9.859682083129883,0,0,45.16200256347656,1,1,257,269
695.99748900,695997489,0,-0.0050825742073357105,-0.000881736574228853,0.0004453965520951897,0.45400193333625793,-0.38453835248947144,-9.860108375549316,0,0,45.16200256347656,1,1,257,269
696.00009600,696000096,0,-0.0042906408198177814,0.00018310180166736245,0.0013574158074334264,0.45434805750846863,-0.3833238482475281,-9.86026382446289,0,0,45.16200256347656,1,1,257,269
696.00256600,696002566,0,-0.0029899775981903076,0.0008658019942231476,0.0017742497147992253,0.45448917150497437,-0.3817223310470581,-9.85963249206543,0,0,45.16200256347656,1,1,257,269
696.00514100,696005141,0,-0.0028929864056408405,0.0009983991039916873,0.0017944112187251449,0.4545917212963104,-0.3813245892524719,-9.859245300292969,0,0,45.16200256347656,1,1,257,269
696.00764600,696007646,0,-0.005554277915507555,0.0008886930299922824,0.0027616992592811584,0.4556798040866852,-0.38041257858276367,-9.85773754119873,0,0,45.16200256347656,1,1,257,269
696.01002400,696010024,0,-0.006007390096783638,0.0007284153834916651,0.0029439011123031378,0.45606428384780884,-0.38058993220329285,-9.857633590698242,0,0,45.16200256347656,1,1,257,269
696.01268000,696012680,0,-0.006004059221595526,0.00019609912123996764,0.002878804923966527,0.4572853147983551,-0.38242727518081665,-9.857771873474121,0,0,45.18600082397461,1,1,257,269
696.01499600,696014996,0,-0.005548234097659588,-0.00010974961332976818,0.0028564620297402143,0.4581609070301056,-0.3831014931201935,-9.85686206817627,0,0,45.18600082397461,1,1,257,269
696.01783800,696017838,0,-0.005287356209009886,-0.00033262005308642983,0.0031673498451709747,0.45797112584114075,-0.3827461302280426,-9.855918884277344,0,0,45.18600082397461,1,1,257,269
696.01998700,696019987,0,-0.005846789572387934,-0.0010300768772140145,0.0024686334654688835,0.4577987790107727,-0.38248521089553833,-9.853915214538574,0,0,45.18600082397461,1,1,257,269
696.02263300,696022633,0,-0.006118239834904671,-0.001367892138659954,0.001774015137925744,0.4578266441822052,-0.38267725706100464,-9.853334426879883,0,0,45.18600082397461,1,1,257,269
696.02516000,696025160,0,-0.006382196210324764,-0.0010373893892392516,0.0008739389013499022,0.4576995372772217,-0.38374724984169006,-9.852639198303223,0,0,45.18600082397461,1,1,257,269
696.02752100,696027521,0,-0.006586897186934948,-0.0008057514787651598,0.0007480831700377166,0.45797213912010193,-0.3839429020881653,-9.852614402770996,0,0,45.18600082397461,1,1,257,269
696.03015300,696030153,0,-0.006317913066595793,-0.00018350976461078972,0.0004131015157327056,0.4592016935348511,-0.38352468609809875,-9.852251052856445,0,0,45.18600082397461,1,1,257,269
696.03263300,696032633,0,-0.006234082859009504,-3.113106868113391e-05,0.0005897864466533065,0.4593903720378876,-0.38315993547439575,-9.85215950012207,0,0,45.18600082397461,1,1,257,269
696.03534100,696035341,0,-0.005425747018307447,6.335104262689129e-05,0.0009654447203502059,0.46059492230415344,-0.3814827501773834,-9.851890563964844,0,0,45.18600082397461,1,1,257,269
696.03752000,696037520,0,-0.0051923952996730804,-0.00032926362473517656,0.0013078454649075866,0.46111395955085754,-0.38112348318099976,-9.851704597473145,0,0,45.18600082397461,1,1,257,269
696.04013300,696040133,0,-0.004760706797242165,-0.00013176830543670803,0.0018102312460541725,0.4622379541397095,-0.3799898028373718,-9.851888656616211,0,0,45.18600082397461,1,1,257,269
696.04244900,696042449,0,-0.004222722724080086,0.00033312529558315873,0.001861654338426888,0.4623778164386749,-0.3789307773113251,-9.852764129638672,0,0,45.18600082397461,1,1,257,269
696.04528200,696045282,0,-0.004924433771520853,0.00020421569934114814,0.001823838916607201,0.4618794620037079,-0.3779047131538391,-9.853741645812988,0,0,45.18600082397461,1,1,257,269
696.04747300,696047473,0,-0.006110576447099447,-0.000345156789990142,0.0017923538107424974,0.46116429567337036,-0.3770662844181061,-9.854537963867188,0,0,45.18600082397461,1,1,257,269
696.05018200,696050182,0,-0.0065093678422272205,-0.0008496498921886086,0.0012750464957207441,0.46098488569259644,-0.37649786472320557,-9.855072021484375,0,0,45.18600082397461,1,1,257,269
696.05254700,696052547,0,-0.006006607320159674,-0.0012551068793982267,0.0006448350031860173,0.4603091776371002,-0.3761533796787262,-9.855767250061035,0,0,45.18600082397461,1,1,257,269
696.05515700,696055157,0,-0.005839395336806774,-0.0017493391642346978,0.00016178640362340957,0.4596998989582062,-0.37563398480415344,-9.856759071350098,0,0,45.18600082397461,1,1,257,269
696.05752900,696057529,0,-0.006054629106074572,-0.001633104751817882,0.0003670831210911274,0.45946723222732544,-0.3748869299888611,-9.858253479003906,0,0,45.18600082397461,1,1,257,269
696.06008800,696060088,0,-0.0057375202886760235,-0.0008748825057409704,0.0013828614028170705,0.4593966007232666,-0.3744925856590271,-9.859469413757324,0,0,45.18600082397461,1,1,257,269
696.06251900,696062519,0,-0.0051317596808075905,0.0002446587022859603,0.00189774704631418,0.45886725187301636,-0.374714732170105,-9.860917091369629,0,0,45.18600082397461,1,1,257,269
696.06509600,696065096,0,-0.005270055960863829,0.00030175852589309216,0.0024951270315796137,0.4588091969490051,-0.37590959668159485,-9.86152458190918,0,0,45.18600082397461,1,1,257,269
696.06751900,696067519,0,-0.0055341520346701145,-0.0005402961396612227,0.0032648309133946896,0.45892593264579773,-0.3781983554363251,-9.862898826599121,0,0,45.18600082397461,1,1,257,269
696.07012300,696070123,0,-0.006035797297954559,-0.0012495731934905052,0.0035288247745484114,0.45867377519607544,-0.3796394169330597,-9.864285469055176,0,0,45.18600082397461,1,1,257,269
696.07246300,696072463,0,-0.006155936047434807,-0.0011639437871053815,0.0027104681357741356,0.4582566022872925,-0.38108134269714355,-9.865896224975586,0,0,45.18600082397461,1,1,257,269
696.07518400,696075184,0,-0.006017372477799654,-0.0003550542751327157,0.0021380071993917227,0.4578736424446106,-0.38279277086257935,-9.86681079864502,0,0,45.18600082397461,1,1,257,269
696.07742400,696077424,0,-0.005049591418355703,4.390044341562316e-05,0.0018792175687849522,0.4578949511051178,-0.3845866322517395,-9.866618156433105,0,0,45.18600082397461,1,1,257,269
696.08018800,696080188,0,-0.004294470883905888,-0.00020056076755281538,0.0013206936419010162,0.45800143480300903,-0.3852863907814026,-9.865986824035645,0,0,45.18600082397461,1,1,257,269
696.08244000,696082440,0,-0.004123957362025976,-0.000800335721578449,0.0013726165052503347,0.4586585760116577,-0.38547492027282715,-9.865057945251465,0,0,45.18600082397461,1,1,257,269
696.08518300,696085183,0,-0.004238312132656574,-0.0012145633809268475,0.00128568010404706,0.45902135968208313,-0.38560447096824646,-9.864871978759766,0,0,45.18600082397461,1,1,257,269
696.08744600,696087446,0,-0.003672846360132098,-0.001425287569873035,0.0006647486588917673,0.4594495892524719,-0.38612791895866394,-9.864930152893066,0,0,45.167999267578125,1,1,257,269
696.09010200,696090102,0,-0.003388136625289917,-0.001422259141691029,0.00021284143440425396,0.4596197307109833,-0.3868182897567749,-9.864295959472656,0,0,45.167999267578125,1,1,257,269
696.09256200,696092562,0,-0.0036934828385710716,-0.0011710115941241384,-0.0001959567453013733,0.4596056044101715,-0.3881572186946869,-9.862972259521484,0,0,45.167999267578125,1,1,257,269
696.09514100,696095141,0,-0.00398043030872941,-0.0013079295167699456,-0.0006966004148125648,0.45984911918640137,-0.3900032639503479,-9.860041618347168,0,0,45.167999267578125,1,1,257,269
696.09742900,696097429,0,-0.004028965253382921,-0.001386440359055996,-0.0005410668672993779,0.46019741892814636,-0.3908762037754059,-9.858202934265137,0,0,45.167999267578125,1,1,257,269
696.10015000,696100150,0,-0.00442529795691371,-0.0013628812739625573,0.00041295000119134784,0.45958569645881653,-0.39168626070022583,-9.856215476989746,0,0,45.167999267578125,1,1,257,269
696.10250600,696102506,0,-0.004939682316035032,-0.0011532596545293927,0.001813288195990026,0.4588262438774109,-0.39141809940338135,-9.855417251586914,0,0,45.167999267578125,1,1,257,269
696.10516700,696105167,0,-0.004747853614389896,-0.0013233741046860814,0.002587853232398629,0.4585845470428467,-0.3914654850959778,-9.854360580444336,0,0,45.167999267578125,1,1,257,269
696.10745900,696107459,0,-0.00498981075361371,-0.001000722637400031,0.002196795539930463,0.458569198846817,-0.3915693461894989,-9.853638648986816,0,0,45.167999267578125,1,1,257,269
696.11015200,696110152,0,-0.005690476391464472,-0.0008474832284264266,0.002047190675511956,0.4578850567340851,-0.3909558951854706,-9.8515043258667,0,0,45.167999267578125,1,1,257,269
696.11250900,696112509,0,-0.0058799022808671,-0.00080128014087677,0.0016202235128730536,0.45761939883232117,-0.3906334340572357,-9.851134300231934,0,0,45.167999267578125,1,1,257,269
696.11515300,696115153,0,-0.007166411727666855,-9.406949538970366e-05,0.00032241331064142287,0.45740723609924316,-0.39035657048225403,-9.851404190063477,0,0,45.167999267578125,1,1,257,269
696.11749100,696117491,0,-0.007110650651156902,0.00014974635269027203,-0.0002977919939439744,0.4569694399833679,-0.38976433873176575,-9.852225303649902,0,0,45.167999267578125,1,1,257,269
696.12011800,696120118,0,-0.006158160511404276,0.0002613737597130239,-0.0010838824091479182,0.45664235949516296,-0.3888861835002899,-9.85234546661377,0,0,45.167999267578125,1,1,257,269
696.12248900,696122489,0,-0.0054330527782440186,-0.0007452068384736776,-0.0016090953722596169,0.4567122161388397,-0.38781866431236267,-9.851725578308105,0,0,45.167999267578125,1,1,257,269
696.12510100,696125101,0,-0.004982175771147013,-0.0013634493807330728,-0.001122061163187027,0.457156777381897,-0.38777485489845276,-9.851210594177246,0,0,45.167999267578125,1,1,257,269
696.12744200,696127442,0,-0.004609276540577412,-0.0014622369781136513,-0.001253769500181079,0.45791229605674744,-0.38798001408576965,-9.85208797454834,0,0,45.167999267578125,1,1,257,269
696.13018400,696130184,0,-0.004283897578716278,-0.0014232463436201215,-0.0012686968548223376,0.4579069912433624,-0.38800638914108276,-9.852895736694336,0,0,45.167999267578125,1,1,257,269
696.13271200,696132712,0,-0.003996734973043203,-0.0008228670922107995,-0.0011237500002607703,0.4575418531894684,-0.38833123445510864,-9.85561752319336,0,0,45.167999267578125,1,1,257,269
696.13493900,696134939,0,-0.004031030461192131,-6.842378934379667e-05,0.00011352998262736946,0.45833614468574524,-0.3896530270576477,-9.856583595275879,0,0,45.167999267578125,1,1,257,269
696.13785100,696137851,0,-0.0039013854693621397,-1.0865191143238917e-05,0.0009492518147453666,0.45899903774261475,-0.3902648687362671,-9.856593132019043,0,0,45.167999267578125,1,1,257,269
696.14009700,696140097,0,-0.0033130578231066465,-1.4925293726264499e-05,0.0017768415855243802,0.46211564540863037,-0.3934168517589569,-9.856246948242188,0,0,45.167999267578125,1,1,257,269
696.14252500,696142525,0,-0.003367883386090398,-0.00046380230924114585,0.001433849218301475,0.4628451466560364,-0.3942883610725403,-9.856473922729492,0,0,45.167999267578125,1,1,257,269
696.14512100,696145121,0,-0.0038566540461033583,-0.000563234556466341,0.000992770423181355,0.4643799066543579,-0.3960067629814148,-9.857775688171387,0,0,45.167999267578125,1,1,257,269
696.14744800,696147448,0,-0.003773400792852044,-0.0005401435773819685,0.0010740377474576235,0.46483147144317627,-0.39628663659095764,-9.858482360839844,0,0,45.167999267578125,1,1,257,269
696.15017800,696150178,0,-0.004192262887954712,0.00011643661127891392,0.0011974319349974394,0.4648132622241974,-0.3963761329650879,-9.858864784240723,0,0,45.167999267578125,1,1,257,269
696.15262800,696152628,0,-0.004001042805612087,0.00045825488632544875,-0.00017614863463677466,0.46437227725982666,-0.3961842656135559,-9.858336448669434,0,0,45.167999267578125,1,1,257,269
696.15501100,696155011,0,-0.0040021492168307304,0.0005504008731804788,-0.0004307817143853754,0.4641261398792267,-0.39595359563827515,-9.857810974121094,0,0,45.167999267578125,1,1,257,269
696.15764200,696157642,0,-0.004348353017121553,0.00030469236662611365,-0.00030538917053490877,0.4635457396507263,-0.395192414522171,-9.856805801391602,0,0,45.167999267578125,1,1,257,269
696.15992700,696159927,0,-0.004062827210873365,-0.00026265447377227247,0.0008474770584143698,0.4625281095504761,-0.3942292630672455,-9.856694221496582,0,0,45.167999267578125,1,1,257,269
696.16268800,696162688,0,-0.003999747335910797,-0.0008659407030791044,0.00140759302303195,0.4606907367706299,-0.3926646113395691,-9.85826301574707,0,0,45.16600036621094,1,1,257,269
696.16492000,696164920,0,-0.004613660275936127,-0.000892679556272924,0.001500803860835731,0.4595124125480652,-0.39190873503685,-9.85956859588623,0,0,45.16600036621094,1,1,257,269
696.16768900,696167689,0,-0.005145028233528137,-0.0009416452958248556,0.0014837648486718535,0.45760002732276917,-0.39097899198532104,-9.8605375289917,0,0,45.16600036621094,1,1,257,269
696.16992700,696169927,0,-0.005858615972101688,-0.0010124548571184278,0.001216820441186428,0.45641452074050903,-0.3903932571411133,-9.861091613769531,0,0,45.16600036621094,1,1,257,269
696.17272100,696172721,0,-0.006249922793358564,-0.0014426828129217029,0.0005825553671456873,0.45509323477745056,-0.38990941643714905,-9.863032341003418,0,0,45.16600036621094,1,1,257,269
696.17492200,696174922,0,-0.00623788358643651,-0.002125683007761836,0.00011920271936105564,0.45396849513053894,-0.3899257779121399,-9.865293502807617,0,0,45.16600036621094,1,1,257,269
696.17769300,696177693,0,-0.004795507062226534,-0.001732654869556427,0.0005828554276376963,0.4529246389865875,-0.3904862105846405,-9.867837905883789,0,0,45.16600036621094,1,1,257,269
696.18002100,696180021,0,-0.00405492726713419,-0.0010756601113826036,0.0007052175351418555,0.4516837000846863,-0.39116430282592773,-9.870006561279297,0,0,45.16600036621094,1,1,257,269
696.18269600,696182696,0,-0.004504320211708546,-0.0006166421808302402,0.0007909783744253218,0.44969233870506287,-0.3918715715408325,-9.871077537536621,0,0,45.16600036621094,1,1,257,269
696.18502700,696185027,0,-0.005134887062013149,-0.0007214955985546112,0.00045476065133698285,0.44881632924079895,-0.39210864901542664,-9.870744705200195,0,0,45.16600036621094,1,1,257,269
696.18771000,696187710,0,-0.005805708933621645,-0.0013700954150408506,-6.827928882557899e-05,0.4480355679988861,-0.3924247920513153,-9.870577812194824,0,0,45.16600036621094,1,1,257,269
696.18992700,696189927,0,-0.005693846847862005,-0.0018483638996258378,-0.0005004583508707583,0.4467424154281616,-0.39385685324668884,-9.870919227600098,0,0,45.16600036621094,1,1,257,269
696.19268200,696192682,0,-0.005012850277125835,-0.0015922473976388574,-0.0008359290659427643,0.4457049071788788,-0.3957052528858185,-9.871070861816406,0,0,45.16600036621094,1,1,257,269
696.19491700,696194917,0,-0.005715598352253437,-0.00019200464885216206,-0.00027531481464393437,0.4450697600841522,-0.3975587487220764,-9.871088027954102,0,0,45.16600036621094,1,1,257,269
696.19765900,696197659,0,-0.006140305195003748,-0.0003106993099208921,0.0004932338488288224,0.44503727555274963,-0.39868125319480896,-9.870766639709473,0,0,45.16600036621094,1,1,257,269
696.19992500,696199925,0,-0.005766136571764946,-0.001447007292881608,0.0007310124346986413,0.4454401135444641,-0.3990263342857361,-9.87021541595459,0,0,45.16600036621094,1,1,257,269
696.20274300,696202743,0,-0.005349356681108475,-0.0027310096193104982,0.00046512484550476074,0.44609323143959045,-0.39912235736846924,-9.870007514953613,0,0,45.16600036621094,1,1,257,269
696.20494200,696204942,0,-0.004813245497643948,-0.0035274848341941833,0.00012072019308106974,0.44648128747940063,-0.39934858679771423,-9.870560646057129,0,0,45.16600036621094,1,1,257,269
696.20770400,696207704,0,-0.004501501563936472,-0.0033039350528270006,0.00030700527713634074,0.44660434126853943,-0.39966490864753723,-9.87122917175293,0,0,45.16600036621094,1,1,257,269
696.20997400,696209974,0,-0.004219679161906242,-0.0023654806427657604,0.00044003615039400756,0.4468545913696289,-0.4002757966518402,-9.87110710144043,0,0,45.16600036621094,1,1,257,269
696.21273800,696212738,0,-0.0042301081120967865,-0.0018770177848637104,0.0003532039700075984,0.4472959637641907,-0.40110087394714355,-9.870713233947754,0,0,45.16600036621094,1,1,257,269
696.21498800,696214988,0,-0.0045776995830237865,-0.0022654591593891382,0.0007785485940985382,0.448961466550827,-0.4018891453742981,-9.870707511901855,0,0,45.16600036621094,1,1,257,269
696.21760100,696217601,0,-0.005052303429692984,-0.0025790431536734104,0.0010792923858389258,0.45008930563926697,-0.40138861536979675,-9.870760917663574,0,0,45.16600036621094,1,1,257,269
696.21999000,696219990,0,-0.004937708843499422,-0.0020356101449579,0.0011463012779131532,0.45059579610824585,-0.4002712368965149,-9.870790481567383,0,0,45.16600036621094,1,1,257,269
696.22263000,696222630,0,-0.004570430144667625,-0.0015466900076717138,0.0013287060428410769,0.4505650997161865,-0.4000385105609894,-9.870790481567383,0,0,45.16600036621094,1,1,257,269
696.22515800,696225158,0,-0.004209623206406832,-0.0010264011798426509,0.0018737249774858356,0.45068639516830444,-0.39959657192230225,-9.870589256286621,0,0,45.16600036621094,1,1,257,269
696.22751900,696227519,0,-0.003941380884498358,-0.0007119780639186502,0.0018594892462715507,0.4509848356246948,-0.39933016896247864,-9.870476722717285,0,0,45.16600036621094,1,1,257,269
696.23014800,696230148,0,-0.003365797456353903,-0.0012123783817514777,0.0013908979017287493,0.45117467641830444,-0.3984696865081787,-9.870550155639648,0,0,45.16600036621094,1,1,257,269
696.23259700,696232597,0,-0.003007442457601428,-0.001989002339541912,0.0009600728517398238,0.4502401351928711,-0.398981511592865,-9.871474266052246,0,0,45.16600036621094,1,1,257,269
696.23533000,696235330,0,-0.003118858439847827,-0.0023865492548793554,0.0005305653321556747,0.44983944296836853,-0.3997651934623718,-9.872791290283203,0,0,45.18000030517578,1,1,257,269
696.23749200,696237492,0,-0.0036053163930773735,-0.003131809877231717,0.00024374686472583562,0.44950538873672485,-0.40060287714004517,-9.874427795410156,0,0,45.18000030517578,1,1,257,269
696.24012400,696240124,0,-0.003826542990282178,-0.0029485151171684265,0.0002691763511393219,0.44963377714157104,-0.4006367325782776,-9.874350547790527,0,0,45.18000030517578,1,1,257,269
696.24266400,696242664,0,-0.0035790479741990566,-0.00248354091309011,0.000390481116482988,0.45076555013656616,-0.40065523982048035,-9.872736930847168,0,0,45.18000030517578,1,1,257,269
696.24502300,696245023,0,-0.0036257568281143904,-0.0027917916886508465,0.0006952380645088851,0.45128464698791504,-0.40080511569976807,-9.872159004211426,0,0,45.18000030517578,1,1,257,269
696.24765500,696247655,0,-0.0034235487692058086,-0.003873563837260008,0.0012572876876220107,0.4532966613769531,-0.40115219354629517,-9.870040893554688,0,0,45.18000030517578,1,1,257,269
696.25002000,696250020,0,-0.003506788518279791,-0.004063927568495274,0.0009138292516581714,0.45397433638572693,-0.40119442343711853,-9.869223594665527,0,0,45.18000030517578,1,1,257,269
696.25262000,696252620,0,-0.003421591129153967,-0.003912747371941805,0.0005342473741620779,0.4568466246128082,-0.40108492970466614,-9.866332054138184,0,0,45.18000030517578,1,1,257,269
696.25500600,696255006,0,-0.0036889449693262577,-0.003858993761241436,0.0008048375020734966,0.45748522877693176,-0.40114426612854004,-9.865509033203125,0,0,45.18000030517578,1,1,257,269
696.25763500,696257635,0,-0.004702500067651272,-0.004023001063615084,0.0019269565818831325,0.45971062779426575,-0.40141478180885315,-9.863356590270996,0,0,45.18000030517578,1,1,257,269
696.25993700,696259937,0,-0.005250248592346907,-0.0038390527479350567,0.0024660774506628513,0.46167007088661194,-0.40164971351623535,-9.862813949584961,0,0,45.18000030517578,1,1,257,269
696.26268000,696262680,0,-0.005854374263435602,-0.003828673157840967,0.0025211614556610584,0.4636976718902588,-0.4019363224506378,-9.862860679626465,0,0,45.18000030517578,1,1,257,269
696.26496000,696264960,0,-0.005702242720872164,-0.0037887480575591326,0.0020735282450914383,0.4651949107646942,-0.4019061326980591,-9.862801551818848,0,0,45.18000030517578,1,1,257,269
696.26767800,696267678,0,-0.005594064947217703,-0.002621415304020047,0.001189623144455254,0.46623384952545166,-0.40144166350364685,-9.862519264221191,0,0,45.18000030517578,1,1,257,269
696.27000600,696270006,0,-0.005498581565916538,-0.0012661482905969024,0.0012746306601911783,0.46698400378227234,-0.4005388021469116,-9.861571311950684,0,0,45.18000030517578,1,1,257,269
696.27270200,696272702,0,-0.00535107497125864,-0.0006527897785417736,0.0012788944877684116,0.4674069881439209,-0.4002652168273926,-9.859978675842285,0,0,45.18000030517578,1,1,257,269
696.27500900,696275009,0,-0.005117976106703281,-0.0017703922931104898,0.0004455281305126846,0.46780112385749817,-0.39969345927238464,-9.85780143737793,0,0,45.18000030517578,1,1,257,269
696.27764800,696277648,0,-0.004001428373157978,-0.0024149620439857244,-0.0003578555188141763,0.4675755500793457,-0.3990512788295746,-9.857935905456543,0,0,45.18000030517578,1,1,257,269
696.28001100,696280011,0,-0.002997879171743989,-0.002586793852970004,-0.0005375773762352765,0.4666072130203247,-0.39772042632102966,-9.859357833862305,0,0,45.18000030517578,1,1,257,269
696.28261600,696282616,0,-0.0025808289647102356,-0.0018546030623838305,-0.0004567093856167048,0.46548059582710266,-0.39666327834129333,-9.860109329223633,0,0,45.18000030517578,1,1,257,269
696.28493400,696284934,0,-0.0028966059908270836,-0.00132740696426481,0.00040918306331150234,0.4645380675792694,-0.39478394389152527,-9.860605239868164,0,0,45.18000030517578,1,1,257,269
696.28768600,696287686,0,-0.0038035656325519085,-0.001481717568822205,0.0014341629575937986,0.46498870849609375,-0.39345937967300415,-9.860594749450684,0,0,45.18000030517578,1,1,257,269
696.28992900,696289929,0,-0.004930098541080952,-0.001572812208905816,0.0014613631647080183,0.4655910134315491,-0.3918176591396332,-9.860871315002441,0,0,45.18000030517578,1,1,257,269
696.29271200,696292712,0,-0.005808478221297264,-0.0021350469905883074,0.0009120056056417525,0.46591633558273315,-0.3898564577102661,-9.86166763305664,0,0,45.18000030517578,1,1,257,269
696.29494300,696294943,0,-0.006102364510297775,-0.0027559984009712934,0.001430183183401823,0.4658571779727936,-0.3875534236431122,-9.862236976623535,0,0,45.18000030517578,1,1,257,269
696.29767200,696297672,0,-0.006316192913800478,-0.002117939991876483,0.002592231845483184,0.4656687080860138,-0.38329052925109863,-9.862293243408203,0,0,45.18000030517578,1,1,257,269
696.29998000,696299980,0,-0.005846287123858929,-0.001195233315229416,0.002883373759686947,0.46579888463020325,-0.38089239597320557,-9.86205768585205,0,0,45.18000030517578,1,1,257,269
696.30277500,696302775,0,-0.004947122652083635,-0.0006546400836668909,0.002677824115380645,0.4664417505264282,-0.3788185119628906,-9.860689163208008,0,0,45.18000030517578,1,1,257,269
696.30499200,696304992,0,-0.004414835944771767,-0.0008302979986183345,0.0028979068156331778,0.467236191034317,-0.37753671407699585,-9.85936164855957,0,0,45.18000030517578,1,1,257,269
696.30760800,696307608,0,-0.004348223563283682,-0.0010761474259197712,0.002614716300740838,0.46802589297294617,-0.37600773572921753,-9.858633995056152,0,0,45.18000030517578,1,1,257,269
696.30997900,696309979,0,-0.00403083860874176,-0.0010028182296082377,0.002205261727795005,0.4686121344566345,-0.3741868734359741,-9.858025550842285,0,0,45.19600296020508,1,1,257,269
696.31265400,696312654,0,-0.003761749714612961,-0.0011316167656332254,0.001595648005604744,0.46905815601348877,-0.3726365268230438,-9.856827735900879,0,0,45.19600296020508,1,1,257,269
696.31492600,696314926,0,-0.003791823284700513,-0.0013048785040155053,0.0014698536833748221,0.46966123580932617,-0.37169086933135986,-9.855409622192383,0,0,45.19600296020508,1,1,257,269
696.31794900,696317949,0,-0.004611474461853504,-0.001641471404582262,0.0014624865725636482,0.4700315296649933,-0.3706783056259155,-9.852937698364258,0,0,45.19600296020508,1,1,257,269
696.31991900,696319919,0,-0.005645204801112413,-0.0017619814025238156,0.001644858275540173,0.46983444690704346,-0.37014877796173096,-9.851580619812012,0,0,45.19600296020508,1,1,257,269
696.32266300,696322663,0,-0.006384562700986862,-0.0018501172307878733,0.0015205155359581113,0.46935227513313293,-0.36920231580734253,-9.851313591003418,0,0,45.19600296020508,1,1,257,269
696.32496500,696324965,0,-0.006707384716719389,-0.0016110851429402828,0.0010613122722133994,0.4691223204135895,-0.3687131404876709,-9.851491928100586,0,0,45.19600296020508,1,1,257,269
696.32764400,696327644,0,-0.0056948415003716946,-0.0018328414298593998,0.00022590873413719237,0.46834179759025574,-0.3681115508079529,-9.851783752441406,0,0,45.19600296020508,1,1,257,269
696.32997700,696329977,0,-0.005082413554191589,-0.0016287885373458266,-1.3057812793704215e-05,0.4681113660335541,-0.3681376278400421,-9.85180950164795,0,0,45.19600296020508,1,1,257,269
696.33286200,696332862,0,-0.0043685538694262505,-0.001310179359279573,0.00020822545047849417,0.4677789807319641,-0.36867716908454895,-9.85193157196045,0,0,45.19600296020508,1,1,257,269
696.33499600,696334996,0,-0.003590821288526058,-0.001331730978563428,0.0005515551893040538,0.46725669503211975,-0.37009769678115845,-9.852639198303223,0,0,45.19600296020508,1,1,257,269
696.33784300,696337843,0,-0.0027564973570406437,-0.001269855652935803,0.0009064291371032596,0.46639496088027954,-0.37116679549217224,-9.854061126708984,0,0,45.19600296020508,1,1,257,269
696.33999100,696339991,0,-0.002926156623288989,-0.0007532759918831289,0.00046339863911271095,0.4641019105911255,-0.3731423616409302,-9.856775283813477,0,0,45.19600296020508,1,1,257,269
696.34259600,696342596,0,-0.003951017279177904,-0.00041371071711182594,0.0004834981227759272,0.4624077379703522,-0.37478044629096985,-9.858139038085938,0,0,45.19600296020508,1,1,257,269
696.34499400,696344994,0,-0.004386415705084801,-0.0004260273417457938,0.0005714515573345125,0.45974472165107727,-0.3778349459171295,-9.859176635742188,0,0,45.19600296020508,1,1,257,269
696.34761900,696347619,0,-0.004916474688798189,-0.000495020067319274,0.0008711268892511725,0.45893895626068115,-0.3791712522506714,-9.859230041503906,0,0,45.19600296020508,1,1,257,269
696.35035400,696350354,0,-0.006046142894774675,-0.001192553318105638,0.0012934347614645958,0.45666155219078064,-0.38299840688705444,-9.858458518981934,0,0,45.19600296020508,1,1,257,269
696.35254400,696352544,0,-0.006079670041799545,-0.0017023595282807946,0.0013311725342646241,0.45575475692749023,-0.38418033719062805,-9.858288764953613,0,0,45.19600296020508,1,1,257,269
696.35515600,696355156,0,-0.005742533132433891,-0.0023766278754919767,0.0010988046415150166,0.4536096751689911,-0.3868921101093292,-9.85780143737793,0,0,45.19600296020508,1,1,257,269
696.35751600,696357516,0,-0.005804534535855055,-0.0021008129697293043,0.0009102131589315832,0.4533175528049469,-0.38743022084236145,-9.857518196105957,0,0,45.19600296020508,1,1,257,269
696.36010300,696360103,0,-0.006532082799822092,-0.0013663467252627015,0.0012144516222178936,0.45232951641082764,-0.38875067234039307,-9.854976654052734,0,0,45.19600296020508,1,1,257,269
696.36252100,696362521,0,-0.0065668015740811825,-0.0014074081555008888,0.0010849938262254,0.45197221636772156,-0.3891419470310211,-9.854233741760254,0,0,45.19600296020508,1,1,257,269
696.36514600,696365146,0,-0.00680794520303607,-0.001791341695934534,0.0007728738710284233,0.4505848288536072,-0.39076143503189087,-9.853686332702637,0,0,45.19600296020508,1,1,257,269
696.36746800,696367468,0,-0.00656912149861455,-0.0020177210681140423,0.00043082787306047976,0.4492749571800232,-0.3918991684913635,-9.855056762695312,0,0,45.19600296020508,1,1,257,269
696.37017500,696370175,0,-0.0056561012752354145,-0.002414475427940488,0.0003646338009275496,0.4480268657207489,-0.3927474319934845,-9.857221603393555,0,0,45.19600296020508,1,1,257,269
696.37244700,696372447,0,-0.0045099505223333836,-0.0029888676945120096,0.0008336908649653196,0.4468464255332947,-0.3934789001941681,-9.859002113342285,0,0,45.19600296020508,1,1,257,269
696.37518700,696375187,0,-0.0036194140557199717,-0.003118801862001419,0.0014748831745237112,0.44530558586120605,-0.39418157935142517,-9.860038757324219,0,0,45.19600296020508,1,1,257,269
696.37759100,696377591,0,-0.00452645868062973,-0.0029355701990425587,0.0009576167794875801,0.44297507405281067,-0.3964866101741791,-9.86049747467041,0,0,45.19600296020508,1,1,257,269
696.38000300,696380003,0,-0.004761778749525547,-0.002814042381942272,0.0006961546605452895,0.44265303015708923,-0.39695820212364197,-9.860820770263672,0,0,45.19600296020508,1,1,257,269
696.39539000,696395390,0,-0.004828022792935371,-0.002594761783257127,0.0004885053494945168,0.442415326833725,-0.39731305837631226,-9.861008644104004,0,0,45.198001861572266,1,1,257,269
696.39826100,696398261,0,-0.004918022081255913,-0.002311548450961709,0.00044044083915650845,0.4421776533126831,-0.3975544273853302,-9.860635757446289,0,0,45.198001861572266,1,1,257,269
696.40077800,696400778,0,-0.005040005315095186,-0.0019115798640996218,0.0004938819911330938,0.441885381937027,-0.39768579602241516,-9.859768867492676,0,0,45.198001861572266,1,1,257,269
696.40296200,696402962,0,-0.005036377813667059,-0.0014541862765327096,0.0005238111480139196,0.44162294268608093,-0.3977668881416321,-9.858795166015625,0,0,45.198001861572266,1,1,257,269
696.40577700,696405777,0,-0.0049835555255413055,-0.0010873113060370088,0.000589636736549437,0.44154253602027893,-0.39790046215057373,-9.85787582397461,0,0,45.198001861572266,1,1,257,269
696.40818600,696408186,0,-0.005039014387875795,-0.000918148027267307,0.0008566065225750208,0.4416884183883667,-0.3981291651725769,-9.8569917678833,0,0,45.198001861572266,1,1,257,269
696.41086800,696410868,0,-0.005127997137606144,-0.0010450663976371288,0.0012719741789624095,0.4419730007648468,-0.39839968085289,-9.8561429977417,0,0,45.198001861572266,1,1,257,269
696.41312500,696413125,0,-0.005175289232283831,-0.0012856253888458014,0.0015498856082558632,0.4423311650753021,-0.39860114455223083,-9.855429649353027,0,0,45.198001861572266,1,1,257,269
696.41567500,696415675,0,-0.005033208057284355,-0.00143823167309165,0.0016105140093713999,0.4427739679813385,-0.3986557126045227,-9.854897499084473,0,0,45.198001861572266,1,1,257,269
696.41836400,696418364,0,-0.004737404640763998,-0.0014426193665713072,0.0015865478198975325,0.44331094622612,-0.3985995352268219,-9.854412078857422,0,0,45.198001861572266,1,1,257,269
696.42063400,696420634,0,-0.004617034923285246,-0.0013036157470196486,0.001407445641234517,0.44391506910324097,-0.3985074460506439,-9.853836059570312,0,0,45.198001861572266,1,1,257,269
696.42318200,696423182,0,-0.0047743795439600945,-0.001197840552777052,0.0010459324112161994,0.44455477595329285,-0.39838382601737976,-9.853233337402344,0,0,45.198001861572266,1,1,257,269
696.42590400,696425904,0,-0.005110894329845905,-0.0012555790599435568,0.0007693260558880866,0.4452225863933563,-0.39818376302719116,-9.852742195129395,0,0,45.198001861572266,1,1,257,269
696.42868400,696428684,0,-0.0053364671766757965,-0.0013003896456211805,0.0006780263502150774,0.44593262672424316,-0.39788147807121277,-9.85240364074707,0,0,45.198001861572266,1,1,257,269
696.43058000,696430580,0,-0.005312915425747633,-0.0011735049774870276,0.0006815675878897309,0.44669029116630554,-0.39750346541404724,-9.852154731750488,0,0,45.198001861572266,1,1,257,269
696.43332600,696433326,0,-0.005220434162765741,-0.000928661145735532,0.000715665752068162,0.44748619198799133,-0.397073894739151,-9.851903915405273,0,0,45.198001861572266,1,1,257,269
696.43616000,696436160,0,-0.005148535594344139,-0.000636754441075027,0.0007117504137568176,0.448339581489563,-0.3965587317943573,-9.85161018371582,0,0,45.198001861572266,1,1,257,269
696.43872200,696438722,0,-0.0050697168335318565,-0.0004251392965670675,0.0006586236413568258,0.44928833842277527,-0.3959210515022278,-9.851314544677734,0,0,45.198001861572266,1,1,257,269
696.44072800,696440728,0,-0.004994566086679697,-0.0004161163524258882,0.0006341033149510622,0.45030996203422546,-0.39519137144088745,-9.851103782653809,0,0,45.198001861572266,1,1,257,269
696.44368600,696443686,0,-0.005008830688893795,-0.00055733323097229,0.0008418865036219358,0.45131388306617737,-0.39445361495018005,-9.851068496704102,0,0,45.198001861572266,1,1,257,269
696.44621100,696446211,0,-0.005022728815674782,-0.0007223817519843578,0.0012759845703840256,0.4522261321544647,-0.3937758803367615,-9.851252555847168,0,0,45.198001861572266,1,1,257,269
696.44881200,696448812,0,-0.004875627811998129,-0.0008057139930315316,0.001697672763839364,0.45302313566207886,-0.39319074153900146,-9.851595878601074,0,0,45.198001861572266,1,1,257,269
696.45110800,696451108,0,-0.004672196228057146,-0.0007780820014886558,0.0019900822080671787,0.4536982774734497,-0.39270585775375366,-9.851977348327637,0,0,45.198001861572266,1,1,257,269
696.45358500,696453585,0,-0.004614310339093208,-0.0007125251577235758,0.0020952837076038122,0.4542674720287323,-0.3922855854034424,-9.852339744567871,0,0,45.198001861572266,1,1,257,269
696.45633200,696456332,0,-0.004650401417165995,-0.0006039590225555003,0.0020234098192304373,0.45476651191711426,-0.3918556571006775,-9.852718353271484,0,0,45.198001861572266,1,1,257,269
696.45871400,696458714,0,-0.004686715081334114,-0.000400462158722803,0.0018248289125040174,0.4551859200000763,-0.39136362075805664,-9.853144645690918,0,0,45.198001861572266,1,1,257,269
696.46104400,696461044,0,-0.004719540011137724,-0.00013316867989487946,0.0015427041798830032,0.45545461773872375,-0.39083993434906006,-9.85360336303711,0,0,45.198001861572266,1,1,257,269
696.46369900,696463699,0,-0.004693847149610519,0.0001726900227367878,0.0012380917323753238,0.4555239677429199,-0.3903747797012329,-9.854039192199707,0,0,45.198001861572266,1,1,257,269
696.46661900,696466619,0,-0.004741514567285776,0.00041828094981610775,0.0009502355242148042,0.4554285407066345,-0.3900417685508728,-9.854403495788574,0,0,45.198001861572266,1,1,257,269
696.46845700,696468457,0,-0.00485544977709651,0.0003903298929799348,0.0007012470159679651,0.455235093832016,-0.3898358643054962,-9.854738235473633,0,0,45.198001861572266,1,1,257,269
696.47116600,696471166,0,-0.0047856587916612625,0.00011969984916504472,0.000580344523768872,0.45499005913734436,-0.3896750807762146,-9.855175971984863,0,0,45.198001861572266,1,1,257,269
696.47417300,696474173,0,-0.004584922455251217,-0.0001381774782203138,0.0005225591594353318,0.45472127199172974,-0.38948553800582886,-9.85582160949707,0,0,45.198001861572266,1,1,257,269
696.47659200,696476592,0,-0.0044576795771718025,-0.0003360385890118778,0.0003228315035812557,0.45441877841949463,-0.3892505168914795,-9.856643676757812,0,0,45.198001861572266,1,1,257,269
696.47867200,696478672,0,-0.004467363003641367,-0.0006371837807819247,5.7006600400200114e-05,0.4540669322013855,-0.3889900743961334,-9.857499122619629,0,0,45.198001861572266,1,1,257,269
696.48155700,696481557,0,-0.004612191580235958,-0.0010240128031000495,-0.00019579390936996788,0.453700989484787,-0.38873642683029175,-9.858246803283691,0,0,45.198001861572266,1,1,257,269
696.48406600,696484066,0,-0.0048244730569422245,-0.0013444869546219707,-0.0004686155298259109,0.453359454870224,-0.38848334550857544,-9.858851432800293,0,0,45.198001861572266,1,1,257,269
696.48670000,696486700,0,-0.005003327503800392,-0.0016459126491099596,-0.0006466613849624991,0.4530348479747772,-0.3882112503051758,-9.859380722045898,0,0,45.198001861572266,1,1,257,269
696.48895800,696488958,0,-0.005064389202743769,-0.0018791630864143372,-0.0006963814957998693,0.4527132511138916,-0.3879866898059845,-9.859889030456543,0,0,45.198001861572266,1,1,257,269
696.49149100,696491491,0,-0.004941714461892843,-0.001888440689072013,-0.0007696350803598762,0.4523962736129761,-0.3879108428955078,-9.860345840454102,0,0,45.198001861572266,1,1,257,269
696.49416300,696494163,0,-0.004773059394210577,-0.001814191578887403,-0.0008764086524024606,0.45207124948501587,-0.3879895508289337,-9.860664367675781,0,0,45.198001861572266,1,1,257,269
696.49713900,696497139,0,-0.004699623212218285,-0.0018561211181804538,-0.0009131499682553113,0.4517339766025543,-0.38814306259155273,-9.860794067382812,0,0,45.198001861572266,1,1,257,269
696.49911900,696499119,0,-0.0046380856074392796,-0.001964274561032653,-0.0009037856943905354,0.4514226019382477,-0.388299822807312,-9.860803604125977,0,0,45.198001861572266,1,1,257,269
696.50182800,696501828,0,-0.0045633320696651936,-0.0019689470063894987,-0.0008674145792610943,0.4511852562427521,-0.38843050599098206,-9.860794067382812,0,0,45.198001861572266,1,1,257,269
696.50422600,696504226,0,-0.004434895236045122,-0.0018573119305074215,-0.0007651743944734335,0.4510294795036316,-0.3885160982608795,-9.860798835754395,0,0,45.198001861572266,1,1,257,269
696.50667500,696506675,0,-0.0042336066253483295,-0.0016597621142864227,-0.0005535189993679523,0.45090562105178833,-0.3885399103164673,-9.860808372497559,0,0,45.198001861572266,1,1,257,269
696.50924600,696509246,0,-0.004087941255420446,-0.00142985163256526,-0.0002966680913232267,0.450741171836853,-0.38851526379585266,-9.860827445983887,0,0,45.198001861572266,1,1,257,269
696.51210800,696512108,0,-0.004123340826481581,-0.0013892194256186485,-9.117850277107209e-05,0.45051339268684387,-0.38848936557769775,-9.860877990722656,0,0,45.198001861572266,1,1,257,269
696.51403100,696514031,0,-0.004397764336317778,-0.0015204763039946556,3.612289947341196e-05,0.4502861797809601,-0.3884974718093872,-9.860990524291992,0,0,45.198001861572266,1,1,257,269
696.51674500,696516745,0,-0.0047896672040224075,-0.0015302874380722642,0.000183038369868882,0.4501517117023468,-0.388528972864151,-9.861164093017578,0,0,45.198001861572266,1,1,257,269
696.51963400,696519634,0,-0.005133977625519037,-0.0013858259189873934,0.0005131421494297683,0.45016399025917053,-0.3885532319545746,-9.861323356628418,0,0,45.18000030517578,1,1,257,269
696.52216000,696522160,0,-0.005388536956161261,-0.001241977559402585,0.0008682040497660637,0.45033541321754456,-0.38855692744255066,-9.86135482788086,0,0,45.18000030517578,1,1,257,269
696.52417000,696524170,0,-0.005563313141465187,-0.001059719012118876,0.0010701485443860292,0.45064136385917664,-0.3885491192340851,-9.86119556427002,0,0,45.18000030517578,1,1,257,269
696.52703000,696527030,0,-0.005725436843931675,-0.0009254933684132993,0.0011857226490974426,0.4510168731212616,-0.3885311186313629,-9.860875129699707,0,0,45.18000030517578,1,1,257,269
696.52956100,696529561,0,-0.0059434170834720135,-0.0009665910038165748,0.0012905567418783903,0.4514105021953583,-0.3884761333465576,-9.860480308532715,0,0,45.18000030517578,1,1,257,269
