timestamp,TimeUS,ACCx,TimeUS2,ACCx2
65.05975100,65059751,-0.3603562116622925
65.06235100,65062351,-0.3603562116622925
65.06495600,65064956,-0.3603562116622925
65.06755800,65067558,-0.3555678129196167
65.07016200,65070162,-0.3507794141769409
65.07214000,65072140,-0.34599095582962036
65.07473800,65074738,-0.3412025570869446
65.07734300,65077343,-0.3364141583442688
65.07994100,65079941,-0.3364141583442688
65.08254100,65082541,-0.3364141583442688
65.08514000,65085140,-0.3412025570869446
65.08774100,65087741,-0.34599095582962036
65.09034700,65090347,-0.3507794141769409
65.09232400,,,,
65.23665800,65236658,-0.3603562116622925,65236658,-0.3603562116622925
65.23924800,65239248,-0.3603562116622925,65239248,-0.3603562116622925
65.24184000,65241840,-0.3603562116622925,65241840,-0.3603562116622925
65.24444700,65244447,-0.3603562116622925,65244447,-0.3603562116622925
65.24704800,65247048,-0.3555678129196167,65247048,-0.3555678129196167
65.24965900,65249659,-0.36514461040496826,65249659,-0.36514461040496826
65.25164400,65251644,-0.36993300914764404,65251644,-0.36993300914764404
65.25424600,65254246,-0.3795098066329956,65254246,-0.3795098066329956
65.25685000,65256850,-0.3795098066329956,65256850,-0.3795098066329956
65.25946500,65259465,-0.3747214078903198,65259465,-0.3747214078903198
65.26206500,65262065,-0.36993300914764404,65262065,-0.36993300914764404
65.26467000,65264670,-0.36514461040496826,65264670,-0.36514461040496826
65.26727800,65267278,-0.3603562116622925,65267278,-0.3603562116622925
65.26988300,65269883,-0.3555678129196167,65269883,-0.3555678129196167
65.27186800,65271868,-0.3555678129196167,65271868,-0.3555678129196167
65.27447600,65274476,-0.3555678129196167,65274476,-0.3555678129196167
65.27709000,65277090,-0.3603562116622925,65277090,-0.3603562116622925
65.27970600,65279706,-0.3555678129196167,65279706,-0.3555678129196167
65.28230500,65282305,-0.3603562116622925,65282305,-0.3603562116622925
65.28491700,65284917,-0.3555678129196167,65284917,-0.3555678129196167
65.28752600,65287526,-0.36514461040496826,65287526,-0.36514461040496826
65.29013400,65290134,-0.36993300914764404,65290134,-0.36993300914764404
65.29211800,65292118,-0.36993300914764404,65292118,-0.36993300914764404
65.29471400,65294714,-0.36514461040496826,65294714,-0.36514461040496826
65.29731600,65297316,-0.3603562116622925,65297316,-0.3603562116622925
65.29992500,65299925,-0.3555678129196167,65299925,-0.3555678129196167
65.30252800,65302528,-0.3555678129196167,65302528,-0.3555678129196167
65.30513400,65305134,-0.3603562116622925,65305134,-0.3603562116622925
65.30774300,65307743,-0.3603562116622925,65307743,-0.3603562116622925
65.31035600,65310356,-0.36993300914764404,65310356,-0.36993300914764404
65.31233700,65312337,-0.36993300914764404,65312337,-0.36993300914764404
65.31494000,65314940,-0.3747214078903198,65314940,-0.3747214078903198
65.31754000,65317540,-0.36993300914764404,65317540,-0.36993300914764404
65.32014300,65320143,-0.36514461040496826,65320143,-0.36514461040496826
65.32274500,65322745,-0.3507794141769409,65322745,-0.3507794141769409
65.32535200,65325352,-0.3412025570869446,65325352,-0.3412025570869446
65.32795400,65327954,-0.3412025570869446,65327954,-0.3412025570869446
65.33058300,65330583,-0.3412025570869446,65330583,-0.3412025570869446
65.33256700,65332567,-0.34599095582962036,65332567,-0.34599095582962036
65.33516200,65335162,-0.3507794141769409,65335162,-0.3507794141769409
65.33776300,65337763,-0.3555678129196167,65337763,-0.3555678129196167
65.34037300,65340373,-0.3507794141769409,65340373,-0.3507794141769409
65.34297500,65342975,-0.3412025570869446,65342975,-0.3412025570869446
65.34558200,65345582,-0.3412025570869446,65345582,-0.3412025570869446
65.34818400,65348184,-0.3364141583442688,65348184,-0.3364141583442688
65.35079800,65350798,-0.3364141583442688,65350798,-0.3364141583442688
65.35278200,65352782,-0.3364141583442688,65352782,-0.3364141583442688
65.35538500,65355385,-0.3364141583442688,65355385,-0.3364141583442688
65.35798400,65357984,-0.3412025570869446,65357984,-0.3412025570869446
65.36059400,65360594,-0.34599095582962036,65360594,-0.34599095582962036
65.36319700,65363197,-0.3507794141769409,65363197,-0.3507794141769409
65.36580600,65365806,-0.3507794141769409,65365806,-0.3507794141769409
65.36840800,65368408,-0.3507794141769409,65368408,-0.3507794141769409
65.37101300,65371013,-0.34599095582962036,65371013,-0.34599095582962036
65.37299400,65372994,-0.34599095582962036,65372994,-0.34599095582962036
65.37560000,65375600,-0.34599095582962036,65375600,-0.34599095582962036
65.37820400,65378204,-0.34599095582962036,65378204,-0.34599095582962036
65.38081000,65380810,-0.34599095582962036,65380810,-0.34599095582962036
65.38341400,65383414,-0.34599095582962036,65383414,-0.34599095582962036
65.38601600,65386016,-0.3412025570869446,65386016,-0.3412025570869446
65.38862300,65388623,-0.3412025570869446,65388623,-0.3412025570869446
65.39124300,65391243,-0.3364141583442688,65391243,-0.3364141583442688
65.39323700,65393237,-0.3412025570869446,65393237,-0.3412025570869446
65.39583900,65395839,-0.34599095582962036,65395839,-0.34599095582962036
65.39843600,65398436,-0.3555678129196167,65398436,-0.3555678129196167
65.40103800,65401038,-0.3555678129196167,65401038,-0.3555678129196167
65.40363900,65403639,-0.3555678129196167,65403639,-0.3555678129196167
65.40626100,65406261,-0.3555678129196167,65406261,-0.3555678129196167
65.40886000,65408860,-0.3603562116622925,65408860,-0.3603562116622925
65.41146800,65411468,-0.3603562116622925,65411468,-0.3603562116622925
65.41345300,65413453,-0.3555678129196167,65413453,-0.3555678129196167
65.41605500,65416055,-0.3507794141769409,65416055,-0.3507794141769409
65.41865900,65418659,-0.34599095582962036,65418659,-0.34599095582962036
65.42126300,65421263,-0.3412025570869446,65421263,-0.3412025570869446
65.42387500,65423875,-0.3412025570869446,65423875,-0.3412025570869446
65.42647500,65426475,-0.34599095582962036,65426475,-0.34599095582962036
65.42908400,65429084,-0.34599095582962036,65429084,-0.34599095582962036
65.43168100,65431681,-0.3507794141769409,65431681,-0.3507794141769409
65.43366000,65433660,-0.3555678129196167,65433660,-0.3555678129196167
65.43626900,65436269,-0.3507794141769409,65436269,-0.3507794141769409
65.43887300,65438873,-0.3507794141769409,65438873,-0.3507794141769409
65.44148100,65441481,-0.34599095582962036,65441481,-0.34599095582962036
65.44408700,65444087,-0.34599095582962036,65444087,-0.34599095582962036
65.44669200,65446692,-0.34599095582962036,65446692,-0.34599095582962036
65.44930200,65449302,-0.34599095582962036,65449302,-0.34599095582962036
65.45190100,65451901,-0.3507794141769409,65451901,-0.3507794141769409
65.45388100,65453881,-0.3555678129196167,65453881,-0.3555678129196167
65.45648600,65456486,-0.3507794141769409,65456486,-0.3507794141769409
65.45908400,65459084,-0.3507794141769409,65459084,-0.3507794141769409
65.46169500,65461695,-0.34599095582962036,65461695,-0.34599095582962036
65.46429500,65464295,-0.34599095582962036,65464295,-0.34599095582962036
65.46690100,65466901,-0.34599095582962036,65466901,-0.34599095582962036
65.46950800,65469508,-0.3555678129196167,65469508,-0.3555678129196167
65.47211400,65472114,-0.3603562116622925,65472114,-0.3603562116622925
65.47471500,65474715,-0.3747214078903198,65474715,-0.3747214078903198
65.47669800,65476698,-0.36993300914764404,65476698,-0.36993300914764404
65.47930300,65479303,-0.36993300914764404,65479303,-0.36993300914764404
65.48191300,65481913,-0.36514461040496826,65481913,-0.36514461040496826
65.48452300,65484523,-0.3603562116622925,65484523,-0.3603562116622925
65.48712700,65487127,-0.3555678129196167,65487127,-0.3555678129196167
65.48973300,65489733,-0.3507794141769409,65489733,-0.3507794141769409
65.49233800,65492338,-0.3507794141769409,65492338,-0.3507794141769409
65.49493700,65494937,-0.3555678129196167,65494937,-0.3555678129196167
65.49691500,65496915,-0.3603562116622925,65496915,-0.3603562116622925
65.49952000,65499520,-0.36993300914764404,65499520,-0.36993300914764404
65.50213200,65502132,-0.3795098066329956,65502132,-0.3795098066329956
65.50473600,65504736,-0.3795098066329956,65504736,-0.3795098066329956
65.50734500,65507345,-0.3795098066329956,65507345,-0.3795098066329956
65.50995200,65509952,-0.3747214078903198,65509952,-0.3747214078903198
65.51255700,65512557,-0.3747214078903198,65512557,-0.3747214078903198
65.51516000,65515160,-0.36514461040496826,65515160,-0.36514461040496826
65.51713300,65517133,-0.36514461040496826,65517133,-0.36514461040496826
65.51973300,65519733,-0.3603562116622925,65519733,-0.3603562116622925
65.52233900,65522339,-0.3555678129196167,65522339,-0.3555678129196167
65.52494100,65524941,-0.3507794141769409,65524941,-0.3507794141769409
65.52754700,65527547,-0.3507794141769409,65527547,-0.3507794141769409
65.53014800,65530148,-0.34599095582962036,65530148,-0.34599095582962036
65.53276000,65532760,-0.3412025570869446,65532760,-0.3412025570869446
65.53536100,65535361,-0.3412025570869446,65535361,-0.3412025570869446
65.53734700,65537347,-0.331625759601593,65537347,-0.331625759601593
65.53994600,65539946,-0.32683736085891724,65539946,-0.32683736085891724
65.54256000,65542560,-0.3172605633735657,65542560,-0.3172605633735657
65.54516000,65545160,-0.3172605633735657,65545160,-0.3172605633735657
65.54777200,65547772,-0.3124721646308899,65547772,-0.3124721646308899
65.55037800,65550378,-0.32204896211624146,65550378,-0.32204896211624146
65.55299200,65552992,-0.32683736085891724,65552992,-0.32683736085891724
65.55560100,65555601,-0.331625759601593,65555601,-0.331625759601593
65.55757400,65557574,-0.3364141583442688,65557574,-0.3364141583442688
65.56017500,65560175,-0.331625759601593,65560175,-0.331625759601593
65.56278300,65562783,-0.32683736085891724,65562783,-0.32683736085891724
65.56538900,65565389,-0.32683736085891724,65565389,-0.32683736085891724
65.56799300,65567993,-0.32683736085891724,65567993,-0.32683736085891724
65.57059300,65570593,-0.3364141583442688,65570593,-0.3364141583442688
65.57320300,65573203,-0.3412025570869446,65573203,-0.3412025570869446
65.57581000,65575810,-0.34599095582962036,65575810,-0.34599095582962036
65.57778800,65577788,-0.3555678129196167,65577788,-0.3555678129196167
65.58038700,65580387,-0.3555678129196167,65580387,-0.3555678129196167
65.58300200,65583002,-0.3555678129196167,65583002,-0.3555678129196167
65.58560800,65585608,-0.3507794141769409,65585608,-0.3507794141769409
65.58822200,65588222,-0.3412025570869446,65588222,-0.3412025570869446
65.59082600,65590826,-0.3364141583442688,65590826,-0.3364141583442688
65.59342800,65593428,-0.331625759601593,65593428,-0.331625759601593
65.59603400,65596034,-0.331625759601593,65596034,-0.331625759601593
65.59802000,65598020,-0.3364141583442688,65598020,-0.3364141583442688
65.60062600,65600626,-0.3412025570869446,65600626,-0.3412025570869446
65.60322400,65603224,-0.3507794141769409,65603224,-0.3507794141769409
65.60583600,65605836,-0.3603562116622925,65605836,-0.3603562116622925
65.60843700,65608437,-0.36514461040496826,65608437,-0.36514461040496826
65.61103700,65611037,-0.36514461040496826,65611037,-0.36514461040496826
65.61364600,65613646,-0.36514461040496826,65613646,-0.36514461040496826
65.61625300,65616253,-0.3555678129196167,65616253,-0.3555678129196167
65.61823800,65618238,-0.3603562116622925,65618238,-0.3603562116622925
65.62084100,65620841,-0.3603562116622925,65620841,-0.3603562116622925
65.62344800,65623448,-0.36514461040496826,65623448,-0.36514461040496826
65.62605600,65626056,-0.36514461040496826,65626056,-0.36514461040496826
65.62865500,65628655,-0.36993300914764404,65628655,-0.36993300914764404
65.63125500,65631255,-0.36514461040496826,65631255,-0.36514461040496826
65.63387200,65633872,-0.3555678129196167,65633872,-0.3555678129196167
65.63647100,65636471,-0.3555678129196167,65636471,-0.3555678129196167
65.63908500,65639085,-0.3555678129196167,65639085,-0.3555678129196167
65.64106500,65641065,-0.3555678129196167,65641065,-0.3555678129196167
65.64367000,65643670,-0.3555678129196167,65643670,-0.3555678129196167
65.64627300,65646273,-0.3555678129196167,65646273,-0.3555678129196167
65.64888000,65648880,-0.3603562116622925,65648880,-0.3603562116622925
65.65148600,65651486,-0.3603562116622925,65651486,-0.3603562116622925
65.65409600,65654096,-0.36514461040496826,65654096,-0.36514461040496826
65.65669700,65656697,-0.36993300914764404,65656697,-0.36993300914764404
65.65930800,65659308,-0.36993300914764404,65659308,-0.36993300914764404
65.66130400,65661304,-0.36514461040496826,65661304,-0.36514461040496826
65.66390500,65663905,-0.3603562116622925,65663905,-0.3603562116622925
65.66651600,65666516,-0.3555678129196167,65666516,-0.3555678129196167
65.66912000,65669120,-0.34599095582962036,65669120,-0.34599095582962036
65.67172100,65671721,-0.3507794141769409,65671721,-0.3507794141769409
65.67432800,65674328,-0.3507794141769409,65674328,-0.3507794141769409
65.67693700,65676937,-0.3555678129196167,65676937,-0.3555678129196167
65.67891400,65678914,-0.3603562116622925,65678914,-0.3603562116622925
65.68152100,65681521,-0.36514461040496826,65681521,-0.36514461040496826
65.68412500,65684125,-0.3603562116622925,65684125,-0.3603562116622925
65.68673300,65686733,-0.3555678129196167,65686733,-0.3555678129196167
65.68933700,65689337,-0.3555678129196167,65689337,-0.3555678129196167
65.69194300,65691943,-0.34599095582962036,65691943,-0.34599095582962036
65.69455700,65694557,-0.3412025570869446,65694557,-0.3412025570869446
65.69716200,65697162,-0.331625759601593,65697162,-0.331625759601593
65.69913500,65699135,-0.331625759601593,65699135,-0.331625759601593
65.70173700,65701737,-0.331625759601593,65701737,-0.331625759601593
65.70434200,65704342,-0.331625759601593,65704342,-0.331625759601593
65.70695200,65706952,-0.3364141583442688,65706952,-0.3364141583442688
65.70956100,65709561,-0.3364141583442688,65709561,-0.3364141583442688
65.71215900,65712159,-0.34599095582962036,65712159,-0.34599095582962036
65.71476600,65714766,-0.34599095582962036,65714766,-0.34599095582962036
65.71736600,65717366,-0.3507794141769409,65717366,-0.3507794141769409
65.71997600,65719976,-0.34599095582962036,65719976,-0.34599095582962036
65.72197500,65721975,-0.3412025570869446,65721975,-0.3412025570869446
65.72457800,65724578,-0.3412025570869446,65724578,-0.3412025570869446
65.72719000,65727190,-0.34599095582962036,65727190,-0.34599095582962036
65.72979700,65729797,-0.3507794141769409,65729797,-0.3507794141769409
65.73239700,65732397,-0.34599095582962036,65732397,-0.34599095582962036
65.73500900,65735009,-0.34599095582962036,65735009,-0.34599095582962036
65.73760600,65737606,-0.34599095582962036,65737606,-0.34599095582962036
65.74020800,65740208,-0.34599095582962036,65740208,-0.34599095582962036
65.74219400,65742194,-0.3507794141769409,65742194,-0.3507794141769409
65.74480300,65744803,-0.3603562116622925,65744803,-0.3603562116622925
65.74740000,65747400,-0.36514461040496826,65747400,-0.36514461040496826
65.75000500,65750005,-0.36993300914764404,65750005,-0.36993300914764404
65.75260800,65752608,-0.36514461040496826,65752608,-0.36514461040496826
65.75522100,65755221,-0.36514461040496826,65755221,-0.36514461040496826
65.75781900,65757819,-0.3555678129196167,65757819,-0.3555678129196167
65.76042600,65760426,-0.3507794141769409,65760426,-0.3507794141769409
65.76241300,65762413,-0.3412025570869446,65762413,-0.3412025570869446
65.76502000,65765020,-0.3364141583442688,65765020,-0.3364141583442688
65.76762800,65767628,-0.32683736085891724,65767628,-0.32683736085891724
65.77023200,65770232,-0.331625759601593,65770232,-0.331625759601593
65.77283600,65772836,-0.3364141583442688,65772836,-0.3364141583442688
65.77544500,65775445,-0.34599095582962036,65775445,-0.34599095582962036
65.77805000,65778050,-0.3507794141769409,65778050,-0.3507794141769409
65.78065600,65780656,-0.3555678129196167,65780656,-0.3555678129196167
65.78264200,65782642,-0.3507794141769409,65782642,-0.3507794141769409
65.78524200,65785242,-0.3507794141769409,65785242,-0.3507794141769409
65.78784900,65787849,-0.3507794141769409,65787849,-0.3507794141769409
65.79045700,65790457,-0.3555678129196167,65790457,-0.3555678129196167
65.79305600,65793056,-0.3555678129196167,65793056,-0.3555678129196167
65.79566300,65795663,-0.3603562116622925,65795663,-0.3603562116622925
65.79826800,65798268,-0.3555678129196167,65798268,-0.3555678129196167
65.80088600,65800886,-0.3507794141769409,65800886,-0.3507794141769409
65.80286100,65802861,-0.3507794141769409,65802861,-0.3507794141769409
65.80546800,65805468,-0.34599095582962036,65805468,-0.34599095582962036
65.80807800,65808078,-0.34599095582962036,65808078,-0.34599095582962036
65.81068400,65810684,-0.34599095582962036,65810684,-0.34599095582962036
65.81329400,65813294,-0.3507794141769409,65813294,-0.3507794141769409
65.81589100,65815891,-0.3507794141769409,65815891,-0.3507794141769409
65.81850300,65818503,-0.3507794141769409,65818503,-0.3507794141769409
65.82110800,65821108,-0.3507794141769409,65821108,-0.3507794141769409
65.82309100,65823091,-0.34599095582962036,65823091,-0.34599095582962036
65.82569700,65825697,-0.34599095582962036,65825697,-0.34599095582962036
65.82830800,65828308,-0.34599095582962036,65828308,-0.34599095582962036
65.83090700,65830907,-0.34599095582962036,65830907,-0.34599095582962036
65.83351700,65833517,-0.3507794141769409,65833517,-0.3507794141769409
65.83611900,65836119,-0.34599095582962036,65836119,-0.34599095582962036
65.83873100,65838731,-0.34599095582962036,65838731,-0.34599095582962036
65.84133000,65841330,-0.34599095582962036,65841330,-0.34599095582962036
65.84330700,65843307,-0.3507794141769409,65843307,-0.3507794141769409
65.84590800,65845908,-0.3555678129196167,65845908,-0.3555678129196167
65.84851500,65848515,-0.3555678129196167,65848515,-0.3555678129196167
65.85111600,65851116,-0.3555678129196167,65851116,-0.3555678129196167
65.85372700,65853727,-0.3555678129196167,65853727,-0.3555678129196167
65.85632200,65856322,-0.3507794141769409,65856322,-0.3507794141769409
65.85892400,65858924,-0.3507794141769409,65858924,-0.3507794141769409
65.86153500,65861535,-0.3507794141769409,65861535,-0.3507794141769409
65.86351800,65863518,-0.34599095582962036,65863518,-0.34599095582962036
65.86611600,65866116,-0.34599095582962036,65866116,-0.34599095582962036
65.86872000,65868720,-0.34599095582962036,65868720,-0.34599095582962036
65.87132200,65871322,-0.3507794141769409,65871322,-0.3507794141769409
65.87392200,65873922,-0.3555678129196167,65873922,-0.3555678129196167
65.87652600,65876526,-0.3555678129196167,65876526,-0.3555678129196167
65.87913200,65879132,-0.3555678129196167,65879132,-0.3555678129196167
65.88174100,65881741,-0.3555678129196167,65881741,-0.3555678129196167
65.88372400,65883724,-0.3555678129196167,65883724,-0.3555678129196167
65.88632600,65886326,-0.3507794141769409,65886326,-0.3507794141769409
65.88893900,65888939,-0.3507794141769409,65888939,-0.3507794141769409
65.89154200,65891542,-0.3507794141769409,65891542,-0.3507794141769409
65.89414200,65894142,-0.34599095582962036,65894142,-0.34599095582962036
65.89675200,65896752,-0.34599095582962036,65896752,-0.34599095582962036
65.89935800,65899358,-0.34599095582962036,65899358,-0.34599095582962036
65.90196200,65901962,-0.3507794141769409,65901962,-0.3507794141769409
65.90456500,65904565,-0.3507794141769409,65904565,-0.3507794141769409
65.90654200,65906542,-0.3555678129196167,65906542,-0.3555678129196167
65.90915000,65909150,-0.3603562116622925,65909150,-0.3603562116622925
65.91175000,65911750,-0.3555678129196167,65911750,-0.3555678129196167
65.91435100,65914351,-0.3555678129196167,65914351,-0.3555678129196167
65.91696300,65916963,-0.34599095582962036,65916963,-0.34599095582962036
65.91956500,65919565,-0.34599095582962036,65919565,-0.34599095582962036
65.92217700,65922177,-0.3364141583442688,65922177,-0.3364141583442688
65.92478400,65924784,-0.3412025570869446,65924784,-0.3412025570869446
65.92675400,65926754,-0.3412025570869446,65926754,-0.3412025570869446
65.92935800,65929358,-0.3412025570869446,65929358,-0.3412025570869446
65.93197400,65931974,-0.34599095582962036,65931974,-0.34599095582962036
65.93457600,65934576,-0.3507794141769409,65934576,-0.3507794141769409
65.93718000,65937180,-0.3555678129196167,65937180,-0.3555678129196167
65.93978600,65939786,-0.3507794141769409,65939786,-0.3507794141769409
65.94240000,65942400,-0.3507794141769409,65942400,-0.3507794141769409
65.94500500,65945005,-0.3507794141769409,65945005,-0.3507794141769409
65.94698300,65946983,-0.3555678129196167,65946983,-0.3555678129196167
65.94959200,65949592,-0.3603562116622925,65949592,-0.3603562116622925
65.95219700,65952197,-0.36993300914764404,65952197,-0.36993300914764404
65.95480900,65954809,-0.36514461040496826,65954809,-0.36514461040496826
65.95741100,65957411,-0.36514461040496826,65957411,-0.36514461040496826
65.96001700,65960017,-0.3603562116622925,65960017,-0.3603562116622925
65.96262500,65962625,-0.3555678129196167,65962625,-0.3555678129196167
65.96522500,65965225,-0.3555678129196167,65965225,-0.3555678129196167
65.96720200,65967202,-0.3555678129196167,65967202,-0.3555678129196167
65.96980800,65969808,-0.3603562116622925,65969808,-0.3603562116622925
65.97241400,65972414,-0.3603562116622925,65972414,-0.3603562116622925
65.97502300,65975023,-0.3603562116622925,65975023,-0.3603562116622925
65.97762200,65977622,-0.3603562116622925,65977622,-0.3603562116622925
65.98023400,65980234,-0.3603562116622925,65980234,-0.3603562116622925
65.98284100,65982841,-0.3555678129196167,65982841,-0.3555678129196167
65.98544500,65985445,-0.3555678129196167,65985445,-0.3555678129196167
65.98741800,65987418,-0.3555678129196167,65987418,-0.3555678129196167
65.99002700,65990027,-0.3603562116622925,65990027,-0.3603562116622925
65.99263000,65992630,-0.36514461040496826,65992630,-0.36514461040496826
65.99523500,65995235,-0.36993300914764404,65995235,-0.36993300914764404
65.99784600,65997846,-0.36514461040496826,65997846,-0.36514461040496826
66.00044800,66000448,-0.36993300914764404,66000448,-0.36993300914764404
66.00306100,66003061,-0.3603562116622925,66003061,-0.3603562116622925
66.00566100,66005661,-0.3603562116622925,66005661,-0.3603562116622925
66.00763800,66007638,-0.3603562116622925,66007638,-0.3603562116622925
66.01024300,66010243,-0.3555678129196167,66010243,-0.3555678129196167
66.01284400,66012844,-0.3603562116622925,66012844,-0.3603562116622925
66.01544700,66015447,-0.3555678129196167,66015447,-0.3555678129196167
66.01805600,66018056,-0.3555678129196167,66018056,-0.3555678129196167
66.02065700,66020657,-0.3507794141769409,66020657,-0.3507794141769409
66.02326000,66023260,-0.3555678129196167,66023260,-0.3555678129196167
66.02586900,66025869,-0.3603562116622925,66025869,-0.3603562116622925
66.02784800,66027848,-0.3603562116622925,66027848,-0.3603562116622925
66.03044500,66030445,-0.36514461040496826,66030445,-0.36514461040496826
66.03306200,66033062,-0.36514461040496826,66033062,-0.36514461040496826
66.03565900,66035659,-0.3603562116622925,66035659,-0.3603562116622925
66.03827100,66038271,-0.3555678129196167,66038271,-0.3555678129196167
66.04087400,66040874,-0.3507794141769409,66040874,-0.3507794141769409
66.04348000,66043480,-0.34599095582962036,66043480,-0.34599095582962036
66.04608600,66046086,-0.34599095582962036,66046086,-0.34599095582962036
66.04869900,66048699,-0.34599095582962036,66048699,-0.34599095582962036
66.05068500,66050685,-0.3412025570869446,66050685,-0.3412025570869446
66.05328700,66053287,-0.3412025570869446,66053287,-0.3412025570869446
66.05589100,66055891,-0.3364141583442688,66055891,-0.3364141583442688
66.05849700,66058497,-0.3364141583442688,66058497,-0.3364141583442688
66.06110500,66061105,-0.3364141583442688,66061105,-0.3364141583442688
66.06370900,66063709,-0.32683736085891724,66063709,-0.32683736085891724
66.06631000,66066310,-0.3364141583442688,66066310,-0.3364141583442688
66.06892200,66068922,-0.331625759601593,66068922,-0.331625759601593
66.07092000,66070920,-0.3364141583442688,66070920,-0.3364141583442688
66.07353100,66073531,-0.3412025570869446,66073531,-0.3412025570869446
66.07613200,66076132,-0.34599095582962036,66076132,-0.34599095582962036
66.07873600,66078736,-0.34599095582962036,66078736,-0.34599095582962036
66.08134000,66081340,-0.34599095582962036,66081340,-0.34599095582962036
66.08394900,66083949,-0.3507794141769409,66083949,-0.3507794141769409
66.08655200,66086552,-0.3555678129196167,66086552,-0.3555678129196167
66.08852800,66088528,-0.3603562116622925,66088528,-0.3603562116622925
66.09113300,66091133,-0.3555678129196167,66091133,-0.3555678129196167
66.09374600,66093746,-0.3555678129196167,66093746,-0.3555678129196167
66.09635200,66096352,-0.34599095582962036,66096352,-0.34599095582962036
66.09896200,66098962,-0.34599095582962036,66098962,-0.34599095582962036
66.10157300,66101573,-0.3412025570869446,66101573,-0.3412025570869446
66.10419100,66104191,-0.3412025570869446,66104191,-0.3412025570869446
66.10679200,66106792,-0.3412025570869446,66106792,-0.3412025570869446
66.10877100,66108771,-0.34599095582962036,66108771,-0.34599095582962036
66.11137800,66111378,-0.3507794141769409,66111378,-0.3507794141769409
66.11397600,66113976,-0.3555678129196167,66113976,-0.3555678129196167
66.11658300,66116583,-0.3555678129196167,66116583,-0.3555678129196167
66.11919600,66119196,-0.3555678129196167,66119196,-0.3555678129196167
66.12180200,66121802,-0.3555678129196167,66121802,-0.3555678129196167
66.12440500,66124405,-0.3507794141769409,66124405,-0.3507794141769409
66.12701300,66127013,-0.34599095582962036,66127013,-0.34599095582962036
66.12898600,66128986,-0.34599095582962036,66128986,-0.34599095582962036
66.13159200,66131592,-0.34599095582962036,66131592,-0.34599095582962036
66.13420300,66134203,-0.3507794141769409,66134203,-0.3507794141769409
66.13680500,66136805,-0.3555678129196167,66136805,-0.3555678129196167
66.13941100,66139411,-0.3555678129196167,66139411,-0.3555678129196167
66.14201900,66142019,-0.34599095582962036,66142019,-0.34599095582962036
66.14463300,66144633,-0.3412025570869446,66144633,-0.3412025570869446
66.14723900,66147239,-0.3364141583442688,66147239,-0.3364141583442688
66.14921400,66149214,-0.3364141583442688,66149214,-0.3364141583442688
66.15181900,66151819,-0.3364141583442688,66151819,-0.3364141583442688
66.15442700,66154427,-0.3412025570869446,66154427,-0.3412025570869446
66.15702400,66157024,-0.3507794141769409,66157024,-0.3507794141769409
66.15963400,66159634,-0.3507794141769409,66159634,-0.3507794141769409
66.16223800,66162238,-0.3555678129196167,66162238,-0.3555678129196167
66.16484300,66164843,-0.3555678129196167,66164843,-0.3555678129196167
66.16745600,66167456,-0.3507794141769409,66167456,-0.3507794141769409
66.17005700,66170057,-0.3507794141769409,66170057,-0.3507794141769409
66.17203900,66172039,-0.3412025570869446,66172039,-0.3412025570869446
66.17464800,66174648,-0.331625759601593,66174648,-0.331625759601593
66.17725100,66177251,-0.331625759601593,66177251,-0.331625759601593
66.17986900,66179869,-0.331625759601593,66179869,-0.331625759601593
66.18246600,66182466,-0.3412025570869446,66182466,-0.3412025570869446
66.18508100,66185081,-0.3555678129196167,66185081,-0.3555678129196167
66.18768400,66187684,-0.3603562116622925,66187684,-0.3603562116622925
66.18966700,66189667,-0.3603562116622925,66189667,-0.3603562116622925
66.19227400,66192274,-0.3555678129196167,66192274,-0.3555678129196167
66.19488300,66194883,-0.3507794141769409,66194883,-0.3507794141769409
66.19748300,66197483,-0.34599095582962036,66197483,-0.34599095582962036
66.20009800,66200098,-0.3412025570869446,66200098,-0.3412025570869446
66.20269900,66202699,-0.34599095582962036,66202699,-0.34599095582962036
66.20531800,66205318,-0.34599095582962036,66205318,-0.34599095582962036
66.20792500,66207925,-0.3507794141769409,66207925,-0.3507794141769409
66.20990200,66209902,-0.3603562116622925,66209902,-0.3603562116622925
66.21250200,66212502,-0.36514461040496826,66212502,-0.36514461040496826
66.21510300,66215103,-0.3747214078903198,66215103,-0.3747214078903198
66.21771500,66217715,-0.36993300914764404,66217715,-0.36993300914764404
66.22031600,66220316,-0.36993300914764404,66220316,-0.36993300914764404
66.22292200,66222922,-0.3603562116622925,66222922,-0.3603562116622925
66.22552500,66225525,-0.3507794141769409,66225525,-0.3507794141769409
66.22812600,66228126,-0.34599095582962036,66228126,-0.34599095582962036
66.23073400,66230734,-0.3412025570869446,66230734,-0.3412025570869446
66.23272000,66232720,-0.34599095582962036,66232720,-0.34599095582962036
66.23533200,66235332,-0.3507794141769409,66235332,-0.3507794141769409
66.23793500,66237935,-0.3603562116622925,66237935,-0.3603562116622925
66.24053600,66240536,-0.36514461040496826,66240536,-0.36514461040496826
66.24313700,66243137,-0.36514461040496826,66243137,-0.36514461040496826
66.24574000,66245740,-0.36514461040496826,66245740,-0.36514461040496826
66.24834000,66248340,-0.3603562116622925,66248340,-0.3603562116622925
66.25095300,66250953,-0.3603562116622925,66250953,-0.3603562116622925
66.25293500,66252935,-0.3555678129196167,66252935,-0.3555678129196167
66.25574000,66255740,-0.34599095582962036,66255740,-0.34599095582962036
66.25834000,66258340,-0.3412025570869446,66258340,-0.3412025570869446
66.26095900,66260959,-0.3412025570869446,66260959,-0.3412025570869446
66.26356000,66263560,-0.34599095582962036,66263560,-0.34599095582962036
66.26553900,66265539,-0.3507794141769409,66265539,-0.3507794141769409
66.26814100,66268141,-0.3555678129196167,66268141,-0.3555678129196167
66.27075100,66270751,-0.3555678129196167,66270751,-0.3555678129196167
66.27334800,66273348,-0.3555678129196167,66273348,-0.3555678129196167
66.27596200,66275962,-0.3507794141769409,66275962,-0.3507794141769409
66.27856900,66278569,-0.34599095582962036,66278569,-0.34599095582962036
66.28118000,66281180,-0.3412025570869446,66281180,-0.3412025570869446
66.28378100,66283781,-0.3364141583442688,66283781,-0.3364141583442688
66.28576300,66285763,-0.331625759601593,66285763,-0.331625759601593
66.28836500,66288365,-0.331625759601593,66288365,-0.331625759601593
66.29097200,66290972,-0.3364141583442688,66290972,-0.3364141583442688
66.29357500,66293575,-0.3412025570869446,66293575,-0.3412025570869446
66.29618500,66296185,-0.34599095582962036,66296185,-0.34599095582962036
66.29879000,66298790,-0.3507794141769409,66298790,-0.3507794141769409
66.30140800,66301408,-0.3555678129196167,66301408,-0.3555678129196167
66.30401400,66304014,-0.3507794141769409,66304014,-0.3507794141769409
66.30599000,66305990,-0.34599095582962036,66305990,-0.34599095582962036
66.30859500,66308595,-0.34599095582962036,66308595,-0.34599095582962036
66.31120400,66311204,-0.34599095582962036,66311204,-0.34599095582962036
66.31381900,66313819,-0.34599095582962036,66313819,-0.34599095582962036
66.31642400,66316424,-0.3507794141769409,66316424,-0.3507794141769409
66.31902100,66319021,-0.3555678129196167,66319021,-0.3555678129196167
66.32163300,66321633,-0.36514461040496826,66321633,-0.36514461040496826
66.32423400,66324234,-0.36993300914764404,66324234,-0.36993300914764404
66.32621200,66326212,-0.3747214078903198,66326212,-0.3747214078903198
66.32881500,66328815,-0.36993300914764404,66328815,-0.36993300914764404
66.33142400,66331424,-0.36993300914764404,66331424,-0.36993300914764404
66.33402700,66334027,-0.3603562116622925,66334027,-0.3603562116622925
66.33662900,66336629,-0.3603562116622925,66336629,-0.3603562116622925
66.33923700,66339237,-0.3555678129196167,66339237,-0.3555678129196167
66.34184200,66341842,-0.3603562116622925,66341842,-0.3603562116622925
66.34444400,66344444,-0.3603562116622925,66344444,-0.3603562116622925
66.34706200,66347062,-0.3555678129196167,66347062,-0.3555678129196167
66.34904500,66349045,-0.3507794141769409,66349045,-0.3507794141769409
66.35164500,66351645,-0.3507794141769409,66351645,-0.3507794141769409
66.35426100,66354261,-0.3507794141769409,66354261,-0.3507794141769409
66.35686200,66356862,-0.3555678129196167,66356862,-0.3555678129196167
66.35946100,66359461,-0.3603562116622925,66359461,-0.3603562116622925
66.36207300,66362073,-0.36993300914764404,66362073,-0.36993300914764404
66.36467400,66364674,-0.3747214078903198,66364674,-0.3747214078903198
66.36728900,66367289,-0.3747214078903198,66367289,-0.3747214078903198
66.36927200,66369272,-0.3747214078903198,66369272,-0.3747214078903198
66.37188100,66371881,-0.36993300914764404,66371881,-0.36993300914764404
66.37448700,66374487,-0.3747214078903198,66374487,-0.3747214078903198
66.37709000,66377090,-0.36514461040496826,66377090,-0.36514461040496826
66.37969300,66379693,-0.36514461040496826,66379693,-0.36514461040496826
66.38230200,66382302,-0.3555678129196167,66382302,-0.3555678129196167
66.38490800,66384908,-0.3555678129196167,66384908,-0.3555678129196167
66.38688900,66386889,-0.3507794141769409,66386889,-0.3507794141769409
66.38949500,66389495,-0.3507794141769409,66389495,-0.3507794141769409
66.39209600,66392096,-0.3555678129196167,66392096,-0.3555678129196167
66.39470200,66394702,-0.3603562116622925,66394702,-0.3603562116622925
66.39731200,66397312,-0.36514461040496826,66397312,-0.36514461040496826
66.39990800,66399908,-0.36514461040496826,66399908,-0.36514461040496826
66.40252300,66402523,-0.3603562116622925,66402523,-0.3603562116622925
66.40512000,66405120,-0.3507794141769409,66405120,-0.3507794141769409
66.40772500,66407725,-0.34599095582962036,66407725,-0.34599095582962036
66.40971900,66409719,-0.3412025570869446,66409719,-0.3412025570869446
66.41232100,66412321,-0.3364141583442688,66412321,-0.3364141583442688
66.41493300,66414933,-0.3364141583442688,66414933,-0.3364141583442688
66.41753700,66417537,-0.3364141583442688,66417537,-0.3364141583442688
66.42013900,66420139,-0.3412025570869446,66420139,-0.3412025570869446
66.42275000,66422750,-0.3412025570869446,66422750,-0.3412025570869446
66.42535200,66425352,-0.3412025570869446,66425352,-0.3412025570869446
66.42796800,66427968,-0.331625759601593,66427968,-0.331625759601593
66.42995200,66429952,-0.331625759601593,66429952,-0.331625759601593
66.43254600,66432546,-0.32683736085891724,66432546,-0.32683736085891724
66.43515300,66435153,-0.32683736085891724,66435153,-0.32683736085891724
66.43776100,66437761,-0.32683736085891724,66437761,-0.32683736085891724
66.44036200,66440362,-0.331625759601593,66440362,-0.331625759601593
66.44296800,66442968,-0.331625759601593,66442968,-0.331625759601593
66.44557000,66445570,-0.3364141583442688,66445570,-0.3364141583442688
66.44818600,66448186,-0.3412025570869446,66448186,-0.3412025570869446
66.45016900,66450169,-0.3412025570869446,66450169,-0.3412025570869446
66.45277000,66452770,-0.3412025570869446,66452770,-0.3412025570869446
66.45537900,66455379,-0.3412025570869446,66455379,-0.3412025570869446
66.45798200,66457982,-0.3412025570869446,66457982,-0.3412025570869446
66.46058500,66460585,-0.34599095582962036,66460585,-0.34599095582962036
66.46320100,66463201,-0.34599095582962036,66463201,-0.34599095582962036
66.46579800,66465798,-0.3555678129196167,66465798,-0.3555678129196167
66.46841800,66468418,-0.3555678129196167,66468418,-0.3555678129196167
66.47040500,66470405,-0.3603562116622925,66470405,-0.3603562116622925
66.47300400,66473004,-0.3555678129196167,66473004,-0.3555678129196167
66.47561100,66475611,-0.3603562116622925,66475611,-0.3603562116622925
66.47821300,66478213,-0.3603562116622925,66478213,-0.3603562116622925
66.48082000,66480820,-0.3603562116622925,66480820,-0.3603562116622925
66.48342300,66483423,-0.36993300914764404,66483423,-0.36993300914764404
66.48603400,66486034,-0.36993300914764404,66486034,-0.36993300914764404
66.48864400,66488644,-0.3747214078903198,66488644,-0.3747214078903198
66.49063800,66490638,-0.3747214078903198,66490638,-0.3747214078903198
66.49324000,66493240,-0.36993300914764404,66493240,-0.36993300914764404
66.49590700,66495907,-0.36993300914764404,66495907,-0.36993300914764404
66.49845200,66498452,-0.3555678129196167,66498452,-0.3555678129196167
66.50106500,66501065,-0.3603562116622925,66501065,-0.3603562116622925
66.50366200,66503662,-0.3555678129196167,66503662,-0.3555678129196167
66.50627000,66506270,-0.3555678129196167,66506270,-0.3555678129196167
66.50887100,66508871,-0.3603562116622925,66508871,-0.3603562116622925
66.51085400,66510854,-0.3555678129196167,66510854,-0.3555678129196167
66.51345800,66513458,-0.3603562116622925,66513458,-0.3603562116622925
66.51607500,66516075,-0.3555678129196167,66516075,-0.3555678129196167
66.51867500,66518675,-0.3555678129196167,66518675,-0.3555678129196167
66.52127700,66521277,-0.3555678129196167,66521277,-0.3555678129196167
66.52388900,66523889,-0.3555678129196167,66523889,-0.3555678129196167
66.52648900,66526489,-0.3507794141769409,66526489,-0.3507794141769409
66.52909700,66529097,-0.34599095582962036,66529097,-0.34599095582962036
66.53108200,66531082,-0.34599095582962036,66531082,-0.34599095582962036
66.53368400,66533684,-0.3364141583442688,66533684,-0.3364141583442688
66.53628900,66536289,-0.331625759601593,66536289,-0.331625759601593
66.53889700,66538897,-0.3364141583442688,66538897,-0.3364141583442688
66.54149800,66541498,-0.3412025570869446,66541498,-0.3412025570869446
66.54411300,66544113,-0.3412025570869446,66544113,-0.3412025570869446
66.54671800,66546718,-0.34599095582962036,66546718,-0.34599095582962036
66.54932600,66549326,-0.34599095582962036,66549326,-0.34599095582962036
66.55131300,66551313,-0.34599095582962036,66551313,-0.34599095582962036
66.55391700,66553917,-0.34599095582962036,66553917,-0.34599095582962036
66.55653100,66556531,-0.34599095582962036,66556531,-0.34599095582962036
66.55913600,66559136,-0.3412025570869446,66559136,-0.3412025570869446
66.56173800,66561738,-0.3364141583442688,66561738,-0.3364141583442688
66.56434800,66564348,-0.3364141583442688,66564348,-0.3364141583442688
66.56695200,66566952,-0.3364141583442688,66566952,-0.3364141583442688
66.56957000,66569570,-0.3412025570869446,66569570,-0.3412025570869446
66.57154800,66571548,-0.3507794141769409,66571548,-0.3507794141769409
66.57415100,66574151,-0.3507794141769409,66574151,-0.3507794141769409
66.57676300,66576763,-0.3555678129196167,66576763,-0.3555678129196167
66.57936900,66579369,-0.3555678129196167,66579369,-0.3555678129196167
66.58196800,66581968,-0.3507794141769409,66581968,-0.3507794141769409
66.58457100,66584571,-0.34599095582962036,66584571,-0.34599095582962036
66.58717900,66587179,-0.3364141583442688,66587179,-0.3364141583442688
66.58984200,66589842,-0.3364141583442688,66589842,-0.3364141583442688
66.59178200,66591782,-0.3364141583442688,66591782,-0.3364141583442688
66.59438400,66594384,-0.3364141583442688,66594384,-0.3364141583442688
66.59699800,66596998,-0.3412025570869446,66596998,-0.3412025570869446
66.59959700,66599597,-0.34599095582962036,66599597,-0.34599095582962036
66.60220200,66602202,-0.3507794141769409,66602202,-0.3507794141769409
66.60481600,66604816,-0.3507794141769409,66604816,-0.3507794141769409
66.60741800,66607418,-0.3507794141769409,66607418,-0.3507794141769409
66.60939500,66609395,-0.3555678129196167,66609395,-0.3555678129196167
66.61200100,66612001,-0.3555678129196167,66612001,-0.3555678129196167
66.61460900,66614609,-0.3603562116622925,66614609,-0.3603562116622925
66.61721100,66617211,-0.3603562116622925,66617211,-0.3603562116622925
66.61981500,66619815,-0.3603562116622925,66619815,-0.3603562116622925
66.62241500,66622415,-0.3603562116622925,66622415,-0.3603562116622925
66.62503100,66625031,-0.3555678129196167,66625031,-0.3555678129196167
66.62763700,66627637,-0.3555678129196167,66627637,-0.3555678129196167
66.63024000,66630240,-0.3507794141769409,66630240,-0.3507794141769409
66.63222500,66632225,-0.3412025570869446,66632225,-0.3412025570869446
66.63481800,66634818,-0.3364141583442688,66634818,-0.3364141583442688
66.63742600,66637426,-0.331625759601593,66637426,-0.331625759601593
66.64008400,66640084,-0.331625759601593,66640084,-0.331625759601593
66.64263600,66642636,-0.3364141583442688,66642636,-0.3364141583442688
66.64523900,66645239,-0.3412025570869446,66645239,-0.3412025570869446
66.64783800,66647838,-0.34599095582962036,66647838,-0.34599095582962036
66.65044300,66650443,-0.3507794141769409,66650443,-0.3507794141769409
66.65242400,66652424,-0.3555678129196167,66652424,-0.3555678129196167
66.65503100,66655031,-0.3555678129196167,66655031,-0.3555678129196167
66.65763800,66657638,-0.3507794141769409,66657638,-0.3507794141769409
66.66024000,66660240,-0.3412025570869446,66660240,-0.3412025570869446
66.66285400,66662854,-0.3364141583442688,66662854,-0.3364141583442688
66.66546100,66665461,-0.3364141583442688,66665461,-0.3364141583442688
66.66806200,66668062,-0.3364141583442688,66668062,-0.3364141583442688
66.67067400,66670674,-0.3412025570869446,66670674,-0.3412025570869446
66.67266400,66672664,-0.34599095582962036,66672664,-0.34599095582962036
66.67526700,66675267,-0.34599095582962036,66675267,-0.34599095582962036
66.67787500,66677875,-0.3555678129196167,66677875,-0.3555678129196167
66.68048000,66680480,-0.3507794141769409,66680480,-0.3507794141769409
66.68308800,66683088,-0.3507794141769409,66683088,-0.3507794141769409
66.68569600,66685696,-0.3507794141769409,66685696,-0.3507794141769409
66.68830400,66688304,-0.34599095582962036,66688304,-0.34599095582962036
66.69091500,66690915,-0.3507794141769409,66690915,-0.3507794141769409
66.69290100,66692901,-0.3507794141769409,66692901,-0.3507794141769409
66.69550600,66695506,-0.3555678129196167,66695506,-0.3555678129196167
66.69812100,66698121,-0.3555678129196167,66698121,-0.3555678129196167
66.70072700,66700727,-0.3603562116622925,66700727,-0.3603562116622925
66.70333000,66703330,-0.36514461040496826,66703330,-0.36514461040496826
66.70593700,66705937,-0.3603562116622925,66705937,-0.3603562116622925
66.70853900,66708539,-0.3603562116622925,66708539,-0.3603562116622925
66.71114900,66711149,-0.3507794141769409,66711149,-0.3507794141769409
66.71313300,66713133,-0.34599095582962036,66713133,-0.34599095582962036
66.71573600,66715736,-0.3412025570869446,66715736,-0.3412025570869446
66.71834600,66718346,-0.3412025570869446,66718346,-0.3412025570869446
66.72095100,66720951,-0.3412025570869446,66720951,-0.3412025570869446
66.72355500,66723555,-0.3412025570869446,66723555,-0.3412025570869446
66.72616100,66726161,-0.34599095582962036,66726161,-0.34599095582962036
66.72877100,66728771,-0.34599095582962036,66728771,-0.34599095582962036
66.73138100,66731381,-0.34599095582962036,66731381,-0.34599095582962036
66.73336000,66733360,-0.3507794141769409,66733360,-0.3507794141769409
66.73596500,66735965,-0.36514461040496826,66735965,-0.36514461040496826
66.73857500,66738575,-0.36993300914764404,66738575,-0.36993300914764404
66.74118100,66741181,-0.3747214078903198,66741181,-0.3747214078903198
66.74377900,66743779,-0.3747214078903198,66743779,-0.3747214078903198
66.74639200,66746392,-0.36993300914764404,66746392,-0.36993300914764404
66.74900000,66749000,-0.3603562116622925,66749000,-0.3603562116622925
66.75160900,66751609,-0.3555678129196167,66751609,-0.3555678129196167
66.75358700,66753587,-0.3555678129196167,66753587,-0.3555678129196167
66.75619600,66756196,-0.3555678129196167,66756196,-0.3555678129196167
66.75880300,66758803,-0.3507794141769409,66758803,-0.3507794141769409
66.76140200,66761402,-0.34599095582962036,66761402,-0.34599095582962036
66.76400200,66764002,-0.3412025570869446,66764002,-0.3412025570869446
66.76661300,66766613,-0.3364141583442688,66766613,-0.3364141583442688
66.76921700,66769217,-0.331625759601593,66769217,-0.331625759601593
66.77182500,66771825,-0.331625759601593,66771825,-0.331625759601593
66.77380500,66773805,-0.32683736085891724,66773805,-0.32683736085891724
66.77640600,66776406,-0.32204896211624146,66776406,-0.32204896211624146
66.77901700,66779017,-0.3172605633735657,66779017,-0.3172605633735657
66.78163100,66781631,-0.3172605633735657,66781631,-0.3172605633735657
66.78423100,66784231,-0.32204896211624146,66784231,-0.32204896211624146
66.78683500,66786835,-0.32683736085891724,66786835,-0.32683736085891724
66.78943900,66789439,-0.32683736085891724,66789439,-0.32683736085891724
66.79204900,66792049,-0.331625759601593,66792049,-0.331625759601593
66.79403200,66794032,-0.331625759601593,66794032,-0.331625759601593
66.79663000,66796630,-0.32683736085891724,66796630,-0.32683736085891724
66.79923900,66799239,-0.32683736085891724,66799239,-0.32683736085891724
66.80184300,66801843,-0.32204896211624146,66801843,-0.32204896211624146
66.80444800,66804448,-0.32204896211624146,66804448,-0.32204896211624146
66.80705800,66807058,-0.3172605633735657,66807058,-0.3172605633735657
66.80966200,66809662,-0.32204896211624146,66809662,-0.32204896211624146
66.81226900,66812269,-0.32683736085891724,66812269,-0.32683736085891724
66.81426700,66814267,-0.3364141583442688,66814267,-0.3364141583442688
66.81687000,66816870,-0.3507794141769409,66816870,-0.3507794141769409
66.81948200,66819482,-0.3555678129196167,66819482,-0.3555678129196167
66.82208700,66822087,-0.36514461040496826,66822087,-0.36514461040496826
66.82469100,66824691,-0.36514461040496826,66824691,-0.36514461040496826
66.82730600,66827306,-0.3603562116622925,66827306,-0.3603562116622925
66.82990800,66829908,-0.3603562116622925,66829908,-0.3603562116622925
66.83250800,66832508,-0.3555678129196167,66832508,-0.3555678129196167
66.83448600,66834486,-0.3555678129196167,66834486,-0.3555678129196167
66.83708600,66837086,-0.3507794141769409,66837086,-0.3507794141769409
66.83969000,66839690,-0.3555678129196167,66839690,-0.3555678129196167
66.84230600,66842306,-0.3555678129196167,66842306,-0.3555678129196167
66.84491200,66844912,-0.3555678129196167,66844912,-0.3555678129196167
66.84752400,66847524,-0.3603562116622925,66847524,-0.3603562116622925
66.85012900,66850129,-0.3603562116622925,66850129,-0.3603562116622925
66.85273200,66852732,-0.36993300914764404,66852732,-0.36993300914764404
66.85471200,66854712,-0.36993300914764404,66854712,-0.36993300914764404
66.85732200,66857322,-0.3747214078903198,66857322,-0.3747214078903198
66.85992400,66859924,-0.3747214078903198,66859924,-0.3747214078903198
66.86253800,66862538,-0.36993300914764404,66862538,-0.36993300914764404
66.86513200,66865132,-0.3603562116622925,66865132,-0.3603562116622925
66.86775000,66867750,-0.3555678129196167,66867750,-0.3555678129196167
66.87035400,66870354,-0.3507794141769409,66870354,-0.3507794141769409
66.87296200,66872962,-0.3507794141769409,66872962,-0.3507794141769409
66.87494700,66874947,-0.3507794141769409,66874947,-0.3507794141769409
66.87754800,66877548,-0.3555678129196167,66877548,-0.3555678129196167
66.88015500,66880155,-0.3507794141769409,66880155,-0.3507794141769409
66.88276100,66882761,-0.3507794141769409,66882761,-0.3507794141769409
66.88536800,66885368,-0.3507794141769409,66885368,-0.3507794141769409
66.88797500,66887975,-0.34599095582962036,66887975,-0.34599095582962036
66.89058000,66890580,-0.3507794141769409,66890580,-0.3507794141769409
66.89319000,66893190,-0.3555678129196167,66893190,-0.3555678129196167
66.89517500,66895175,-0.3603562116622925,66895175,-0.3603562116622925
66.89777900,66897779,-0.3603562116622925,66897779,-0.3603562116622925
66.90038600,66900386,-0.3555678129196167,66900386,-0.3555678129196167
66.90299800,66902998,-0.3555678129196167,66902998,-0.3555678129196167
66.90560100,66905601,-0.34599095582962036,66905601,-0.34599095582962036
66.90821000,66908210,-0.3412025570869446,66908210,-0.3412025570869446
66.91082400,66910824,-0.3412025570869446,66910824,-0.3412025570869446
66.91343000,66913430,-0.3364141583442688,66913430,-0.3364141583442688
66.91541300,66915413,-0.3364141583442688,66915413,-0.3364141583442688
66.91801500,66918015,-0.3364141583442688,66918015,-0.3364141583442688
66.92063100,66920631,-0.3412025570869446,66920631,-0.3412025570869446
66.92323000,66923230,-0.3364141583442688,66923230,-0.3364141583442688
66.92582900,66925829,-0.331625759601593,66925829,-0.331625759601593
66.92844800,66928448,-0.32683736085891724,66928448,-0.32683736085891724
66.93105300,66931053,-0.32204896211624146,66931053,-0.32204896211624146
66.93366000,66933660,-0.32683736085891724,66933660,-0.32683736085891724
66.93564000,66935640,-0.331625759601593,66935640,-0.331625759601593
66.93824200,66938242,-0.3364141583442688,66938242,-0.3364141583442688
66.94085600,66940856,-0.3412025570869446,66940856,-0.3412025570869446
66.94345700,66943457,-0.3412025570869446,66943457,-0.3412025570869446
66.94606500,66946065,-0.3412025570869446,66946065,-0.3412025570869446
66.94866500,66948665,-0.3412025570869446,66948665,-0.3412025570869446
66.95127300,66951273,-0.3412025570869446,66951273,-0.3412025570869446
66.95387800,66953878,-0.3412025570869446,66953878,-0.3412025570869446
66.95585800,66955858,-0.3412025570869446,66955858,-0.3412025570869446
66.95846000,66958460,-0.3412025570869446,66958460,-0.3412025570869446
66.96106400,66961064,-0.34599095582962036,66961064,-0.34599095582962036
66.96366500,66963665,-0.3507794141769409,66963665,-0.3507794141769409
66.96626800,66966268,-0.3555678129196167,66966268,-0.3555678129196167
66.96887600,66968876,-0.3603562116622925,66968876,-0.3603562116622925
66.97147900,66971479,-0.3603562116622925,66971479,-0.3603562116622925
66.97408300,66974083,-0.3603562116622925,66974083,-0.3603562116622925
66.97606500,66976065,-0.3603562116622925,66976065,-0.3603562116622925
66.97866800,66978668,-0.3603562116622925,66978668,-0.3603562116622925
66.98127300,66981273,-0.3555678129196167,66981273,-0.3555678129196167
66.98387400,66983874,-0.3555678129196167,66983874,-0.3555678129196167
66.98648000,66986480,-0.34599095582962036,66986480,-0.34599095582962036
66.98908200,66989082,-0.34599095582962036,66989082,-0.34599095582962036
66.99168700,66991687,-0.34599095582962036,66991687,-0.34599095582962036
66.99429400,66994294,-0.34599095582962036,66994294,-0.34599095582962036
66.99627600,66996276,-0.3507794141769409,66996276,-0.3507794141769409
66.99887500,66998875,-0.3507794141769409,66998875,-0.3507794141769409
67.00148700,67001487,-0.3507794141769409,67001487,-0.3507794141769409
67.00409100,67004091,-0.34599095582962036,67004091,-0.34599095582962036
67.00669300,67006693,-0.34599095582962036,67006693,-0.34599095582962036
67.00929800,67009298,-0.34599095582962036,67009298,-0.34599095582962036
67.01190600,67011906,-0.34599095582962036,67011906,-0.34599095582962036
67.01451000,67014510,-0.3507794141769409,67014510,-0.3507794141769409
67.01649500,67016495,-0.3555678129196167,67016495,-0.3555678129196167
67.01909600,67019096,-0.3507794141769409,67019096,-0.3507794141769409
67.02171000,67021710,-0.3555678129196167,67021710,-0.3555678129196167
67.02430900,67024309,-0.34599095582962036,67024309,-0.34599095582962036
67.02698200,67026982,-0.34599095582962036,67026982,-0.34599095582962036
67.02951700,67029517,-0.34599095582962036,67029517,-0.34599095582962036
67.03213000,67032130,-0.34599095582962036,67032130,-0.34599095582962036
67.03473900,67034739,-0.34599095582962036,67034739,-0.34599095582962036
67.03672800,67036728,-0.3507794141769409,67036728,-0.3507794141769409
67.03932800,67039328,-0.3507794141769409,67039328,-0.3507794141769409
67.04193600,67041936,-0.3507794141769409,67041936,-0.3507794141769409
67.04454100,67044541,-0.3555678129196167,67044541,-0.3555678129196167
67.04715300,67047153,-0.3555678129196167,67047153,-0.3555678129196167
67.04976100,67049761,-0.3555678129196167,67049761,-0.3555678129196167
67.05236600,67052366,-0.3555678129196167,67052366,-0.3555678129196167
67.05497300,67054973,-0.3507794141769409,67054973,-0.3507794141769409
67.05696100,67056961,-0.34599095582962036,67056961,-0.34599095582962036
67.05955900,67059559,-0.34599095582962036,67059559,-0.34599095582962036
67.06216200,67062162,-0.3507794141769409,67062162,-0.3507794141769409
67.06476900,67064769,-0.3555678129196167,67064769,-0.3555678129196167
67.06737000,67067370,-0.3555678129196167,67067370,-0.3555678129196167
67.06997700,67069977,-0.3603562116622925,67069977,-0.3603562116622925
67.07257800,67072578,-0.3603562116622925,67072578,-0.3603562116622925
67.07518800,67075188,-0.36514461040496826,67075188,-0.36514461040496826
67.07779400,67077794,-0.3603562116622925,67077794,-0.3603562116622925
67.07977000,67079770,-0.3603562116622925,67079770,-0.3603562116622925
67.08236700,67082367,-0.3555678129196167,67082367,-0.3555678129196167
67.08497700,67084977,-0.3603562116622925,67084977,-0.3603562116622925
67.08757900,67087579,-0.3603562116622925,67087579,-0.3603562116622925
67.09019100,67090191,-0.3603562116622925,67090191,-0.3603562116622925
67.09278800,67092788,-0.3555678129196167,67092788,-0.3555678129196167
67.09539800,67095398,-0.3507794141769409,67095398,-0.3507794141769409
67.09800200,67098002,-0.3507794141769409,67098002,-0.3507794141769409
67.09998200,67099982,-0.3507794141769409,67099982,-0.3507794141769409
67.10259400,67102594,-0.3603562116622925,67102594,-0.3603562116622925
67.10519800,67105198,-0.36514461040496826,67105198,-0.36514461040496826
67.10779900,67107799,-0.3747214078903198,67107799,-0.3747214078903198
67.11041900,67110419,-0.3747214078903198,67110419,-0.3747214078903198
67.11302200,67113022,-0.3747214078903198,67113022,-0.3747214078903198
67.11563100,67115631,-0.3747214078903198,67115631,-0.3747214078903198
67.11823900,67118239,-0.36993300914764404,67118239,-0.36993300914764404
67.12022200,67120222,-0.36993300914764404,67120222,-0.36993300914764404
67.12282700,67122827,-0.36993300914764404,67122827,-0.36993300914764404
67.12542900,67125429,-0.36993300914764404,67125429,-0.36993300914764404
67.12803400,67128034,-0.3603562116622925,67128034,-0.3603562116622925
67.13064200,67130642,-0.3507794141769409,67130642,-0.3507794141769409
67.13324600,67133246,-0.3412025570869446,67133246,-0.3412025570869446
67.13585300,67135853,-0.331625759601593,67135853,-0.331625759601593
67.13846300,67138463,-0.331625759601593,67138463,-0.331625759601593
67.14044900,67140449,-0.331625759601593,67140449,-0.331625759601593
67.14305400,67143054,-0.331625759601593,67143054,-0.331625759601593
67.14566200,67145662,-0.3364141583442688,67145662,-0.3364141583442688
67.14826000,67148260,-0.3364141583442688,67148260,-0.3364141583442688
67.15086800,67150868,-0.331625759601593,67150868,-0.331625759601593
67.15347700,67153477,-0.331625759601593,67153477,-0.331625759601593
67.15608700,67156087,-0.3364141583442688,67156087,-0.3364141583442688
67.15869000,67158690,-0.3364141583442688,67158690,-0.3364141583442688
67.16066800,67160668,-0.34599095582962036,67160668,-0.34599095582962036
67.16327900,67163279,-0.34599095582962036,67163279,-0.34599095582962036
67.16587800,67165878,-0.34599095582962036,67165878,-0.34599095582962036
67.16848000,67168480,-0.3412025570869446,67168480,-0.3412025570869446
67.17108600,67171086,-0.3364141583442688,67171086,-0.3364141583442688
67.17368800,67173688,-0.3364141583442688,67173688,-0.3364141583442688
67.17629700,67176297,-0.3412025570869446,67176297,-0.3412025570869446
67.17889700,67178897,-0.34599095582962036,67178897,-0.34599095582962036
67.18087500,67180875,-0.34599095582962036,67180875,-0.34599095582962036
67.18348500,67183485,-0.3507794141769409,67183485,-0.3507794141769409
67.18608600,67186086,-0.34599095582962036,67186086,-0.34599095582962036
67.18868500,67188685,-0.34599095582962036,67188685,-0.34599095582962036
67.19130100,67191301,-0.3412025570869446,67191301,-0.3412025570869446
67.19390500,67193905,-0.34599095582962036,67193905,-0.34599095582962036
67.19651200,67196512,-0.3412025570869446,67196512,-0.3412025570869446
67.19911300,67199113,-0.34599095582962036,67199113,-0.34599095582962036
67.20109100,67201091,-0.3507794141769409,67201091,-0.3507794141769409
67.20369900,67203699,-0.3603562116622925,67203699,-0.3603562116622925
67.20629800,67206298,-0.3603562116622925,67206298,-0.3603562116622925
67.20890100,67208901,-0.3603562116622925,67208901,-0.3603562116622925
67.21150500,67211505,-0.3555678129196167,67211505,-0.3555678129196167
67.21410900,67214109,-0.3507794141769409,67214109,-0.3507794141769409
67.21671800,67216718,-0.34599095582962036,67216718,-0.34599095582962036
67.21932200,67219322,-0.34599095582962036,67219322,-0.34599095582962036
67.22130000,67221300,-0.34599095582962036,67221300,-0.34599095582962036
67.22391000,67223910,-0.34599095582962036,67223910,-0.34599095582962036
67.22651700,67226517,-0.34599095582962036,67226517,-0.34599095582962036
67.22911800,67229118,-0.3507794141769409,67229118,-0.3507794141769409
67.23173000,67231730,-0.34599095582962036,67231730,-0.34599095582962036
67.23433000,67234330,-0.34599095582962036,67234330,-0.34599095582962036
67.23694400,67236944,-0.34599095582962036,67236944,-0.34599095582962036
67.23954100,67239541,-0.3507794141769409,67239541,-0.3507794141769409
67.24152000,67241520,-0.3507794141769409,67241520,-0.3507794141769409
67.24412300,67244123,-0.3507794141769409,67244123,-0.3507794141769409
67.24674100,67246741,-0.3507794141769409,67246741,-0.3507794141769409
67.24934200,67249342,-0.3507794141769409,67249342,-0.3507794141769409
67.25195200,67251952,-0.3507794141769409,67251952,-0.3507794141769409
67.25455700,67254557,-0.3603562116622925,67254557,-0.3603562116622925
67.25716900,67257169,-0.36514461040496826,67257169,-0.36514461040496826
67.25977900,67259779,-0.3603562116622925,67259779,-0.3603562116622925
67.26175400,67261754,-0.36514461040496826,67261754,-0.36514461040496826
67.26436100,67264361,-0.3555678129196167,67264361,-0.3555678129196167
67.26696000,67266960,-0.3507794141769409,67266960,-0.3507794141769409
67.26956400,67269564,-0.3507794141769409,67269564,-0.3507794141769409
67.27217200,67272172,-0.3507794141769409,67272172,-0.3507794141769409
67.27477800,67274778,-0.3507794141769409,67274778,-0.3507794141769409
67.27738200,67277382,-0.3555678129196167,67277382,-0.3555678129196167
67.27999300,67279993,-0.3507794141769409,67279993,-0.3507794141769409
67.28197100,67281971,-0.3507794141769409,67281971,-0.3507794141769409
67.28457500,67284575,-0.34599095582962036,67284575,-0.34599095582962036
67.28717600,67287176,-0.3412025570869446,67287176,-0.3412025570869446
67.28978000,67289780,-0.331625759601593,67289780,-0.331625759601593
67.29239000,67292390,-0.32683736085891724,67292390,-0.32683736085891724
67.29499100,67294991,-0.32683736085891724,67294991,-0.32683736085891724
67.29759400,67297594,-0.32683736085891724,67297594,-0.32683736085891724
67.30020100,67300201,-0.331625759601593,67300201,-0.331625759601593
67.30280500,67302805,-0.331625759601593,67302805,-0.331625759601593
67.30478900,67304789,-0.3364141583442688,67304789,-0.3364141583442688
67.30739100,67307391,-0.3364141583442688,67307391,-0.3364141583442688
67.31000600,67310006,-0.3364141583442688,67310006,-0.3364141583442688
67.31260800,67312608,-0.3364141583442688,67312608,-0.3364141583442688
67.31521200,67315212,-0.34599095582962036,67315212,-0.34599095582962036
67.31781100,67317811,-0.34599095582962036,67317811,-0.34599095582962036
67.32041700,67320417,-0.3555678129196167,67320417,-0.3555678129196167
67.32302400,67323024,-0.3555678129196167,67323024,-0.3555678129196167
67.32500200,67325002,-0.3507794141769409,67325002,-0.3507794141769409
67.32760000,67327600,-0.3507794141769409,67327600,-0.3507794141769409
67.33020500,67330205,-0.34599095582962036,67330205,-0.34599095582962036
67.33281100,67332811,-0.34599095582962036,67332811,-0.34599095582962036
67.33541300,67335413,-0.34599095582962036,67335413,-0.34599095582962036
67.33802900,67338029,-0.3507794141769409,67338029,-0.3507794141769409
67.34063600,67340636,-0.3555678129196167,67340636,-0.3555678129196167
67.34323900,67343239,-0.3555678129196167,67343239,-0.3555678129196167
67.34521800,67345218,-0.3507794141769409,67345218,-0.3507794141769409
67.34783400,67347834,-0.3412025570869446,67347834,-0.3412025570869446
67.35043800,67350438,-0.3364141583442688,67350438,-0.3364141583442688
67.35310200,67353102,-0.3364141583442688,67353102,-0.3364141583442688
67.35564300,67355643,-0.3364141583442688,67355643,-0.3364141583442688
67.35824500,67358245,-0.3507794141769409,67358245,-0.3507794141769409
67.36084800,67360848,-0.3603562116622925,67360848,-0.3603562116622925
67.36346200,67363462,-0.36514461040496826,67363462,-0.36514461040496826
