timestamp,TimeUS,I,GyrX,GyrY,GyrZ,AccX,AccY,AccZ,EG,EA,T,GH,AH,GHz,AHz
65.09659800,65096598,0,-0.001644690753892064,0.0007989229634404182,-0.0014657985884696245,-0.34667694568634033,0.4268922507762909,-9.767373085021973,0,0,36.038002014160156,1,1,337,337
65.09887800,65098878,0,-0.0017031392781063914,0.0005876648356206715,-0.0015370022738352418,-0.34696078300476074,0.42709264159202576,-9.76722240447998,0,0,36.038002014160156,1,1,337,337
65.10134400,65101344,0,-0.0014867434510961175,0.00017415628826711327,-0.0014255217975005507,-0.3473140001296997,0.42718860507011414,-9.767083168029785,0,0,36.038002014160156,1,1,337,337
65.10402900,65104029,0,-0.0010158051736652851,-8.40739012346603e-05,-0.0013042869977653027,-0.3477342128753662,0.4272114932537079,-9.766946792602539,0,0,36.038002014160156,1,1,337,337
65.10642300,65106423,0,-0.00047383332275785506,-7.846243534004316e-05,-0.0013343493919819593,-0.34820494055747986,0.4271688759326935,-9.766798973083496,0,0,36.038002014160156,1,1,337,337
65.10889000,65108890,0,-5.976097781967837e-06,5.399794099503197e-05,-0.001335587352514267,-0.34869712591171265,0.42703989148139954,-9.766629219055176,0,0,36.038002014160156,1,1,337,337
65.11138300,65111383,0,0.0002810282167047262,0.0001896717440104112,-0.0012620351044461131,-0.3491777181625366,0.4267854392528534,-9.766427040100098,0,0,36.038002014160156,1,1,337,337
65.11404100,65114041,0,0.00028593456954695284,0.00028378708520904183,-0.0012673166347667575,-0.3496170938014984,0.4263712763786316,-9.76618766784668,0,0,36.038002014160156,1,1,337,337
65.11649500,65116495,0,8.076858648564667e-06,0.00040070261457003653,-0.0012899198336526752,-0.35000306367874146,0.42578864097595215,-9.765925407409668,0,0,36.038002014160156,1,1,337,337
65.11883800,65118838,0,-0.0004071954754181206,0.000576067017391324,-0.001262750825844705,-0.3503319323062897,0.42505159974098206,-9.765657424926758,0,0,36.038002014160156,1,1,337,337
65.12137600,65121376,0,-0.0008013624465093017,0.000709499407093972,-0.0010362836765125394,-0.3505869507789612,0.4241877794265747,-9.765393257141113,0,0,36.038002014160156,1,1,337,337
65.12404100,65124041,0,-0.0010540359653532505,0.0006885001785121858,-0.0004571356112137437,-0.350760281085968,0.4232364594936371,-9.765127182006836,0,0,36.038002014160156,1,1,337,337
65.12638700,65126387,0,-0.001195598510093987,0.0005207292269915342,0.00021067231136839837,-0.35087358951568604,0.4222404360771179,-9.764839172363281,0,0,36.038002014160156,1,1,337,337
65.12888600,65128886,0,-0.0013136421330273151,0.0003705572453327477,0.0005996462423354387,-0.3509674370288849,0.42123809456825256,-9.764512062072754,0,0,36.038002014160156,1,1,337,337
65.13132500,65131325,0,-0.0013186156284064054,0.00039100961294025183,0.0007238526595756412,-0.35108524560928345,0.4202430248260498,-9.764139175415039,0,0,36.038002014160156,1,1,337,337
65.13400000,65134000,0,-0.0011985037708655,0.0005102957948110998,0.0007066267426125705,-0.3512657880783081,0.41923224925994873,-9.763711929321289,0,0,36.038002014160156,1,1,337,337
65.13640700,65136407,0,-0.0011900612153112888,0.0004736624541692436,0.000578712671995163,-0.3515363931655884,0.4181853234767914,-9.763233184814453,0,0,36.038002014160156,1,1,337,337
65.13888700,65138887,0,-0.0013350426452234387,0.00017589326307643205,0.00039907763130031526,-0.3518999516963959,0.41710519790649414,-9.762696266174316,0,0,36.038002014160156,1,1,337,337
65.14139100,65141391,0,-0.0014112418284639716,-0.0002443295088596642,0.0001506474072812125,-0.3523446321487427,0.41600868105888367,-9.762084007263184,0,0,36.038002014160156,1,1,337,337
65.14404700,65144047,0,-0.0013520896900445223,-0.0006916382699273527,-0.00011166505282744765,-0.3528662919998169,0.4149109125137329,-9.761392593383789,0,0,36.038002014160156,1,1,337,337
65.14633700,65146337,0,-0.0012191766873002052,-0.0011354205198585987,-0.00012349270400591195,-0.3534606993198395,0.41381141543388367,-9.760647773742676,0,0,36.038002014160156,1,1,337,337
65.14884300,65148843,0,-0.0011433316394686699,-0.0015003419248387218,0.00018705704133026302,-0.3541097640991211,0.4127027988433838,-9.759902954101562,0,0,36.038002014160156,1,1,337,337
65.15143900,65151439,0,-0.0012246555415913463,-0.0018079020082950592,0.0005685663782060146,-0.354790061712265,0.4115854799747467,-9.759218215942383,0,0,36.038002014160156,1,1,337,337
65.15404500,65154045,0,-0.0013038840843364596,-0.002019447274506092,0.0008932654745876789,-0.35548025369644165,0.41048097610473633,-9.758647918701172,0,0,36.038002014160156,1,1,337,337
65.15640500,65156405,0,-0.0012581326300278306,-0.0019497082103043795,0.001149216783232987,-0.35616829991340637,0.4094293415546417,-9.758230209350586,0,0,36.038002014160156,1,1,337,337
65.15884600,65158846,0,-0.0012872801162302494,-0.0016345500480383635,0.0012216100003570318,-0.35685744881629944,0.40847304463386536,-9.757987976074219,0,0,36.038002014160156,1,1,337,337
65.16133500,65161335,0,-0.0015015985118225217,-0.0012369193136692047,0.0010622991248965263,-0.357557475566864,0.4076427221298218,-9.75792407989502,0,0,36.038002014160156,1,1,337,337
65.16422600,65164226,0,-0.0017448191065341234,-0.0008334370795637369,0.0006966150249354541,-0.35827013850212097,0.40695086121559143,-9.758028030395508,0,0,36.038002014160156,1,1,337,337
65.16646100,65166461,0,-0.0018636869499459863,-0.0005276981391943991,0.00013307758490554988,-0.35897600650787354,0.4063870310783386,-9.75827407836914,0,0,36.038002014160156,1,1,337,337
65.16914200,65169142,0,-0.0018096810672432184,-0.00042807130375877023,-0.0003715307102538645,-0.3596436679363251,0.4059199392795563,-9.758625030517578,0,0,36.038002014160156,1,1,337,337
65.17172900,65171729,0,-0.0016879304312169552,-0.0004324832116253674,-0.0005563391605392098,-0.3602522909641266,0.40551427006721497,-9.759039878845215,0,0,36.038002014160156,1,1,337,337
65.17404500,65174045,0,-0.0015680169453844428,-0.0004692373040597886,-0.00047419298789463937,-0.36079052090644836,0.40514495968818665,-9.759488105773926,0,0,36.038002014160156,1,1,337,337
65.17636800,65176368,0,-0.001375775900669396,-0.0006363443098962307,-0.00018524893675930798,-0.3612416982650757,0.4048033058643341,-9.759957313537598,0,0,36.038002014160156,1,1,337,337
65.17892200,65178922,0,-0.0011614857940003276,-0.0008337871986441314,0.00010854357242351398,-0.36158424615859985,0.4045024514198303,-9.760441780090332,0,0,36.038002014160156,1,1,337,337
65.18153800,65181538,0,-0.0010436857119202614,-0.0009702624520286918,0.00020068450248800218,-0.3617997467517853,0.4042747914791107,-9.760944366455078,0,0,36.038002014160156,1,1,337,337
65.18429300,65184293,0,-0.0009093835251405835,-0.0010558773064985871,0.00013465099618770182,-0.36185821890830994,0.4041489362716675,-9.761466026306152,0,0,36.038002014160156,1,1,337,337
65.18674600,65186746,0,-0.0006646554102189839,-0.0009869430214166641,6.846446194685996e-05,-0.3617269694805145,0.40412887930870056,-9.762003898620605,0,0,36.038002014160156,1,1,337,337
65.18934500,65189345,0,-0.0004673707881011069,-0.0008051430340856314,0.00018210279813501984,-0.3613847494125366,0.40418970584869385,-9.762566566467285,0,0,36.038002014160156,1,1,337,337
65.19133000,65191330,0,-0.0005498580285347998,-0.000547364994417876,0.00027477560797706246,-0.3608137369155884,0.40428757667541504,-9.763175964355469,0,0,36.038002014160156,1,1,337,337
65.19422900,65194229,0,-0.0009330766624771059,-9.970172686735168e-05,0.00011466690193628892,-0.36001333594322205,0.40439000725746155,-9.76384449005127,0,0,36.038002014160156,1,1,337,337
65.19657100,65196571,0,-0.0013377860886976123,0.0003544276987668127,-0.00012024426541756839,-0.3589984178543091,0.4045029878616333,-9.764568328857422,0,0,36.038002014160156,1,1,337,337
65.19912300,65199123,0,-0.0016250880435109138,0.0005041491240262985,-0.0003164702211506665,-0.35779044032096863,0.4046526253223419,-9.765339851379395,0,0,36.038002014160156,1,1,337,337
65.20173100,65201731,0,-0.0018693858291953802,0.00031344449962489307,-0.0005837450153194368,-0.3564167022705078,0.4048622250556946,-9.766139030456543,0,0,36.038002014160156,1,1,337,337
65.20451600,65204516,0,-0.0019466308876872063,-2.9451726732077077e-05,-0.0009217859478667378,-0.3549027144908905,0.4051382839679718,-9.766939163208008,0,0,36.038002014160156,1,1,337,337
65.20695300,65206953,0,-0.0018014218658208847,-0.00033902519498951733,-0.001121221692301333,-0.35326507687568665,0.4054650664329529,-9.767708778381348,0,0,36.038002014160156,1,1,337,337
65.20964500,65209645,0,-0.0016553462482988834,-0.0006529822130687535,-0.0010730462381616235,-0.35151931643486023,0.40582147240638733,-9.768423080444336,0,0,36.038002014160156,1,1,337,337
65.21163900,65211639,0,-0.0014381703222170472,-0.0009931785752996802,-0.0009410287020727992,-0.34968703985214233,0.4061882793903351,-9.769078254699707,0,0,36.038002014160156,1,1,337,337
65.21444700,65214447,0,-0.0010296081891283393,-0.0011969610350206494,-0.0008888053707778454,-0.347788006067276,0.40654823184013367,-9.769682884216309,0,0,36.038002014160156,1,1,337,337
65.21694800,65216948,0,-0.0006094634882174432,-0.0012403399450704455,-0.0008894827915355563,-0.34585437178611755,0.4068860411643982,-9.770259857177734,0,0,36.038002014160156,1,1,337,337
65.21945800,65219458,0,-0.0003430561919230968,-0.0011840368388220668,-0.0008926219888962805,-0.3439289629459381,0.4071880280971527,-9.770822525024414,0,0,36.038002014160156,1,1,337,337
65.22205100,65222051,0,-0.0002828754368238151,-0.0010172019246965647,-0.0008968795882537961,-0.34205716848373413,0.40744221210479736,-9.771364212036133,0,0,36.038002014160156,1,1,337,337
65.22480400,65224804,0,-0.00035132982884533703,-0.0007165665738284588,-0.000872545933816582,-0.34030020236968994,0.4076520800590515,-9.771866798400879,0,0,36.038002014160156,1,1,337,337
65.22725800,65227258,0,-0.0004885620437562466,-0.0003691963211167604,-0.0007763244793750346,-0.3387192487716675,0.40784212946891785,-9.77231216430664,0,0,36.038002014160156,1,1,337,337
65.22984700,65229847,0,-0.0007380681927315891,-0.00020446476992219687,-0.0006767268059775233,-0.33735391497612,0.40803423523902893,-9.772674560546875,0,0,36.038002014160156,1,1,337,337
65.23184100,65231841,0,-0.0011710552498698235,-0.0003096693835686892,-0.0006722774123772979,-0.3362245559692383,0.40824106335639954,-9.772933959960938,0,0,36.038002014160156,1,1,337,337
65.23483000,65234830,0,-0.0016946822870522738,-0.0005921512492932379,-0.0008110364433377981,-0.33533382415771484,0.4084739089012146,-9.773085594177246,0,0,36.038002014160156,1,1,337,337
65.23705500,65237055,0,-0.0020714092534035444,-0.0009490778902545571,-0.0010483961086720228,-0.3346759080886841,0.40872856974601746,-9.773138999938965,0,0,36.038002014160156,1,1,337,337
65.23996500,65239965,0,-0.0022052384447306395,-0.001311502419412136,-0.0012033127713948488,-0.33423712849617004,0.4089873731136322,-9.773104667663574,0,0,36.038002014160156,1,1,337,337
65.24240200,65242402,0,-0.0021519598085433245,-0.0015516199637204409,-0.001177484169602394,-0.3339970111846924,0.40924134850502014,-9.772997856140137,0,0,36.038002014160156,1,1,337,337
65.24501100,65245011,0,-0.002080014441162348,-0.0016069666016846895,-0.0010474093724042177,-0.3339361250400543,0.4094965159893036,-9.772836685180664,0,0,36.038002014160156,1,1,337,337
65.24744900,65247449,0,-0.002004792680963874,-0.0016044934745877981,-0.0008984556770883501,-0.3340289294719696,0.4097652733325958,-9.772632598876953,0,0,36.038002014160156,1,1,337,337
65.25004900,65250049,0,-0.0017630037618800998,-0.001654426334425807,-0.0007256320677697659,-0.3342587351799011,0.41006559133529663,-9.772419929504395,0,0,36.038002014160156,1,1,337,337
65.25204500,65252045,0,-0.001419919659383595,-0.0016724092420190573,-0.0005285640363581479,-0.3346378207206726,0.410420298576355,-9.77224349975586,0,0,36.038002014160156,1,1,337,337
65.25481500,65254815,0,-0.001140320091508329,-0.0016119405627250671,-0.0003384439623914659,-0.33519017696380615,0.4108286499977112,-9.77214241027832,0,0,36.038002014160156,1,1,337,337
65.25726700,65257267,0,-0.0008997516706585884,-0.0015979293966665864,-0.00023057976795826107,-0.33592933416366577,0.4112686216831207,-9.772137641906738,0,0,36.038002014160156,1,1,337,337
65.25985900,65259859,0,-0.0007083065574988723,-0.001641739159822464,-0.0002118829288519919,-0.33683836460113525,0.41172027587890625,-9.772211074829102,0,0,36.038002014160156,1,1,337,337
65.26245500,65262455,0,-0.0007106169941835105,-0.00157108751591295,-0.0001904264499899,-0.33787307143211365,0.41216588020324707,-9.772327423095703,0,0,36.038002014160156,1,1,337,337
65.26522300,65265223,0,-0.0009138008463196456,-0.0012963232584297657,-0.00016965543909464031,-0.33898627758026123,0.41259634494781494,-9.772457122802734,0,0,36.038002014160156,1,1,337,337
65.26766600,65267666,0,-0.001127596478909254,-0.0009591810521669686,-0.00015153597632888705,-0.34013524651527405,0.4130108952522278,-9.772587776184082,0,0,36.038002014160156,1,1,337,337
65.27024800,65270248,0,-0.0011230092495679855,-0.0006503412150777876,-0.00013694576045963913,-0.341281533241272,0.41340166330337524,-9.77270221710205,0,0,36.038002014160156,1,1,337,337
65.27225400,65272254,0,-0.000903210137039423,-0.0003628587583079934,-0.00015481628361158073,-0.3423977494239807,0.41374796628952026,-9.772788047790527,0,0,36.038002014160156,1,1,337,337
65.27501500,65275015,0,-0.0006948974914848804,-0.00020548506290651858,-0.00016118492931127548,-0.34347355365753174,0.4140174090862274,-9.7728271484375,0,0,36.038002014160156,1,1,337,337
65.27747500,65277475,0,-0.0005447020521387458,-0.00025735012604855,-0.00021764016128145158,-0.34451383352279663,0.4141886532306671,-9.772802352905273,0,0,36.038002014160156,1,1,337,337
65.28015400,65280154,0,-0.00038757562288083136,-0.00039872725028544664,-0.00035524004488252103,-0.3455233573913574,0.41427096724510193,-9.77270793914795,0,0,36.038002014160156,1,1,337,337
65.28275500,65282755,0,-0.0003585053200367838,-0.00046265602577477694,-0.0004396380390971899,-0.34649935364723206,0.41428717970848083,-9.772549629211426,0,0,36.038002014160156,1,1,337,337
65.28551600,65285516,0,-0.0005235868156887591,-0.0003874278627336025,-0.00045461158151738346,-0.3474397361278534,0.4142511487007141,-9.772356986999512,0,0,36.038002014160156,1,1,337,337
65.28796000,65287960,0,-0.0008145921165123582,-0.0002955097588710487,-0.00045564593165181577,-0.3483496606349945,0.4141685962677002,-9.772163391113281,0,0,36.038002014160156,1,1,337,337
65.29055500,65290555,0,-0.001206295331940055,-0.0003188185510225594,-0.00039072695653885603,-0.3492550849914551,0.41404488682746887,-9.771997451782227,0,0,36.038002014160156,1,1,337,337
65.29254800,65292548,0,-0.0015001109568402171,-0.0004366388311609626,-0.0002649752714205533,-0.3501790761947632,0.41387805342674255,-9.771879196166992,0,0,36.038002014160156,1,1,337,337
65.29534000,65295340,0,-0.0015314313350245357,-0.0005976914544589818,-0.00017438011127524078,-0.35111430287361145,0.4136526584625244,-9.771824836730957,0,0,36.038002014160156,1,1,337,337
65.29777800,65297778,0,-0.0014615007676184177,-0.0007381413597613573,-0.00011439950321801007,-0.35203316807746887,0.41334816813468933,-9.771849632263184,0,0,36.038002014160156,1,1,337,337
65.30036000,65300360,0,-0.0015407222090288997,-0.0007072390289977193,-2.1447192921186797e-05,-0.3529040217399597,0.4129677414894104,-9.771943092346191,0,0,36.038002014160156,1,1,337,337
65.30296600,65302966,0,-0.0018148807575926185,-0.0004918219055980444,0.00013856840087100863,-0.35370585322380066,0.41254952549934387,-9.77207088470459,0,0,36.038002014160156,1,1,337,337
65.30570800,65305708,0,-0.0021172554697841406,-0.0003055963898077607,0.0002058262180071324,-0.35444122552871704,0.4121488630771637,-9.77219295501709,0,0,36.038002014160156,1,1,337,337
65.30818200,65308182,0,-0.002288475865498185,-0.000271965196589008,3.812094291788526e-05,-0.35512682795524597,0.4118151366710663,-9.772290229797363,0,0,36.038002014160156,1,1,337,337
65.31074500,65310745,0,-0.002277134917676449,-0.00036113071837462485,-0.00019301328575238585,-0.35578489303588867,0.41157132387161255,-9.77236270904541,0,0,36.038002014160156,1,1,337,337
65.31275900,65312759,0,-0.0020725256763398647,-0.0004845839866902679,-0.00032154860673472285,-0.3564424216747284,0.4114023745059967,-9.772435188293457,0,0,36.038002014160156,1,1,337,337
65.31552500,65315525,0,-0.0017179962014779449,-0.0005574091337621212,-0.00031784109887667,-0.35711660981178284,0.41127341985702515,-9.772526741027832,0,0,36.038002014160156,1,1,337,337
65.31806800,65318068,0,-0.0014569790801033378,-0.0005635851994156837,-9.225276880897582e-05,-0.35780876874923706,0.41116005182266235,-9.772642135620117,0,0,36.038002014160156,1,1,337,337
65.32056700,65320567,0,-0.0012795599177479744,-0.0005872101173736155,0.00029793233261443675,-0.3584989309310913,0.4110473394393921,-9.772777557373047,0,0,36.038002014160156,1,1,337,337
65.32323100,65323231,0,-0.0009692767052911222,-0.0006762008415535092,0.0005418553482741117,-0.35914137959480286,0.41093578934669495,-9.77292537689209,0,0,36.038002014160156,1,1,337,337
65.32591800,65325918,0,-0.0006426494801416993,-0.0007654870860278606,0.0005576162948273122,-0.3596743643283844,0.4108399748802185,-9.77304458618164,0,0,36.038002014160156,1,1,337,337
65.32838200,65328382,0,-0.0004280360008124262,-0.0008165020844899118,0.0004941406659781933,-0.36005744338035583,0.41075876355171204,-9.77308464050293,0,0,36.038002014160156,1,1,337,337
65.33095800,65330958,0,-0.00027416725060902536,-0.0008393371826969087,0.0004769831139128655,-0.3602900803089142,0.41067710518836975,-9.77299690246582,0,0,36.038002014160156,1,1,337,337
65.33294700,65332947,0,-0.00023049389710649848,-0.0008430150919593871,0.0005179036525078118,-0.3603937327861786,0.4105815291404724,-9.772753715515137,0,0,36.038002014160156,1,1,337,337
65.33605600,65336056,0,-0.00040076716686598957,-0.0007773637771606445,0.00044482789235189557,-0.36040234565734863,0.41045308113098145,-9.772357940673828,0,0,36.038002014160156,1,1,337,337
65.33818600,65338186,0,-0.0007081256480887532,-0.0005625798949040473,0.00022576333140023053,-0.36035382747650146,0.41026803851127625,-9.771842956542969,0,0,36.038002014160156,1,1,337,337
65.34075400,65340754,0,-0.0009770573815330863,-0.0002826996787916869,-2.7279653295408934e-05,-0.36026841402053833,0.41000548005104065,-9.771259307861328,0,0,36.038002014160156,1,1,337,337
65.34335500,65343355,0,-0.0012229504063725471,-0.00013849434617441148,-0.0003306740545667708,-0.36012956500053406,0.40966105461120605,-9.770651817321777,0,0,36.038002014160156,1,1,337,337
65.34611300,65346113,0,-0.0014574088854715228,-0.00023419372155331075,-0.0006886724731884897,-0.35990869998931885,0.40925946831703186,-9.770054817199707,0,0,36.038002014160156,1,1,337,337
65.34855600,65348556,0,-0.001573367277160287,-0.0004904132219962776,-0.0010978898499161005,-0.35959479212760925,0.4088439643383026,-9.769505500793457,0,0,36.038002014160156,1,1,337,337
65.35117100,65351171,0,-0.0016929927514865994,-0.0007851997506804764,-0.0014356106985360384,-0.35918545722961426,0.4084673523902893,-9.769044876098633,0,0,36.02400207519531,1,1,337,337
65.35316500,65353165,0,-0.0018018565606325865,-0.001013368833810091,-0.001492925570346415,-0.3586861491203308,0.4081697165966034,-9.768699645996094,0,0,36.02400207519531,1,1,337,337
65.35593100,65355931,0,-0.0017774043371900916,-0.0010910385753959417,-0.0014067786978557706,-0.3581092059612274,0.4079585075378418,-9.768481254577637,0,0,36.02400207519531,1,1,337,337
65.35838700,65358387,0,-0.0017054383642971516,-0.0009848043555393815,-0.0012737797806039453,-0.3574731945991516,0.40782585740089417,-9.76838493347168,0,0,36.02400207519531,1,1,337,337
65.36096200,65360962,0,-0.0016419080784544349,-0.0007811462855897844,-0.000983447185717523,-0.35680896043777466,0.4077572822570801,-9.768390655517578,0,0,36.02400207519531,1,1,337,337
65.36357900,65363579,0,-0.0016766219632700086,-0.000714571273420006,-0.0006025362526997924,-0.35615137219429016,0.4077324867248535,-9.768473625183105,0,0,36.02400207519531,1,1,337,337
65.36636800,65366368,0,-0.0018233503215014935,-0.0007939619827084243,-0.00035313222906552255,-0.355524480342865,0.4077400267124176,-9.768619537353516,0,0,36.02400207519531,1,1,337,337
65.36880000,65368800,0,-0.0019341710722073913,-0.0008072449709288776,-0.00029495154740288854,-0.35493576526641846,0.40777650475502014,-9.76881217956543,0,0,36.02400207519531,1,1,337,337
65.37137000,65371370,0,-0.0020117461681365967,-0.0007223558495752513,-0.0002699249016586691,-0.3543776869773865,0.4078455865383148,-9.769033432006836,0,0,36.02400207519531,1,1,337,337
65.37337400,65373374,0,-0.0021188321989029646,-0.0006460926961153746,-0.00029603129951283336,-0.3538362383842468,0.40795043110847473,-9.769264221191406,0,0,36.02400207519531,1,1,337,337
65.37613700,65376137,0,-0.002116644289344549,-0.0006119764293543994,-0.000378389930119738,-0.353305846452713,0.4080866873264313,-9.769482612609863,0,0,36.02400207519531,1,1,337,337
65.37860300,65378603,0,-0.0019348070491105318,-0.0005777147598564625,-0.00048515736125409603,-0.352788507938385,0.4082641303539276,-9.769658088684082,0,0,36.02400207519531,1,1,337,337
65.38118400,65381184,0,-0.0016374457627534866,-0.0005470713367685676,-0.0006812168285250664,-0.352285772562027,0.40849852561950684,-9.769768714904785,0,0,36.02400207519531,1,1,337,337
65.38378700,65383787,0,-0.0012750261230394244,-0.0006082634208723903,-0.0008225790224969387,-0.3517991602420807,0.40878236293792725,-9.769797325134277,0,0,36.02400207519531,1,1,337,337
65.38654300,65386543,0,-0.0009132608538493514,-0.0007460187771357596,-0.000657126191072166,-0.3513227105140686,0.40908798575401306,-9.769754409790039,0,0,36.02400207519531,1,1,337,337
65.38907200,65389072,0,-0.0006485815392807126,-0.0009142221533693373,-0.000270276446826756,-0.35084420442581177,0.40937623381614685,-9.769661903381348,0,0,36.02400207519531,1,1,337,337
65.39168700,65391687,0,-0.0006427724729292095,-0.0010534788016229868,9.068914368981495e-05,-0.3503526747226715,0.40960532426834106,-9.769530296325684,0,0,36.02400207519531,1,1,337,337
65.39360000,65393600,0,-0.0007908963016234338,-0.0011317440075799823,0.00031092073186300695,-0.34984534978866577,0.409738153219223,-9.769359588623047,0,0,36.02400207519531,1,1,337,337
65.39646900,65396469,0,-0.0010141660459339619,-0.001194221549667418,0.00039520522113889456,-0.34934085607528687,0.4097561836242676,-9.769131660461426,0,0,36.02400207519531,1,1,337,337
65.39883000,65398830,0,-0.0014017656212672591,-0.0012118013110011816,0.0005338350892998278,-0.34887683391571045,0.4096713066101074,-9.768827438354492,0,0,36.02400207519531,1,1,337,337
65.40141500,65401415,0,-0.0016432246193289757,-0.001143305329605937,0.0006896608974784613,-0.34848660230636597,0.4095158278942108,-9.768441200256348,0,0,36.02400207519531,1,1,337,337
65.40402300,65404023,0,-0.0015992734115570784,-0.0009448599885217845,0.0007236501551233232,-0.34817877411842346,0.40932607650756836,-9.767999649047852,0,0,36.02400207519531,1,1,337,337
65.40685000,65406850,0,-0.0015638115582987666,-0.0006621191860176623,0.0006242255331017077,-0.347946435213089,0.40912771224975586,-9.767538070678711,0,0,36.02400207519531,1,1,337,337
65.40930500,65409305,0,-0.0015947978245094419,-0.0005039925454184413,0.0003413683734834194,-0.34779003262519836,0.4089297652244568,-9.767087936401367,0,0,36.02400207519531,1,1,337,337
65.41190800,65411908,0,-0.0015466117765754461,-0.0005807256093248725,-1.953818900801707e-05,-0.34771642088890076,0.40873339772224426,-9.766674995422363,0,0,36.02400207519531,1,1,337,337
65.41380900,65413809,0,-0.0014567490434274077,-0.0007306616753339767,-0.0002436806244077161,-0.34771737456321716,0.4085465669631958,-9.766316413879395,0,0,36.02400207519531,1,1,337,337
65.41668800,65416688,0,-0.001438300241716206,-0.0008213589899241924,-0.0003050109080504626,-0.3477640748023987,0.4083763062953949,-9.76603889465332,0,0,36.02400207519531,1,1,337,337
65.41922900,65419229,0,-0.0014065513387322426,-0.0009823422878980637,-0.0002920853439718485,-0.3478234112262726,0.4082149565219879,-9.765847206115723,0,0,36.02400207519531,1,1,337,337
65.42169900,65421699,0,-0.001312771812081337,-0.0012251315638422966,-0.0002941689745057374,-0.34786587953567505,0.4080554246902466,-9.765740394592285,0,0,36.02400207519531,1,1,337,337
65.42432400,65424324,0,-0.0012499828590080142,-0.0013749448116868734,-0.0003912957909051329,-0.347871869802475,0.40791255235671997,-9.765725135803223,0,0,36.02400207519531,1,1,337,337
65.42700300,65427003,0,-0.0012699216604232788,-0.0014247068902477622,-0.0004766205092892051,-0.34784525632858276,0.40781328082084656,-9.765790939331055,0,0,36.02400207519531,1,1,337,337
65.42953000,65429530,0,-0.0013366966741159558,-0.0013810446253046393,-0.0004881445784121752,-0.34780359268188477,0.407781720161438,-9.76591682434082,0,0,36.02400207519531,1,1,337,337
65.43203400,65432034,0,-0.0013664026046171784,-0.0012579829199239612,-0.00045471740304492414,-0.34776270389556885,0.4078247845172882,-9.76608657836914,0,0,36.02400207519531,1,1,337,337
65.43404800,65434048,0,-0.0014285310171544552,-0.0011299983598291874,-0.00039828376611694694,-0.3477437198162079,0.4079275131225586,-9.766288757324219,0,0,36.02400207519531,1,1,337,337
65.43709100,65437091,0,-0.0015031432267278433,-0.0009553487179800868,-0.00042070666677318513,-0.3477584719657898,0.4080689549446106,-9.76648998260498,0,0,36.02400207519531,1,1,337,337
65.43934100,65439341,0,-0.0015194951556622982,-0.0007431524572893977,-0.0004874047008343041,-0.34779632091522217,0.4082232713699341,-9.766654014587402,0,0,36.02400207519531,1,1,337,337
65.44190400,65441904,0,-0.0015283705433830619,-0.000704422069247812,-0.00048673199489712715,-0.3478405773639679,0.40837422013282776,-9.766770362854004,0,0,36.02400207519531,1,1,337,337
65.44454000,65444540,0,-0.0015318585792556405,-0.0008301931666210294,-0.0005326144746504724,-0.3478763699531555,0.40852126479148865,-9.766844749450684,0,0,36.02400207519531,1,1,337,337
65.44721200,65447212,0,-0.0016181591199710965,-0.0009246124536730349,-0.0007450732518918812,-0.34789735078811646,0.4086570143699646,-9.766885757446289,0,0,36.02400207519531,1,1,337,337
65.44975300,65449753,0,-0.001801758073270321,-0.0009902568999677896,-0.0009756233193911612,-0.3479050099849701,0.40878182649612427,-9.766911506652832,0,0,36.02400207519531,1,1,337,337
65.45226100,65452261,0,-0.002051921561360359,-0.0009453837992623448,-0.001134374993853271,-0.3479076325893402,0.4089171290397644,-9.766932487487793,0,0,36.02400207519531,1,1,337,337
65.45425300,65454253,0,-0.002372045535594225,-0.0007823260966688395,-0.0012334438506513834,-0.34792670607566833,0.40908193588256836,-9.766947746276855,0,0,36.02400207519531,1,1,337,337
65.45711900,65457119,0,-0.0025838175788521767,-0.0006244941032491624,-0.0013152508763596416,-0.3479744493961334,0.4092652201652527,-9.766949653625488,0,0,36.02400207519531,1,1,337,337
65.45948500,65459485,0,-0.0025357676204293966,-0.00048682058695703745,-0.0015507504576817155,-0.34804052114486694,0.409415066242218,-9.76693344116211,0,0,36.02400207519531,1,1,337,337
65.46213100,65462131,0,-0.0022238707169890404,-0.00043355615343898535,-0.0018230137648060918,-0.3481086790561676,0.4094781279563904,-9.766915321350098,0,0,36.02400207519531,1,1,337,337
65.46475100,65464751,0,-0.0017606490291655064,-0.00037845131009817123,-0.0018572671106085181,-0.34816423058509827,0.409428209066391,-9.766916275024414,0,0,36.02400207519531,1,1,337,337
65.46742400,65467424,0,-0.0013730652863159776,-0.00027062755543738604,-0.0016892794519662857,-0.3482012450695038,0.4092635214328766,-9.76694107055664,0,0,36.02400207519531,1,1,337,337
65.46996200,65469962,0,-0.0011009714799001813,-0.0002584137546364218,-0.001506064785644412,-0.34823542833328247,0.4090180993080139,-9.76698112487793,0,0,36.02400207519531,1,1,337,337
65.47247600,65472476,0,-0.0009266887209378183,-0.0003329346072860062,-0.0013912272406741977,-0.34830185770988464,0.40874379873275757,-9.76700496673584,0,0,36.02400207519531,1,1,337,337
65.47508200,65475082,0,-0.0009155526640824974,-0.0004219702968839556,-0.0013868851820006967,-0.34844568371772766,0.40849417448043823,-9.76698112487793,0,0,36.02400207519531,1,1,337,337
65.47739800,65477398,0,-0.001031030435115099,-0.00042359589133411646,-0.0014772420981898904,-0.3486998677253723,0.4083240330219269,-9.766899108886719,0,0,36.02400207519531,1,1,337,337
65.47976300,65479763,0,-0.0011226254282519221,-0.00031569425482302904,-0.0015275318874046206,-0.3490583896636963,0.4082679748535156,-9.766766548156738,0,0,36.02400207519531,1,1,337,337
65.48233100,65482331,0,-0.0011325873201712966,-0.00015459550195373595,-0.001519863260909915,-0.3494940996170044,0.40833526849746704,-9.76658821105957,0,0,36.02400207519531,1,1,337,337
65.48497400,65484974,0,-0.0011795085156336427,2.0589999621734023e-05,-0.0014499069657176733,-0.3499753773212433,0.40851956605911255,-9.766377449035645,0,0,36.02400207519531,1,1,337,337
65.48764900,65487649,0,-0.0011280712205916643,4.121127858525142e-05,-0.0012354535283520818,-0.35046669840812683,0.40879353880882263,-9.766144752502441,0,0,36.02400207519531,1,1,337,337
65.49019900,65490199,0,-0.0009087732760235667,-0.00011831078154500574,-0.0009010265930555761,-0.3509361147880554,0.4091181755065918,-9.765889167785645,0,0,36.02400207519531,1,1,337,337
65.49270900,65492709,0,-0.0007577425567433238,-0.00028088860563002527,-0.0006468798965215683,-0.3513622581958771,0.40945830941200256,-9.765606880187988,0,0,36.02400207519531,1,1,337,337
65.49531400,65495314,0,-0.0006058820872567594,-0.0003989058022852987,-0.0006405122694559395,-0.3517471253871918,0.409782350063324,-9.765301704406738,0,0,36.02400207519531,1,1,337,337
65.49750900,65497509,0,-0.0002683953498490155,-0.0005641545285470784,-0.0007527763373218477,-0.35211387276649475,0.41006913781166077,-9.764979362487793,0,0,36.02400207519531,1,1,337,337
65.49994800,65499948,0,-3.0226257877075113e-05,-0.0007683017756789923,-0.0008655709680169821,-0.3524971902370453,0.41031381487846375,-9.764641761779785,0,0,36.02400207519531,1,1,337,337
65.50252300,65502523,0,-0.00013576277706306428,-0.0009158272296190262,-0.000966485240496695,-0.3529420495033264,0.41053345799446106,-9.764293670654297,0,0,36.02400207519531,1,1,337,337
65.50513600,65505136,0,-0.0002894677745644003,-0.001013871398754418,-0.000905487104319036,-0.35348132252693176,0.41076427698135376,-9.763944625854492,0,0,36.02400207519531,1,1,337,337
65.50789000,65507890,0,-0.0003111143596470356,-0.0011295989388599992,-0.0007839913596399128,-0.35411596298217773,0.4110387861728668,-9.763618469238281,0,0,36.02400207519531,1,1,337,337
65.51041000,65510410,0,-0.0003385945747140795,-0.0012432871153578162,-0.0008701502811163664,-0.3548251986503601,0.4113716781139374,-9.763335227966309,0,0,36.02400207519531,1,1,337,337
65.51291500,65512915,0,-0.00045293846051208675,-0.0012570963008329272,-0.0010699687991291285,-0.3555831015110016,0.4117479622364044,-9.76309871673584,0,0,36.02400207519531,1,1,337,337
65.51553000,65515530,0,-0.0007503279484808445,-0.0010950904106721282,-0.0011427343124523759,-0.3563590943813324,0.4121258854866028,-9.76290512084961,0,0,36.02400207519531,1,1,337,337
65.51770900,65517709,0,-0.0012103462358936667,-0.0007601006072945893,-0.0010460114572197199,-0.3571188449859619,0.4124681353569031,-9.7627534866333,0,0,36.02400207519531,1,1,337,337
65.52023700,65520237,0,-0.001601767260581255,-0.0004740587610285729,-0.0008881664834916592,-0.35783854126930237,0.41274845600128174,-9.762651443481445,0,0,36.02400207519531,1,1,337,337
65.52272600,65522726,0,-0.0018526595085859299,-0.0005358622875064611,-0.0007687765755690634,-0.35849729180336,0.412950724363327,-9.76262378692627,0,0,36.02400207519531,1,1,337,337
65.52534100,65525341,0,-0.002050791634246707,-0.0007681872230023146,-0.0007138609071262181,-0.3590696156024933,0.413068026304245,-9.762678146362305,0,0,36.02400207519531,1,1,337,337
65.52811300,65528113,0,-0.0021962577011436224,-0.000788445642683655,-0.0006454779068008065,-0.35954034328460693,0.4130946397781372,-9.762802124023438,0,0,36.02400207519531,1,1,337,337
65.53055300,65530553,0,-0.002150841522961855,-0.0007097197812981904,-0.0005477193626575172,-0.35990336537361145,0.41303297877311707,-9.762982368469238,0,0,36.02400207519531,1,1,337,337
65.53314600,65533146,0,-0.00185332668479532,-0.0006960593746043742,-0.0005295132868923247,-0.36014696955680847,0.4128996431827545,-9.763191223144531,0,0,36.02400207519531,1,1,337,337
65.53577300,65535773,0,-0.0014674764825031161,-0.0006360281258821487,-0.0005603870959021151,-0.36026129126548767,0.41270995140075684,-9.763402938842773,0,0,36.02400207519531,1,1,337,337
65.53815100,65538151,0,-0.0011574086965993047,-0.0004974393523298204,-0.000501815346069634,-0.36023828387260437,0.41247090697288513,-9.763609886169434,0,0,36.02400207519531,1,1,337,337
65.54041200,65540412,0,-0.0009833292569965124,-0.0003561048652045429,-0.00033901905408129096,-0.360057532787323,0.4121960997581482,-9.763810157775879,0,0,36.02400207519531,1,1,337,337
65.54295200,65542952,0,-0.0008510166662745178,-0.0002572178782429546,-0.0001896873873192817,-0.3596947193145752,0.41189783811569214,-9.763997077941895,0,0,36.02400207519531,1,1,337,337
65.54559500,65545595,0,-0.0006425704923458397,-0.0001941596419783309,-0.00032361410558223724,-0.3591361343860626,0.4115943908691406,-9.76416301727295,0,0,36.02400207519531,1,1,337,337
65.54831700,65548317,0,-0.00046915991697460413,-0.000274310092208907,-0.0008123621228151023,-0.3583846688270569,0.41131600737571716,-9.76431655883789,0,0,36.02400207519531,1,1,337,337
65.55076000,65550760,0,-0.0004216256202198565,-0.0005169843207113445,-0.0012568444944918156,-0.3574649691581726,0.4110756516456604,-9.76446533203125,0,0,36.02400207519531,1,1,337,337
65.55336600,65553366,0,-0.00045377525384537876,-0.0006281166570261121,-0.001396711217239499,-0.35642802715301514,0.4108637571334839,-9.764609336853027,0,0,36.02400207519531,1,1,337,337
65.55598300,65555983,0,-0.000558431725949049,-0.0004765742924064398,-0.0013122676173225045,-0.3553272783756256,0.4106575846672058,-9.764748573303223,0,0,36.02400207519531,1,1,337,337
65.55814800,65558148,0,-0.0006659191567450762,-0.00024344447592739016,-0.0011041153920814395,-0.3542037606239319,0.4104367196559906,-9.76488208770752,0,0,36.02400207519531,1,1,337,337
65.56061800,65560618,0,-0.0006770824547857046,-0.00010237577953375876,-0.0009027927881106734,-0.3530803918838501,0.41019704937934875,-9.765007972717285,0,0,36.02400207519531,1,1,337,337
65.56317800,65563178,0,-0.0006587880779989064,-0.00011745769734261557,-0.000784867035690695,-0.3519498109817505,0.40993499755859375,-9.765135765075684,0,0,36.02400207519531,1,1,337,337
65.56583100,65565831,0,-0.000740199931897223,-0.00022338255075737834,-0.0007578723016194999,-0.3507983088493347,0.4096403419971466,-9.765276908874512,0,0,36.02400207519531,1,1,337,337
65.56856200,65568562,0,-0.000900649989489466,-0.0002564800961408764,-0.0007876459276303649,-0.34962788224220276,0.40931129455566406,-9.765437126159668,0,0,36.02400207519531,1,1,337,337
65.57098600,65570986,0,-0.0011769401608034968,-7.011069101281464e-05,-0.0007902327342890203,-0.3484613299369812,0.4089534282684326,-9.765620231628418,0,0,36.02400207519531,1,1,337,337
65.57368500,65573685,0,-0.001722307177260518,0.0002548727497924119,-0.0007188530289568007,-0.34734004735946655,0.4085788130760193,-9.765851020812988,0,0,36.02400207519531,1,1,337,337
65.57622300,65576223,0,-0.0021953019313514233,0.00042525611934252083,-0.0006401801947504282,-0.34630081057548523,0.40820541977882385,-9.766157150268555,0,0,36.02400207519531,1,1,337,337
65.57843600,65578436,0,-0.0021999874152243137,0.0003704903065226972,-0.0006808672333136201,-0.34537601470947266,0.407856285572052,-9.7665433883667,0,0,36.02400207519531,1,1,337,337
65.58082600,65580826,0,-0.0018692431040108204,0.00021710374858230352,-0.0009030143264681101,-0.34459397196769714,0.4075588285923004,-9.766986846923828,0,0,36.02400207519531,1,1,337,337
65.58338000,65583380,0,-0.0013756135012954473,-6.896817012602696e-06,-0.0012373996432870626,-0.3439582288265228,0.40732336044311523,-9.767441749572754,0,0,36.02400207519531,1,1,337,337
65.58601800,65586018,0,-0.0009252699092030525,-0.00021970461239106953,-0.0014581349678337574,-0.343450129032135,0.40714478492736816,-9.76786994934082,0,0,36.02400207519531,1,1,337,337
65.58879400,65588794,0,-0.0007220088737085462,-0.00037408326170407236,-0.0015301149105653167,-0.34303122758865356,0.40701812505722046,-9.768258094787598,0,0,36.02400207519531,1,1,337,337
65.59128600,65591286,0,-0.0006870469660498202,-0.000448375940322876,-0.0014486321015283465,-0.34265267848968506,0.40693870186805725,-9.768621444702148,0,0,36.02400207519531,1,1,337,337
65.59384200,65593842,0,-0.0006691531743854284,-0.00043841582373715937,-0.0011411105515435338,-0.342277467250824,0.4069019854068756,-9.768996238708496,0,0,36.02400207519531,1,1,337,337
65.59647800,65596478,0,-0.0006920949090272188,-0.0004660173144657165,-0.0008481477270834148,-0.3418864905834198,0.4068966507911682,-9.76942253112793,0,0,36.02400207519531,1,1,337,337
65.59853300,65598533,0,-0.0007367394864559174,-0.0005992588121443987,-0.0007394464337266982,-0.34148362278938293,0.4068984389305115,-9.769909858703613,0,0,36.02400207519531,1,1,337,337
65.60107100,65601071,0,-0.0007030300912447274,-0.0008094492368400097,-0.0006364451255649328,-0.3410934805870056,0.40688571333885193,-9.770438194274902,0,0,36.02400207519531,1,1,337,337
65.60363400,65603634,0,-0.0006841498543508351,-0.0009561049519106746,-0.0004327820206526667,-0.3407519459724426,0.40685996413230896,-9.770962715148926,0,0,36.02400207519531,1,1,337,337
65.60623900,65606239,0,-0.0007624728605151176,-0.0009341062395833433,-0.00022031836851965636,-0.34050485491752625,0.4068368077278137,-9.77143383026123,0,0,36.10200119018555,1,1,337,337
65.60900200,65609002,0,-0.0008610989898443222,-0.0007570209563709795,-5.440651148092002e-05,-0.34039270877838135,0.40684399008750916,-9.771811485290527,0,0,36.10200119018555,1,1,337,337
65.61142300,65611423,0,-0.000989879365079105,-0.0004784444463439286,3.7206376873655245e-05,-0.3404299318790436,0.4069342613220215,-9.772095680236816,0,0,36.10200119018555,1,1,337,337
65.61403600,65614036,0,-0.0013241474516689777,-0.000227468553930521,0.00013250087795313448,-0.34060758352279663,0.40715426206588745,-9.772316932678223,0,0,36.10200119018555,1,1,337,337
65.61663900,65616639,0,-0.0018015545792877674,-0.00013514512102119625,0.0002484662982169539,-0.3408959209918976,0.4075240194797516,-9.772507667541504,0,0,36.10200119018555,1,1,337,337
65.61895500,65618955,0,-0.0020529753528535366,-0.0001179649043479003,0.00022016922594048083,-0.34126055240631104,0.4080536961555481,-9.772697448730469,0,0,36.10200119018555,1,1,337,337
65.62137000,65621370,0,-0.0020282105542719364,2.561733163020108e-05,-5.675000011251541e-06,-0.34169140458106995,0.40873730182647705,-9.77289867401123,0,0,36.10200119018555,1,1,337,337
65.62388800,65623888,0,-0.0019577371422201395,0.00031491240952163935,-0.0003240912046749145,-0.34219294786453247,0.40954071283340454,-9.773103713989258,0,0,36.10200119018555,1,1,337,337
65.62650700,65626507,0,-0.00192540034186095,0.0006016363040544093,-0.0005477307713590562,-0.3427688181400299,0.41041165590286255,-9.773294448852539,0,0,36.10200119018555,1,1,337,337
65.62919000,65629190,0,-0.0018615580629557371,0.0007406655349768698,-0.0005758912302553654,-0.3434218168258667,0.411296010017395,-9.77346134185791,0,0,36.10200119018555,1,1,337,337
65.63161500,65631615,0,-0.0016419935273006558,0.0006908180075697601,-0.0004276564286556095,-0.3441470265388489,0.4121522009372711,-9.773582458496094,0,0,36.10200119018555,1,1,337,337
65.63431400,65634314,0,-0.001353947096504271,0.0004769190272781998,-0.0002485719742253423,-0.3449116349220276,0.41295722126960754,-9.77363395690918,0,0,36.10200119018555,1,1,337,337
65.63684100,65636841,0,-0.0011716604931280017,0.00030416619847528636,-0.00024333945475518703,-0.34567204117774963,0.4137117564678192,-9.773603439331055,0,0,36.10200119018555,1,1,337,337
65.63984300,65639843,0,-0.0010141264647245407,0.000347217166563496,-0.00031283567659556866,-0.34641033411026,0.4144306778907776,-9.773482322692871,0,0,36.10200119018555,1,1,337,337
65.64147100,65641471,0,-0.0007443163194693625,0.0004558276850730181,-0.00036148668732494116,-0.34712445735931396,0.41512057185173035,-9.773275375366211,0,0,36.10200119018555,1,1,337,337
65.64403700,65644037,0,-0.000609945273026824,0.0005051408079452813,-0.0005364996613934636,-0.34781283140182495,0.4157874584197998,-9.772994041442871,0,0,36.10200119018555,1,1,337,337
65.64662800,65646628,0,-0.0008294493309222162,0.0005140062421560287,-0.0006234572501853108,-0.3484741747379303,0.4164368212223053,-9.772652626037598,0,0,36.10200119018555,1,1,337,337
65.64941400,65649414,0,-0.0012059961445629597,0.0005267529631964862,-0.0003321402473375201,-0.3491143584251404,0.4170527458190918,-9.772274017333984,0,0,36.10200119018555,1,1,337,337
65.65185700,65651857,0,-0.0015772482147440314,0.00059800676535815,0.00018049159552901983,-0.34974586963653564,0.4176071584224701,-9.771885871887207,0,0,36.10200119018555,1,1,337,337
65.65454200,65654542,0,-0.001818847144022584,0.0006098254816606641,0.0005960052949376404,-0.350380003452301,0.4180752635002136,-9.77153491973877,0,0,36.10200119018555,1,1,337,337
65.65706800,65657068,0,-0.0019575445912778378,0.0004124086699448526,0.0007651156629435718,-0.35103365778923035,0.4184354841709137,-9.771260261535645,0,0,36.10200119018555,1,1,337,337
65.65990300,65659903,0,-0.0020778945181518793,8.363135566469282e-05,0.0008851942257024348,-0.35172197222709656,0.4186760485172272,-9.771068572998047,0,0,36.10200119018555,1,1,337,337
65.66175400,65661754,0,-0.002059194492176175,-0.00017222003953065723,0.0010208403691649437,-0.352437287569046,0.41881516575813293,-9.770944595336914,0,0,36.10200119018555,1,1,337,337
65.66434600,65664346,0,-0.001816202886402607,-0.00024204992223531008,0.001007074024528265,-0.3531515896320343,0.41889065504074097,-9.770870208740234,0,0,36.10200119018555,1,1,337,337
65.66695600,65666956,0,-0.0014090687036514282,-0.0001653736544540152,0.0008487263112328947,-0.353832870721817,0.41892969608306885,-9.770824432373047,0,0,36.10200119018555,1,1,337,337
65.66976600,65669766,0,-0.0010351246455684304,-6.781179399695247e-05,0.0006506692734546959,-0.3544456660747528,0.4189428985118866,-9.770785331726074,0,0,36.10200119018555,1,1,337,337
65.67216800,65672168,0,-0.000836437800899148,-8.3602310041897e-05,0.00045050884364172816,-0.3549656271934509,0.4189259111881256,-9.770735740661621,0,0,36.10200119018555,1,1,337,337
65.67474400,65674744,0,-0.0007342269527725875,-0.00016481374041177332,6.918969302205369e-05,-0.3553994596004486,0.4188750088214874,-9.77068042755127,0,0,36.10200119018555,1,1,337,337
65.67737900,65677379,0,-0.0007002002093940973,-0.00021840122644789517,-0.00040698033990338445,-0.3557676374912262,0.41879409551620483,-9.770618438720703,0,0,36.10200119018555,1,1,337,337
65.67943700,65679437,0,-0.0007102313684299588,-0.00033621597685851157,-0.0007150814635679126,-0.35609593987464905,0.4186728596687317,-9.770552635192871,0,0,36.10200119018555,1,1,337,337
65.68196700,65681967,0,-0.00063009635778144,-0.000536915787961334,-0.0008615476544946432,-0.3564146161079407,0.4184812605381012,-9.770476341247559,0,0,36.10200119018555,1,1,337,337
65.68453800,65684538,0,-0.000476434564916417,-0.000649829104077071,-0.0007812842959538102,-0.35673677921295166,0.4181928336620331,-9.770383834838867,0,0,36.10200119018555,1,1,337,337
65.68714400,65687144,0,-0.0002670493850018829,-0.0005833739996887743,-0.0004890477866865695,-0.3570461869239807,0.4178055226802826,-9.770277976989746,0,0,36.10200119018555,1,1,337,337
65.68993500,65689935,0,-4.730182627099566e-05,-0.00038908692658878863,-0.0001604606513865292,-0.35732144117355347,0.41734588146209717,-9.77015209197998,0,0,36.10200119018555,1,1,337,337
65.69237700,65692377,0,1.085817984858295e-05,-0.00016889534890651703,3.8955597119638696e-05,-0.3575434684753418,0.416852205991745,-9.770003318786621,0,0,36.10200119018555,1,1,337,337
65.69499600,65694996,0,-3.296299837529659e-05,-0.00015872174117248505,-9.003012382891029e-05,-0.35768166184425354,0.416351854801178,-9.769842147827148,0,0,36.10200119018555,1,1,337,337
65.69760500,65697605,0,-0.00013244048750493675,-0.0005043685669079423,-0.0004283459566067904,-0.3577020764350891,0.4158555269241333,-9.76969051361084,0,0,36.10200119018555,1,1,337,337
65.69966200,65699662,0,-0.0003980896435678005,-0.0008793991291895509,-0.0006237055640667677,-0.3575819432735443,0.41535869240760803,-9.769582748413086,0,0,36.10200119018555,1,1,337,337
65.70218900,65702189,0,-0.0007046332466416061,-0.0010297319386154413,-0.0006269044824875891,-0.3573228418827057,0.4148363471031189,-9.769551277160645,0,0,36.10200119018555,1,1,337,337
65.70478000,65704780,0,-0.0009734599152579904,-0.0010883306385949254,-0.0006023385794833302,-0.3569408357143402,0.4142591953277588,-9.769594192504883,0,0,36.10200119018555,1,1,337,337
65.70736200,65707362,0,-0.0012196798343211412,-0.0011150616919621825,-0.0005351927247829735,-0.35645806789398193,0.4136084020137787,-9.769683837890625,0,0,36.10200119018555,1,1,337,337
65.71021000,65710210,0,-0.0013683054130524397,-0.0011200305307283998,-0.0003061236930079758,-0.3559019863605499,0.41286757588386536,-9.769784927368164,0,0,36.10200119018555,1,1,337,337
65.71253000,65712530,0,-0.0013854799326509237,-0.0011691610561683774,5.165855691302568e-05,-0.3553045094013214,0.4120365083217621,-9.769862174987793,0,0,36.10200119018555,1,1,337,337
65.71521000,65715210,0,-0.0012365712318569422,-0.0011815460165962577,0.00041819113539531827,-0.354701429605484,0.41112956404685974,-9.769896507263184,0,0,36.10200119018555,1,1,337,337
65.71773200,65717732,0,-0.0010341996094211936,-0.001055658096447587,0.0006063120090402663,-0.35411787033081055,0.41016003489494324,-9.769898414611816,0,0,36.10200119018555,1,1,337,337
65.72051000,65720510,0,-0.0009084257762879133,-0.0009190805139951408,0.0005532645736820996,-0.3535621166229248,0.4091401696205139,-9.769886016845703,0,0,36.10200119018555,1,1,337,337
65.72252000,65722520,0,-0.0007552317110821605,-0.00096369837410748,0.0003055441193282604,-0.353020578622818,0.4080951511859894,-9.769883155822754,0,0,36.10200119018555,1,1,337,337
65.72503100,65725031,0,-0.0006311549805104733,-0.0011107975151389837,-8.826771227177233e-05,-0.3524739146232605,0.40706172585487366,-9.769906997680664,0,0,36.10200119018555,1,1,337,337
65.72761800,65727618,0,-0.0007680823910050094,-0.001072336919605732,-0.0003532595874276012,-0.35192587971687317,0.4060656726360321,-9.769964218139648,0,0,36.10200119018555,1,1,337,337
65.73045300,65730453,0,-0.0010447746608406305,-0.0008129716734401882,-0.0003117609885521233,-0.351400762796402,0.40512287616729736,-9.77004337310791,0,0,36.10200119018555,1,1,337,337
65.73277200,65732772,0,-0.001316735753789544,-0.0005659991293214262,-0.0001796230353647843,-0.35091325640678406,0.4042472243309021,-9.770119667053223,0,0,36.10200119018555,1,1,337,337
65.73538100,65735381,0,-0.0015276990598067641,-0.0004682400031015277,-0.00015206026728264987,-0.3504551947116852,0.40345072746276855,-9.77016544342041,0,0,36.10200119018555,1,1,337,337
65.73830200,65738302,0,-0.001564557896926999,-0.00044062186498194933,-0.00030458078254014254,-0.3500191867351532,0.40273675322532654,-9.770161628723145,0,0,36.10200119018555,1,1,337,337
65.74116000,65741160,0,-0.0015807055169716477,-0.0003711477911565453,-0.0006336382357403636,-0.3496054708957672,0.4020867943763733,-9.770122528076172,0,0,36.10200119018555,1,1,337,337
65.74258800,65742588,0,-0.0016692221397534013,-0.00019801748567260802,-0.0009164932416751981,-0.3492211401462555,0.40146303176879883,-9.770085334777832,0,0,36.10200119018555,1,1,337,337
65.74517100,65745171,0,-0.0017622328596189618,-1.1012310096703004e-05,-0.001055026426911354,-0.34889328479766846,0.4008452594280243,-9.7700777053833,0,0,36.10200119018555,1,1,337,337
65.74777700,65747777,0,-0.0018190559931099415,-6.635459430981427e-05,-0.0011794938473030925,-0.34865984320640564,0.40025052428245544,-9.77009105682373,0,0,36.10200119018555,1,1,337,337
65.75053200,65750532,0,-0.0018770985770970583,-0.0002880267857108265,-0.001253381371498108,-0.3485472500324249,0.3997287154197693,-9.770088195800781,0,0,36.10200119018555,1,1,337,337
65.75297900,65752979,0,-0.0019295881502330303,-0.0003538884920999408,-0.001231740228831768,-0.34855738282203674,0.39935219287872314,-9.770049095153809,0,0,36.10200119018555,1,1,337,337
65.75564800,65755648,0,-0.0018291478045284748,-0.0001763910986483097,-0.001242246013134718,-0.3486703932285309,0.39918482303619385,-9.76998519897461,0,0,36.10200119018555,1,1,337,337
65.75819200,65758192,0,-0.0016490003326907754,6.8448789534159e-05,-0.0012994467979297042,-0.3488536477088928,0.3992615044116974,-9.769920349121094,0,0,36.10200119018555,1,1,337,337
65.76112100,65761121,0,-0.0015850926283746958,0.00018273229943588376,-0.0013493233127519488,-0.3490639328956604,0.39957016706466675,-9.7698974609375,0,0,36.10200119018555,1,1,337,337
65.76287400,65762874,0,-0.0015681388322263956,0.00017855050100479275,-0.0013030901318416,-0.3492550253868103,0.4000566303730011,-9.769952774047852,0,0,36.10200119018555,1,1,337,337
65.76548000,65765480,0,-0.0014656513230875134,0.00010466480307513848,-0.0010897653410211205,-0.3493860363960266,0.4006504416465759,-9.770092964172363,0,0,36.10200119018555,1,1,337,337
65.76806400,65768064,0,-0.0013235905207693577,-2.5119652491412126e-06,-0.0007717577973380685,-0.3494204878807068,0.4012948274612427,-9.770293235778809,0,0,36.10200119018555,1,1,337,337
65.77086100,65770861,0,-0.0012310394085943699,-0.0001466099638491869,-0.00039734403253532946,-0.34934037923812866,0.40196678042411804,-9.770519256591797,0,0,36.10200119018555,1,1,337,337
65.77329500,65773295,0,-0.001149020972661674,-0.0004697538388427347,2.7581230824580416e-05,-0.3491651713848114,0.40266644954681396,-9.770745277404785,0,0,36.10200119018555,1,1,337,337
65.77586800,65775868,0,-0.001082107424736023,-0.000863993598613888,0.0003788929316215217,-0.3489408493041992,0.4034007787704468,-9.770950317382812,0,0,36.10200119018555,1,1,337,337
65.77849000,65778490,0,-0.0011465466814115644,-0.0010561610106378794,0.0005334552261047065,-0.3487159311771393,0.40417584776878357,-9.771098136901855,0,0,36.10200119018555,1,1,337,337
65.78121700,65781217,0,-0.001310600433498621,-0.0011078837560489774,0.0005835841875523329,-0.3485266864299774,0.40501078963279724,-9.77115249633789,0,0,36.10200119018555,1,1,337,337
65.78303200,65783032,0,-0.001458323560655117,-0.001157222199253738,0.0005376539775170386,-0.34838443994522095,0.40593647956848145,-9.771096229553223,0,0,36.10200119018555,1,1,337,337
65.78569200,65785692,0,-0.0015228178817778826,-0.001228607608936727,0.00041100935777649283,-0.34827813506126404,0.40697288513183594,-9.770947456359863,0,0,36.10200119018555,1,1,337,337
65.78829100,65788291,0,-0.0014734644209966063,-0.0012765385909006,0.00027905034949071705,-0.3481975793838501,0.40812328457832336,-9.770766258239746,0,0,36.10200119018555,1,1,337,337
65.79103000,65791030,0,-0.0012756453361362219,-0.001161431078799069,4.30375657742843e-05,-0.34814754128456116,0.40937596559524536,-9.770620346069336,0,0,36.10200119018555,1,1,337,337
65.79350600,65793506,0,-0.001068877405487001,-0.0009046290651895106,-0.0003154603182338178,-0.34813910722732544,0.4107128381729126,-9.770547866821289,0,0,36.10200119018555,1,1,337,337
65.79605700,65796057,0,-0.0010807174257934093,-0.0006780583644285798,-0.0005637696594931185,-0.34818193316459656,0.41211724281311035,-9.770563125610352,0,0,36.10200119018555,1,1,337,337
65.79870500,65798705,0,-0.0012495318660512567,-0.0006090594106353819,-0.0005760124186053872,-0.34827736020088196,0.413566917181015,-9.770648956298828,0,0,36.10200119018555,1,1,337,337
65.80151900,65801519,0,-0.0013490900164470077,-0.0006696286727674305,-0.0005623045144602656,-0.3484053313732147,0.4150346517562866,-9.770763397216797,0,0,36.10200119018555,1,1,337,337
65.80326300,65803263,0,-0.0012529040686786175,-0.000886760710272938,-0.0006210903520695865,-0.34854069352149963,0.416488915681839,-9.770868301391602,0,0,36.10200119018555,1,1,337,337
65.80586100,65805861,0,-0.0010511958971619606,-0.0012595151783898473,-0.0006300719687715173,-0.3486679196357727,0.41789475083351135,-9.77093505859375,0,0,36.10200119018555,1,1,337,337
65.80844000,65808440,0,-0.0008951842319220304,-0.0015689573483541608,-0.0004934149328619242,-0.3487730920314789,0.4192280173301697,-9.770954132080078,0,0,36.10200119018555,1,1,337,337
65.81121000,65811210,0,-0.0008982744184322655,-0.0017786574317142367,-0.00022769761562813073,-0.34885093569755554,0.4204676151275635,-9.770942687988281,0,0,36.10200119018555,1,1,337,337
65.81375300,65813753,0,-0.0011104251025244594,-0.0018778244266286492,8.572245133109391e-05,-0.3489108383655548,0.42159512639045715,-9.770927429199219,0,0,36.10200119018555,1,1,337,337
65.81624700,65816247,0,-0.0013082731747999787,-0.0018144319765269756,0.00042230068356730044,-0.34896835684776306,0.4226018488407135,-9.770920753479004,0,0,36.10200119018555,1,1,337,337
65.81886500,65818865,0,-0.0013610878959298134,-0.0016904175281524658,0.0007074112654663622,-0.34903040528297424,0.4234805703163147,-9.770936965942383,0,0,36.10200119018555,1,1,337,337
65.82177500,65821775,0,-0.0014662693720310926,-0.001543909776955843,0.0007584582199342549,-0.3490961492061615,0.4242396056652069,-9.770973205566406,0,0,36.10200119018555,1,1,337,337
65.82364700,65823647,0,-0.0017350575653836131,-0.0013423346681520343,0.0006653721211478114,-0.34915778040885925,0.4248940646648407,-9.77100658416748,0,0,36.10200119018555,1,1,337,337
65.82614800,65826148,0,-0.002071675378829241,-0.0011011477326974273,0.0006985464133322239,-0.34920138120651245,0.4254511594772339,-9.77100944519043,0,0,36.10200119018555,1,1,337,337
65.82875300,65828753,0,-0.0022105162497609854,-0.000920164748094976,0.0007741130539216101,-0.3492216467857361,0.425931841135025,-9.770963668823242,0,0,36.10200119018555,1,1,337,337
65.83144000,65831440,0,-0.0019580814987421036,-0.0008231948013417423,0.0007226484012790024,-0.34922081232070923,0.4263623356819153,-9.770866394042969,0,0,36.10200119018555,1,1,337,337
65.83395800,65833958,0,-0.0014148427871987224,-0.0007576686330139637,0.0005727258394472301,-0.3492082357406616,0.42675232887268066,-9.770730972290039,0,0,36.10200119018555,1,1,337,337
65.83655500,65836555,0,-0.0008157058618962765,-0.0008330209529958665,0.00035191100323572755,-0.34919214248657227,0.4270968735218048,-9.770585060119629,0,0,36.10200119018555,1,1,337,337
65.83916600,65839166,0,-0.0004785869678016752,-0.001098829205147922,0.00011298652680125087,-0.34916603565216064,0.42737072706222534,-9.770448684692383,0,0,36.10200119018555,1,1,337,337
65.84208500,65842085,0,-0.00044825748773291707,-0.0013335160911083221,-0.0001108316209865734,-0.34912413358688354,0.42753082513809204,-9.77033805847168,0,0,36.10200119018555,1,1,337,337
65.84370600,65843706,0,-0.00043013005051761866,-0.0014956063823774457,-0.00038788578240200877,-0.3490753173828125,0.427539199590683,-9.77025032043457,0,0,36.10200119018555,1,1,337,337
65.84628200,65846282,0,-0.0003348087484482676,-0.0015683870296925306,-0.0006377199897542596,-0.34904155135154724,0.42738378047943115,-9.770170211791992,0,0,36.10200119018555,1,1,337,337
65.84888300,65848883,0,-0.0002616648271214217,-0.0013788563665002584,-0.0007004574290476739,-0.34904247522354126,0.42708271741867065,-9.770095825195312,0,0,36.10200119018555,1,1,337,337
65.85164400,65851644,0,-0.00020956233493052423,-0.0011120602721348405,-0.0006456119008362293,-0.3490813970565796,0.4266670346260071,-9.770034790039062,0,0,36.10200119018555,1,1,337,337
65.85410200,65854102,0,-0.00023314038116950542,-0.0009147315286099911,-0.0005558558623306453,-0.3491540849208832,0.42615821957588196,-9.76999282836914,0,0,36.10200119018555,1,1,337,337
65.85667700,65856677,0,-0.00044295433326624334,-0.0007798757287673652,-0.0004263361042831093,-0.34924963116645813,0.4255760908126831,-9.76998233795166,0,0,36.10200119018555,1,1,337,337
65.85930500,65859305,0,-0.0008267546654678881,-0.0008693564450368285,-0.00037365074967965484,-0.3493509888648987,0.4249386489391327,-9.77000617980957,0,0,36.10200119018555,1,1,337,337
65.86219400,65862194,0,-0.001243303413502872,-0.0010532233864068985,-0.0004873365396633744,-0.3494500517845154,0.42424851655960083,-9.770054817199707,0,0,36.077999114990234,1,1,337,337
65.86392000,65863920,0,-0.0015190382255241275,-0.0009851750219240785,-0.0006008775089867413,-0.34953948855400085,0.4235152006149292,-9.770110130310059,0,0,36.077999114990234,1,1,337,337
65.86648000,65866480,0,-0.0016815714770928025,-0.0007465042290277779,-0.0005292976857163012,-0.3496057689189911,0.4227615296840668,-9.770158767700195,0,0,36.077999114990234,1,1,337,337
65.86909600,65869096,0,-0.0018458734266459942,-0.0006629396812058985,-0.0004134132759645581,-0.3496439754962921,0.42201507091522217,-9.770179748535156,0,0,36.077999114990234,1,1,337,337
65.87186000,65871860,0,-0.0020510463509708643,-0.0007378511945717037,-0.0004277866391930729,-0.34966376423835754,0.4213213622570038,-9.770147323608398,0,0,36.077999114990234,1,1,337,337
65.87432100,65874321,0,-0.0022582414094358683,-0.000840927823446691,-0.00040257241926155984,-0.34968799352645874,0.42072081565856934,-9.770039558410645,0,0,36.077999114990234,1,1,337,337
65.87688600,65876886,0,-0.002271473640576005,-0.0009495400590822101,-0.0002126736508216709,-0.3497370481491089,0.4202072322368622,-9.769850730895996,0,0,36.077999114990234,1,1,337,337
65.87950200,65879502,0,-0.0019380624871701002,-0.0009633080917410553,-3.215808101231232e-05,-0.3498149812221527,0.4197324514389038,-9.769598960876465,0,0,36.077999114990234,1,1,337,337
65.88239000,65882390,0,-0.001435413141734898,-0.0008042469853535295,9.449115896131843e-05,-0.34991830587387085,0.41923925280570984,-9.769296646118164,0,0,36.077999114990234,1,1,337,337
65.88412400,65884124,0,-0.0009732627077028155,-0.0005888252053409815,0.0002619277802295983,-0.35004374384880066,0.4186834990978241,-9.768960952758789,0,0,36.077999114990234,1,1,337,337
65.88669100,65886691,0,-0.0006138543831184506,-0.00047848952817730606,0.00037783014704473317,-0.3501812815666199,0.4180470108985901,-9.768610000610352,0,0,36.077999114990234,1,1,337,337
65.88939400,65889394,0,-0.0004981140373274684,-0.0005574885872192681,0.00033550974330864847,-0.35031479597091675,0.41733497381210327,-9.768253326416016,0,0,36.077999114990234,1,1,337,337
65.89219500,65892195,0,-0.000539188738912344,-0.0007688654004596174,0.00014647749776486307,-0.3504369556903839,0.41655251383781433,-9.767887115478516,0,0,36.077999114990234,1,1,337,337
65.89452000,65894520,0,-0.0004671365604735911,-0.0010069913696497679,-0.00010900155757553875,-0.35054129362106323,0.4156906306743622,-9.767495155334473,0,0,36.077999114990234,1,1,337,337
65.89718400,65897184,0,-0.0003934662672691047,-0.0012064201291650534,-0.00026103685377165675,-0.3506150543689728,0.41474175453186035,-9.767045974731445,0,0,36.077999114990234,1,1,337,337
65.89981200,65899812,0,-0.0006147355306893587,-0.0011598181445151567,-0.00027778834919445217,-0.3506540060043335,0.41371360421180725,-9.766499519348145,0,0,36.077999114990234,1,1,337,337
65.90264100,65902641,0,-0.0011019209632650018,-0.0008573802188038826,-0.00024140601453837007,-0.35066860914230347,0.4126344919204712,-9.76584243774414,0,0,36.077999114990234,1,1,337,337
65.90497700,65904977,0,-0.0015499460278078914,-0.0005225118366070092,-0.0002062842104351148,-0.3506753146648407,0.4115510582923889,-9.76510238647461,0,0,36.077999114990234,1,1,337,337
65.90692800,65906928,0,-0.0018687555566430092,-0.00023343530483543873,-0.00023329263785853982,-0.3506888747215271,0.4105120003223419,-9.764320373535156,0,0,36.077999114990234,1,1,337,337
65.90959000,65909590,0,-0.002191748470067978,-3.152336284983903e-05,-0.0002941750572063029,-0.35072949528694153,0.4095536768436432,-9.763547897338867,0,0,36.077999114990234,1,1,337,337
65.91231800,65912318,0,-0.0024247118271887302,3.935298082069494e-05,-0.0003973289567511529,-0.35080811381340027,0.40869423747062683,-9.762824058532715,0,0,36.077999114990234,1,1,337,337
