timestamp,TimeUS,GYROx,TimeUS2,GYROx2
65.05973600,65059736,-0.005240557715296745
65.06233800,65062338,0.002216520719230175
65.06494200,65064942,-0.002044667024165392
65.06754400,65067544,-0.0009793699719011784
65.07014700,65070147,8.59266147017479e-05
65.07212400,65072124,0.002216520719230175
65.07472500,65074725,-0.0031099640764296055
65.07732600,65077326,0.002216520719230175
65.07992500,65079925,-0.0009793699719011784
65.08252800,65082528,-0.0009793699719011784
65.08512700,65085127,-0.002044667024165392
65.08772800,65087728,-0.006305854767560959
65.09033400,65090334,8.59266147017479e-05
65.09230900,,,,
65.23662500,65236625,-0.002044667024165392,65236625,-0.002044667024165392
65.23922900,65239229,8.59266147017479e-05,65239229,8.59266147017479e-05
65.24182600,65241826,-0.002044667024165392,65241826,-0.002044667024165392
65.24443200,65244432,-0.0031099640764296055,65244432,-0.0031099640764296055
65.24703400,65247034,0.0011512236669659615,65247034,0.0011512236669659615
65.24964500,65249645,8.59266147017479e-05,65249645,8.59266147017479e-05
65.25163000,65251630,-0.0009793699719011784,65251630,-0.0009793699719011784
65.25423200,65254232,-0.0009793699719011784,65254232,-0.0009793699719011784
65.25683600,65256836,0.0011512236669659615,65256836,0.0011512236669659615
65.25945000,65259450,-0.0031099640764296055,65259450,-0.0031099640764296055
65.26205100,65262051,-0.002044667024165392,65262051,-0.002044667024165392
65.26465600,65264656,-0.0031099640764296055,65264656,-0.0031099640764296055
65.26726300,65267263,0.0011512236669659615,65267263,0.0011512236669659615
65.26986800,65269868,0.0011512236669659615,65269868,0.0011512236669659615
65.27185400,65271854,8.59266147017479e-05,65271854,8.59266147017479e-05
65.27446200,65274462,-0.002044667024165392,65274462,-0.002044667024165392
65.27707100,65277071,0.002216520719230175,65277071,0.002216520719230175
65.27968700,65279687,-0.002044667024165392,65279687,-0.002044667024165392
65.28228800,65282288,-0.002044667024165392,65282288,-0.002044667024165392
65.28490200,65284902,-0.002044667024165392,65284902,-0.002044667024165392
65.28751200,65287512,-0.0031099640764296055,65287512,-0.0031099640764296055
65.29011800,65290118,-0.0031099640764296055,65290118,-0.0031099640764296055
65.29209600,65292096,0.002216520719230175,65292096,0.002216520719230175
65.29470000,65294700,-0.002044667024165392,65294700,-0.002044667024165392
65.29730200,65297302,-0.0009793699719011784,65297302,-0.0009793699719011784
65.29991100,65299911,-0.006305854767560959,65299911,-0.006305854767560959
65.30251400,65302514,-0.0009793699719011784,65302514,-0.0009793699719011784
65.30512000,65305120,-0.004175260663032532,65305120,-0.004175260663032532
65.30772900,65307729,0.0011512236669659615,65307729,0.0011512236669659615
65.31033900,65310339,-0.0031099640764296055,65310339,-0.0031099640764296055
65.31232100,65312321,0.0032818177714943886,65312321,0.0032818177714943886
65.31492700,65314927,-0.0031099640764296055,65314927,-0.0031099640764296055
65.31752600,65317526,-0.002044667024165392,65317526,-0.002044667024165392
65.32012700,65320127,0.002216520719230175,65320127,0.002216520719230175
65.32273100,65322731,8.59266147017479e-05,65322731,8.59266147017479e-05
65.32533800,65325338,-0.0009793699719011784,65325338,-0.0009793699719011784
65.32794100,65327941,8.59266147017479e-05,65327941,8.59266147017479e-05
65.33056900,65330569,8.59266147017479e-05,65330569,8.59266147017479e-05
65.33254700,65332547,-0.0031099640764296055,65332547,-0.0031099640764296055
65.33514700,65335147,-0.002044667024165392,65335147,-0.002044667024165392
65.33774900,65337749,-0.002044667024165392,65337749,-0.002044667024165392
65.34035900,65340359,8.59266147017479e-05,65340359,8.59266147017479e-05
65.34296100,65342961,-0.005240557715296745,65342961,-0.005240557715296745
65.34556600,65345566,0.002216520719230175,65345566,0.002216520719230175
65.34817100,65348171,-0.004175260663032532,65348171,-0.004175260663032532
65.35078500,65350785,-0.002044667024165392,65350785,-0.002044667024165392
65.35276800,65352768,8.59266147017479e-05,65352768,8.59266147017479e-05
65.35537200,65355372,-0.002044667024165392,65355372,-0.002044667024165392
65.35797000,65357970,-0.0009793699719011784,65357970,-0.0009793699719011784
65.36058000,65360580,-0.002044667024165392,65360580,-0.002044667024165392
65.36318300,65363183,-0.004175260663032532,65363183,-0.004175260663032532
65.36579200,65365792,-0.0009793699719011784,65365792,-0.0009793699719011784
65.36839300,65368393,-0.002044667024165392,65368393,-0.002044667024165392
65.37099900,65370999,-0.0031099640764296055,65370999,-0.0031099640764296055
65.37298000,65372980,-0.002044667024165392,65372980,-0.002044667024165392
65.37558600,65375586,0.0011512236669659615,65375586,0.0011512236669659615
65.37818600,65378186,-0.002044667024165392,65378186,-0.002044667024165392
65.38079600,65380796,0.002216520719230175,65380796,0.002216520719230175
65.38340100,65383401,-0.002044667024165392,65383401,-0.002044667024165392
65.38600300,65386003,0.002216520719230175,65386003,0.002216520719230175
65.38860600,65388606,-0.004175260663032532,65388606,-0.004175260663032532
65.39122600,65391226,-0.002044667024165392,65391226,-0.002044667024165392
65.39322100,65393221,8.59266147017479e-05,65393221,8.59266147017479e-05
65.39582200,65395822,-0.006305854767560959,65395822,-0.006305854767560959
65.39842100,65398421,-0.0009793699719011784,65398421,-0.0009793699719011784
65.40102400,65401024,0.002216520719230175,65401024,0.002216520719230175
65.40362600,65403626,-0.0031099640764296055,65403626,-0.0031099640764296055
65.40624700,65406247,-0.002044667024165392,65406247,-0.002044667024165392
65.40884600,65408846,-0.0009793699719011784,65408846,-0.0009793699719011784
65.41145000,65411450,8.59266147017479e-05,65411450,8.59266147017479e-05
65.41343700,65413437,-0.0031099640764296055,65413437,-0.0031099640764296055
65.41603900,65416039,-0.0009793699719011784,65416039,-0.0009793699719011784
65.41864200,65418642,8.59266147017479e-05,65418642,8.59266147017479e-05
65.42124900,65421249,-0.002044667024165392,65421249,-0.002044667024165392
65.42385900,65423859,-0.0009793699719011784,65423859,-0.0009793699719011784
65.42646100,65426461,-0.0031099640764296055,65426461,-0.0031099640764296055
65.42906500,65429065,8.59266147017479e-05,65429065,8.59266147017479e-05
65.43166700,65431667,-0.002044667024165392,65431667,-0.002044667024165392
65.43364700,65433647,-0.0031099640764296055,65433647,-0.0031099640764296055
65.43625600,65436256,0.0011512236669659615,65436256,0.0011512236669659615
65.43885900,65438859,-0.004175260663032532,65438859,-0.004175260663032532
65.44146700,65441467,0.0011512236669659615,65441467,0.0011512236669659615
65.44407000,65444070,-0.004175260663032532,65444070,-0.004175260663032532
65.44667700,65446677,-0.002044667024165392,65446677,-0.002044667024165392
65.44928800,65449288,-0.0031099640764296055,65449288,-0.0031099640764296055
65.45188500,65451885,-0.004175260663032532,65451885,-0.004175260663032532
65.45386300,65453863,-0.0031099640764296055,65453863,-0.0031099640764296055
65.45646900,65456469,8.59266147017479e-05,65456469,8.59266147017479e-05
65.45906800,65459068,-0.0009793699719011784,65459068,-0.0009793699719011784
65.46167700,65461677,0.002216520719230175,65461677,0.002216520719230175
65.46427900,65464279,-0.002044667024165392,65464279,-0.002044667024165392
65.46688600,65466886,-0.0009793699719011784,65466886,-0.0009793699719011784
65.46949400,65469494,8.59266147017479e-05,65469494,8.59266147017479e-05
65.47209900,65472099,-0.0031099640764296055,65472099,-0.0031099640764296055
65.47470100,65474701,-0.0009793699719011784,65474701,-0.0009793699719011784
65.47668400,65476684,-0.0031099640764296055,65476684,-0.0031099640764296055
65.47928900,65479289,0.002216520719230175,65479289,0.002216520719230175
65.48189700,65481897,-0.004175260663032532,65481897,-0.004175260663032532
65.48450900,65484509,8.59266147017479e-05,65484509,8.59266147017479e-05
65.48711300,65487113,0.002216520719230175,65487113,0.002216520719230175
65.48971700,65489717,-0.002044667024165392,65489717,-0.002044667024165392
65.49232300,65492323,-0.0009793699719011784,65492323,-0.0009793699719011784
65.49492300,65494923,0.0032818177714943886,65494923,0.0032818177714943886
65.49690200,65496902,0.0011512236669659615,65496902,0.0011512236669659615
65.49950600,65499506,-0.005240557715296745,65499506,-0.005240557715296745
65.50211700,65502117,8.59266147017479e-05,65502117,8.59266147017479e-05
65.50472200,65504722,0.0011512236669659615,65504722,0.0011512236669659615
65.50733100,65507331,-0.0009793699719011784,65507331,-0.0009793699719011784
65.50993500,65509935,-0.0009793699719011784,65509935,-0.0009793699719011784
65.51254100,65512541,-0.002044667024165392,65512541,-0.002044667024165392
65.51514300,65515143,-0.005240557715296745,65515143,-0.005240557715296745
65.51711900,65517119,-0.0009793699719011784,65517119,-0.0009793699719011784
65.51971900,65519719,-0.002044667024165392,65519719,-0.002044667024165392
65.52232300,65522323,-0.002044667024165392,65522323,-0.002044667024165392
65.52492700,65524927,-0.0031099640764296055,65524927,-0.0031099640764296055
65.52753400,65527534,-0.0009793699719011784,65527534,-0.0009793699719011784
65.53013400,65530134,0.0011512236669659615,65530134,0.0011512236669659615
65.53274600,65532746,8.59266147017479e-05,65532746,8.59266147017479e-05
65.53534600,65535346,-0.0009793699719011784,65535346,-0.0009793699719011784
65.53733300,65537333,-0.0009793699719011784,65537333,-0.0009793699719011784
65.53993200,65539932,-0.002044667024165392,65539932,-0.002044667024165392
65.54254300,65542543,0.002216520719230175,65542543,0.002216520719230175
65.54514300,65545143,-0.0009793699719011784,65545143,-0.0009793699719011784
65.54775900,65547759,-0.0009793699719011784,65547759,-0.0009793699719011784
65.55036300,65550363,-0.0009793699719011784,65550363,-0.0009793699719011784
65.55297800,65552978,-0.0009793699719011784,65552978,-0.0009793699719011784
65.55558300,65555583,-0.002044667024165392,65555583,-0.002044667024165392
65.55756000,65557560,0.0011512236669659615,65557560,0.0011512236669659615
65.56016200,65560162,-0.0009793699719011784,65560162,-0.0009793699719011784
65.56276800,65562768,-0.0009793699719011784,65562768,-0.0009793699719011784
65.56537500,65565375,-0.0031099640764296055,65565375,-0.0031099640764296055
65.56797900,65567979,8.59266147017479e-05,65567979,8.59266147017479e-05
65.57057900,65570579,-0.007371151819825172,65570579,-0.007371151819825172
65.57319000,65573190,-0.004175260663032532,65573190,-0.004175260663032532
65.57579400,65575794,0.0032818177714943886,65575794,0.0032818177714943886
65.57777100,65577771,-0.0009793699719011784,65577771,-0.0009793699719011784
65.58037300,65580373,0.002216520719230175,65580373,0.002216520719230175
65.58298700,65582987,8.59266147017479e-05,65582987,8.59266147017479e-05
65.58559200,65585592,-0.002044667024165392,65585592,-0.002044667024165392
65.58820700,65588207,-0.002044667024165392,65588207,-0.002044667024165392
65.59081000,65590810,8.59266147017479e-05,65590810,8.59266147017479e-05
65.59341400,65593414,-0.0009793699719011784,65593414,-0.0009793699719011784
65.59601700,65596017,-0.002044667024165392,65596017,-0.002044667024165392
65.59800500,65598005,0.0011512236669659615,65598005,0.0011512236669659615
65.60060700,65600607,-0.0009793699719011784,65600607,-0.0009793699719011784
65.60321100,65603211,-0.002044667024165392,65603211,-0.002044667024165392
65.60582200,65605822,-0.0009793699719011784,65605822,-0.0009793699719011784
65.60842400,65608424,-0.0009793699719011784,65608424,-0.0009793699719011784
65.61102300,65611023,-0.0031099640764296055,65611023,-0.0031099640764296055
65.61363200,65613632,-0.006305854767560959,65613632,-0.006305854767560959
65.61623900,65616239,8.59266147017479e-05,65616239,8.59266147017479e-05
65.61822400,65618224,8.59266147017479e-05,65618224,8.59266147017479e-05
65.62082700,65620827,-0.002044667024165392,65620827,-0.002044667024165392
65.62343200,65623432,-0.002044667024165392,65623432,-0.002044667024165392
65.62603900,65626039,-0.002044667024165392,65626039,-0.002044667024165392
65.62864100,65628641,8.59266147017479e-05,65628641,8.59266147017479e-05
65.63124100,65631241,0.0011512236669659615,65631241,0.0011512236669659615
65.63385500,65633855,-0.0031099640764296055,65633855,-0.0031099640764296055
65.63645800,65636458,8.59266147017479e-05,65636458,8.59266147017479e-05
65.63907000,65639070,8.59266147017479e-05,65639070,8.59266147017479e-05
65.64105100,65641051,0.002216520719230175,65641051,0.002216520719230175
65.64365400,65643654,-0.008436448872089386,65643654,-0.008436448872089386
65.64625900,65646259,0.0011512236669659615,65646259,0.0011512236669659615
65.64886600,65648866,-0.006305854767560959,65648866,-0.006305854767560959
65.65146700,65651467,0.0011512236669659615,65651467,0.0011512236669659615
65.65407900,65654079,-0.0031099640764296055,65654079,-0.0031099640764296055
65.65668300,65656683,-0.002044667024165392,65656683,-0.002044667024165392
65.65929400,65659294,-0.002044667024165392,65659294,-0.002044667024165392
65.66129000,65661290,0.0011512236669659615,65661290,0.0011512236669659615
65.66389100,65663891,8.59266147017479e-05,65663891,8.59266147017479e-05
65.66650200,65666502,0.0011512236669659615,65666502,0.0011512236669659615
65.66910700,65669107,-0.0031099640764296055,65669107,-0.0031099640764296055
65.67170800,65671708,8.59266147017479e-05,65671708,8.59266147017479e-05
65.67431400,65674314,-0.0009793699719011784,65674314,-0.0009793699719011784
65.67692300,65676923,-0.002044667024165392,65676923,-0.002044667024165392
65.67890000,65678900,0.0011512236669659615,65678900,0.0011512236669659615
65.68150400,65681504,8.59266147017479e-05,65681504,8.59266147017479e-05
65.68411100,65684111,8.59266147017479e-05,65684111,8.59266147017479e-05
65.68671600,65686716,0.002216520719230175,65686716,0.002216520719230175
65.68932300,65689323,-0.002044667024165392,65689323,-0.002044667024165392
65.69192700,65691927,-0.0009793699719011784,65691927,-0.0009793699719011784
65.69453800,65694538,0.0011512236669659615,65694538,0.0011512236669659615
65.69714400,65697144,-0.004175260663032532,65697144,-0.004175260663032532
65.69912100,65699121,-0.0009793699719011784,65699121,-0.0009793699719011784
65.70172000,65701720,-0.0009793699719011784,65701720,-0.0009793699719011784
65.70432800,65704328,-0.0031099640764296055,65704328,-0.0031099640764296055
65.70693800,65706938,8.59266147017479e-05,65706938,8.59266147017479e-05
65.70954600,65709546,-0.002044667024165392,65709546,-0.002044667024165392
65.71214500,65712145,0.0011512236669659615,65712145,0.0011512236669659615
65.71474900,65714749,8.59266147017479e-05,65714749,8.59266147017479e-05
65.71735200,65717352,-0.002044667024165392,65717352,-0.002044667024165392
65.71996200,65719962,8.59266147017479e-05,65719962,8.59266147017479e-05
65.72195800,65721958,0.0011512236669659615,65721958,0.0011512236669659615
65.72456200,65724562,-0.004175260663032532,65724562,-0.004175260663032532
65.72717600,65727176,-0.0031099640764296055,65727176,-0.0031099640764296055
65.72978100,65729781,8.59266147017479e-05,65729781,8.59266147017479e-05
65.73238400,65732384,-0.005240557715296745,65732384,-0.005240557715296745
65.73499100,65734991,0.0032818177714943886,65734991,0.0032818177714943886
65.73759200,65737592,-0.004175260663032532,65737592,-0.004175260663032532
65.74019400,65740194,-0.0009793699719011784,65740194,-0.0009793699719011784
65.74217900,65742179,-0.0031099640764296055,65742179,-0.0031099640764296055
65.74478500,65744785,-0.0009793699719011784,65744785,-0.0009793699719011784
65.74738700,65747387,-0.002044667024165392,65747387,-0.002044667024165392
65.74999100,65749991,-0.0031099640764296055,65749991,-0.0031099640764296055
65.75259400,65752594,8.59266147017479e-05,65752594,8.59266147017479e-05
65.75520300,65755203,8.59266147017479e-05,65755203,8.59266147017479e-05
65.75780600,65757806,-0.0031099640764296055,65757806,-0.0031099640764296055
65.76041000,65760410,-0.002044667024165392,65760410,-0.002044667024165392
65.76239600,65762396,8.59266147017479e-05,65762396,8.59266147017479e-05
65.76500300,65765003,-0.0009793699719011784,65765003,-0.0009793699719011784
65.76761100,65767611,-0.0009793699719011784,65767611,-0.0009793699719011784
65.77021600,65770216,-0.002044667024165392,65770216,-0.002044667024165392
65.77282000,65772820,0.0011512236669659615,65772820,0.0011512236669659615
65.77543000,65775430,-0.004175260663032532,65775430,-0.004175260663032532
65.77803600,65778036,-0.0009793699719011784,65778036,-0.0009793699719011784
65.78064200,65780642,-0.0031099640764296055,65780642,-0.0031099640764296055
65.78262400,65782624,8.59266147017479e-05,65782624,8.59266147017479e-05
65.78522900,65785229,-0.002044667024165392,65785229,-0.002044667024165392
65.78783500,65787835,0.0011512236669659615,65787835,0.0011512236669659615
65.79044200,65790442,8.59266147017479e-05,65790442,8.59266147017479e-05
65.79304200,65793042,-0.0031099640764296055,65793042,-0.0031099640764296055
65.79564800,65795648,-0.0031099640764296055,65795648,-0.0031099640764296055
65.79825200,65798252,-0.0009793699719011784,65798252,-0.0009793699719011784
65.80086800,65800868,8.59266147017479e-05,65800868,8.59266147017479e-05
65.80284600,65802846,0.0011512236669659615,65802846,0.0011512236669659615
65.80545200,65805452,-0.002044667024165392,65805452,-0.002044667024165392
65.80806400,65808064,8.59266147017479e-05,65808064,8.59266147017479e-05
65.81066900,65810669,-0.005240557715296745,65810669,-0.005240557715296745
65.81327300,65813273,-0.0009793699719011784,65813273,-0.0009793699719011784
65.81587800,65815878,8.59266147017479e-05,65815878,8.59266147017479e-05
65.81848900,65818489,-0.002044667024165392,65818489,-0.002044667024165392
65.82109200,65821092,-0.004175260663032532,65821092,-0.004175260663032532
65.82307700,65823077,-0.0031099640764296055,65823077,-0.0031099640764296055
65.82568100,65825681,-0.0031099640764296055,65825681,-0.0031099640764296055
65.82829400,65828294,0.0032818177714943886,65828294,0.0032818177714943886
65.83089300,65830893,8.59266147017479e-05,65830893,8.59266147017479e-05
65.83350200,65833502,0.0032818177714943886,65833502,0.0032818177714943886
65.83610600,65836106,-0.002044667024165392,65836106,-0.002044667024165392
65.83871200,65838712,-0.0031099640764296055,65838712,-0.0031099640764296055
65.84131500,65841315,8.59266147017479e-05,65841315,8.59266147017479e-05
65.84329300,65843293,0.0011512236669659615,65843293,0.0011512236669659615
65.84589400,65845894,-0.0009793699719011784,65845894,-0.0009793699719011784
65.84850100,65848501,8.59266147017479e-05,65848501,8.59266147017479e-05
65.85110200,65851102,8.59266147017479e-05,65851102,8.59266147017479e-05
65.85370900,65853709,-0.0031099640764296055,65853709,-0.0031099640764296055
65.85630900,65856309,-0.002044667024165392,65856309,-0.002044667024165392
65.85891000,65858910,-0.004175260663032532,65858910,-0.004175260663032532
65.86151800,65861518,8.59266147017479e-05,65861518,8.59266147017479e-05
65.86350000,65863500,-0.002044667024165392,65863500,-0.002044667024165392
65.86610200,65866102,-0.002044667024165392,65866102,-0.002044667024165392
65.86870600,65868706,-0.0031099640764296055,65868706,-0.0031099640764296055
65.87130600,65871306,-0.0031099640764296055,65871306,-0.0031099640764296055
65.87390600,65873906,-0.002044667024165392,65873906,-0.002044667024165392
65.87651200,65876512,0.002216520719230175,65876512,0.002216520719230175
65.87911800,65879118,0.0011512236669659615,65879118,0.0011512236669659615
65.88172400,65881724,-0.0009793699719011784,65881724,-0.0009793699719011784
65.88370900,65883709,0.0011512236669659615,65883709,0.0011512236669659615
65.88631300,65886313,-0.002044667024165392,65886313,-0.002044667024165392
65.88892200,65888922,-0.0031099640764296055,65888922,-0.0031099640764296055
65.89152500,65891525,0.002216520719230175,65891525,0.002216520719230175
65.89412800,65894128,8.59266147017479e-05,65894128,8.59266147017479e-05
65.89673900,65896739,-0.0031099640764296055,65896739,-0.0031099640764296055
65.89934200,65899342,-0.005240557715296745,65899342,-0.005240557715296745
65.90194800,65901948,-0.002044667024165392,65901948,-0.002044667024165392
65.90455100,65904551,-0.0009793699719011784,65904551,-0.0009793699719011784
65.90652800,65906528,-0.004175260663032532,65906528,-0.004175260663032532
65.90913600,65909136,-0.0031099640764296055,65909136,-0.0031099640764296055
65.91173600,65911736,8.59266147017479e-05,65911736,8.59266147017479e-05
65.91433800,65914338,-0.004175260663032532,65914338,-0.004175260663032532
65.91694900,65916949,8.59266147017479e-05,65916949,8.59266147017479e-05
65.91955100,65919551,-0.004175260663032532,65919551,-0.004175260663032532
65.92216200,65922162,-0.0009793699719011784,65922162,-0.0009793699719011784
65.92476600,65924766,-0.0009793699719011784,65924766,-0.0009793699719011784
65.92674000,65926740,-0.0009793699719011784,65926740,-0.0009793699719011784
65.92934500,65929345,-0.002044667024165392,65929345,-0.002044667024165392
65.93196000,65931960,-0.0031099640764296055,65931960,-0.0031099640764296055
65.93456200,65934562,-0.0009793699719011784,65934562,-0.0009793699719011784
65.93716500,65937165,-0.002044667024165392,65937165,-0.002044667024165392
65.93977200,65939772,8.59266147017479e-05,65939772,8.59266147017479e-05
65.94238600,65942386,-0.0031099640764296055,65942386,-0.0031099640764296055
65.94499100,65944991,-0.004175260663032532,65944991,-0.004175260663032532
65.94697000,65946970,0.002216520719230175,65946970,0.002216520719230175
65.94957600,65949576,-0.0009793699719011784,65949576,-0.0009793699719011784
65.95218300,65952183,8.59266147017479e-05,65952183,8.59266147017479e-05
65.95479000,65954790,-0.0009793699719011784,65954790,-0.0009793699719011784
65.95739800,65957398,-0.0009793699719011784,65957398,-0.0009793699719011784
65.96000300,65960003,-0.002044667024165392,65960003,-0.002044667024165392
65.96260900,65962609,0.0011512236669659615,65962609,0.0011512236669659615
65.96521100,65965211,8.59266147017479e-05,65965211,8.59266147017479e-05
65.96718700,65967187,-0.002044667024165392,65967187,-0.002044667024165392
65.96979100,65969791,-0.0009793699719011784,65969791,-0.0009793699719011784
65.97240000,65972400,-0.0009793699719011784,65972400,-0.0009793699719011784
65.97500500,65975005,8.59266147017479e-05,65975005,8.59266147017479e-05
65.97760900,65977609,-0.0009793699719011784,65977609,-0.0009793699719011784
65.98022000,65980220,8.59266147017479e-05,65980220,8.59266147017479e-05
65.98282500,65982825,-0.0031099640764296055,65982825,-0.0031099640764296055
65.98542900,65985429,-0.0009793699719011784,65985429,-0.0009793699719011784
65.98740500,65987405,-0.0031099640764296055,65987405,-0.0031099640764296055
65.99000900,65990009,8.59266147017479e-05,65990009,8.59266147017479e-05
65.99261400,65992614,-0.005240557715296745,65992614,-0.005240557715296745
65.99522200,65995222,0.0011512236669659615,65995222,0.0011512236669659615
65.99783000,65997830,-0.002044667024165392,65997830,-0.002044667024165392
66.00043200,66000432,-0.002044667024165392,66000432,-0.002044667024165392
66.00304400,66003044,-0.002044667024165392,66003044,-0.002044667024165392
66.00564700,66005647,-0.002044667024165392,66005647,-0.002044667024165392
66.00762500,66007625,-0.0009793699719011784,66007625,-0.0009793699719011784
66.01022800,66010228,8.59266147017479e-05,66010228,8.59266147017479e-05
66.01283100,66012831,8.59266147017479e-05,66012831,8.59266147017479e-05
66.01543200,66015432,0.002216520719230175,66015432,0.002216520719230175
66.01804200,66018042,-0.004175260663032532,66018042,-0.004175260663032532
66.02064200,66020642,0.002216520719230175,66020642,0.002216520719230175
66.02324600,66023246,-0.0009793699719011784,66023246,-0.0009793699719011784
66.02585500,66025855,-0.006305854767560959,66025855,-0.006305854767560959
66.02783000,66027830,-0.0009793699719011784,66027830,-0.0009793699719011784
66.03043100,66030431,8.59266147017479e-05,66030431,8.59266147017479e-05
66.03304500,66033045,-0.0009793699719011784,66033045,-0.0009793699719011784
66.03564600,66035646,-0.0009793699719011784,66035646,-0.0009793699719011784
66.03825700,66038257,-0.0009793699719011784,66038257,-0.0009793699719011784
66.04086000,66040860,8.59266147017479e-05,66040860,8.59266147017479e-05
66.04346600,66043466,-0.0031099640764296055,66043466,-0.0031099640764296055
66.04606800,66046068,0.0011512236669659615,66046068,0.0011512236669659615
66.04868500,66048685,-0.0009793699719011784,66048685,-0.0009793699719011784
66.05067100,66050671,-0.0031099640764296055,66050671,-0.0031099640764296055
66.05327300,66053273,-0.002044667024165392,66053273,-0.002044667024165392
66.05587600,66055876,-0.0009793699719011784,66055876,-0.0009793699719011784
66.05848300,66058483,-0.0009793699719011784,66058483,-0.0009793699719011784
66.06108900,66061089,-0.002044667024165392,66061089,-0.002044667024165392
66.06369400,66063694,-0.0009793699719011784,66063694,-0.0009793699719011784
66.06629700,66066297,-0.0009793699719011784,66066297,-0.0009793699719011784
66.06890700,66068907,-0.002044667024165392,66068907,-0.002044667024165392
66.07090600,66070906,-0.004175260663032532,66070906,-0.004175260663032532
66.07351300,66073513,8.59266147017479e-05,66073513,8.59266147017479e-05
66.07611600,66076116,8.59266147017479e-05,66076116,8.59266147017479e-05
66.07872100,66078721,-0.0031099640764296055,66078721,-0.0031099640764296055
66.08132600,66081326,-0.0009793699719011784,66081326,-0.0009793699719011784
66.08393300,66083933,-0.0009793699719011784,66083933,-0.0009793699719011784
66.08653600,66086536,-0.0009793699719011784,66086536,-0.0009793699719011784
66.08851300,66088513,-0.0031099640764296055,66088513,-0.0031099640764296055
66.09112000,66091120,-0.0009793699719011784,66091120,-0.0009793699719011784
66.09372900,66093729,8.59266147017479e-05,66093729,8.59266147017479e-05
66.09633500,66096335,-0.002044667024165392,66096335,-0.002044667024165392
66.09894800,66098948,-0.0009793699719011784,66098948,-0.0009793699719011784
66.10155900,66101559,-0.0009793699719011784,66101559,-0.0009793699719011784
66.10417700,66104177,-0.002044667024165392,66104177,-0.002044667024165392
66.10677700,66106777,-0.006305854767560959,66106777,-0.006305854767560959
66.10875700,66108757,0.0011512236669659615,66108757,0.0011512236669659615
66.11136100,66111361,-0.0009793699719011784,66111361,-0.0009793699719011784
66.11396100,66113961,-0.002044667024165392,66113961,-0.002044667024165392
66.11656800,66116568,-0.006305854767560959,66116568,-0.006305854767560959
66.11918200,66119182,0.004347114823758602,66119182,0.004347114823758602
66.12178500,66121785,-0.005240557715296745,66121785,-0.005240557715296745
66.12439100,66124391,8.59266147017479e-05,66124391,8.59266147017479e-05
66.12699700,66126997,-0.0031099640764296055,66126997,-0.0031099640764296055
66.12897200,66128972,-0.0031099640764296055,66128972,-0.0031099640764296055
66.13157500,66131575,-0.0009793699719011784,66131575,-0.0009793699719011784
66.13418800,66134188,-0.0009793699719011784,66134188,-0.0009793699719011784
66.13678800,66136788,0.0011512236669659615,66136788,0.0011512236669659615
66.13939700,66139397,-0.004175260663032532,66139397,-0.004175260663032532
66.14200600,66142006,8.59266147017479e-05,66142006,8.59266147017479e-05
66.14461900,66144619,0.0011512236669659615,66144619,0.0011512236669659615
66.14722000,66147220,8.59266147017479e-05,66147220,8.59266147017479e-05
66.14919900,66149199,0.0011512236669659615,66149199,0.0011512236669659615
66.15180100,66151801,-0.0009793699719011784,66151801,-0.0009793699719011784
66.15440900,66154409,-0.0031099640764296055,66154409,-0.0031099640764296055
66.15700800,66157008,-0.002044667024165392,66157008,-0.002044667024165392
66.15962000,66159620,-0.0031099640764296055,66159620,-0.0031099640764296055
66.16222200,66162222,-0.0009793699719011784,66162222,-0.0009793699719011784
66.16482800,66164828,-0.0031099640764296055,66164828,-0.0031099640764296055
66.16743800,66167438,-0.004175260663032532,66167438,-0.004175260663032532
66.17004300,66170043,-0.0031099640764296055,66170043,-0.0031099640764296055
66.17202100,66172021,-0.0009793699719011784,66172021,-0.0009793699719011784
66.17463400,66174634,-0.0009793699719011784,66174634,-0.0009793699719011784
66.17723700,66177237,0.0011512236669659615,66177237,0.0011512236669659615
66.17985400,66179854,-0.005240557715296745,66179854,-0.005240557715296745
66.18245300,66182453,-0.0009793699719011784,66182453,-0.0009793699719011784
66.18506700,66185067,-0.006305854767560959,66185067,-0.006305854767560959
66.18767000,66187670,-0.0009793699719011784,66187670,-0.0009793699719011784
66.18965400,66189654,-0.0031099640764296055,66189654,-0.0031099640764296055
66.19226000,66192260,8.59266147017479e-05,66192260,8.59266147017479e-05
66.19486800,66194868,0.0011512236669659615,66194868,0.0011512236669659615
66.19746900,66197469,-0.0031099640764296055,66197469,-0.0031099640764296055
66.20008200,66200082,-0.004175260663032532,66200082,-0.004175260663032532
66.20268500,66202685,8.59266147017479e-05,66202685,8.59266147017479e-05
66.20530400,66205304,-0.0009793699719011784,66205304,-0.0009793699719011784
66.20791200,66207912,-0.002044667024165392,66207912,-0.002044667024165392
66.20988700,66209887,8.59266147017479e-05,66209887,8.59266147017479e-05
66.21248800,66212488,-0.0009793699719011784,66212488,-0.0009793699719011784
66.21508900,66215089,-0.0009793699719011784,66215089,-0.0009793699719011784
66.21769700,66217697,8.59266147017479e-05,66217697,8.59266147017479e-05
66.22030300,66220303,-0.0009793699719011784,66220303,-0.0009793699719011784
66.22290800,66222908,8.59266147017479e-05,66222908,8.59266147017479e-05
66.22551000,66225510,8.59266147017479e-05,66225510,8.59266147017479e-05
66.22811100,66228111,-0.002044667024165392,66228111,-0.002044667024165392
66.23072000,66230720,-0.002044667024165392,66230720,-0.002044667024165392
66.23270500,66232705,-0.004175260663032532,66232705,-0.004175260663032532
66.23531800,66235318,0.0011512236669659615,66235318,0.0011512236669659615
66.23792000,66237920,0.0011512236669659615,66237920,0.0011512236669659615
66.24052300,66240523,-0.0031099640764296055,66240523,-0.0031099640764296055
66.24312200,66243122,0.002216520719230175,66243122,0.002216520719230175
66.24572600,66245726,8.59266147017479e-05,66245726,8.59266147017479e-05
66.24832700,66248327,-0.005240557715296745,66248327,-0.005240557715296745
66.25093900,66250939,-0.0009793699719011784,66250939,-0.0009793699719011784
66.25291600,66252916,0.0032818177714943886,66252916,0.0032818177714943886
66.25572600,66255726,-0.0031099640764296055,66255726,-0.0031099640764296055
66.25832700,66258327,-0.004175260663032532,66258327,-0.004175260663032532
66.26094400,66260944,0.0011512236669659615,66260944,0.0011512236669659615
66.26354600,66263546,0.0011512236669659615,66263546,0.0011512236669659615
66.26552500,66265525,0.0011512236669659615,66265525,0.0011512236669659615
66.26812700,66268127,0.0011512236669659615,66268127,0.0011512236669659615
66.27073300,66270733,8.59266147017479e-05,66270733,8.59266147017479e-05
66.27333500,66273335,0.0011512236669659615,66273335,0.0011512236669659615
66.27594900,66275949,-0.0009793699719011784,66275949,-0.0009793699719011784
66.27855300,66278553,-0.004175260663032532,66278553,-0.004175260663032532
66.28116400,66281164,8.59266147017479e-05,66281164,8.59266147017479e-05
66.28376800,66283768,0.0011512236669659615,66283768,0.0011512236669659615
66.28574900,66285749,-0.0009793699719011784,66285749,-0.0009793699719011784
66.28835100,66288351,8.59266147017479e-05,66288351,8.59266147017479e-05
66.29095800,66290958,-0.002044667024165392,66290958,-0.002044667024165392
66.29356100,66293561,-0.004175260663032532,66293561,-0.004175260663032532
66.29616900,66296169,-0.002044667024165392,66296169,-0.002044667024165392
66.29877600,66298776,8.59266147017479e-05,66298776,8.59266147017479e-05
66.30139400,66301394,-0.0031099640764296055,66301394,-0.0031099640764296055
66.30399800,66303998,-0.002044667024165392,66303998,-0.002044667024165392
66.30597600,66305976,-0.0009793699719011784,66305976,-0.0009793699719011784
66.30858100,66308581,-0.0009793699719011784,66308581,-0.0009793699719011784
66.31119000,66311190,-0.0009793699719011784,66311190,-0.0009793699719011784
66.31380500,66313805,-0.0031099640764296055,66313805,-0.0031099640764296055
66.31640800,66316408,-0.0031099640764296055,66316408,-0.0031099640764296055
66.31900800,66319008,-0.002044667024165392,66319008,-0.002044667024165392
66.32161700,66321617,0.0011512236669659615,66321617,0.0011512236669659615
66.32422000,66324220,8.59266147017479e-05,66324220,8.59266147017479e-05
66.32619900,66326199,8.59266147017479e-05,66326199,8.59266147017479e-05
66.32880200,66328802,-0.0009793699719011784,66328802,-0.0009793699719011784
66.33141000,66331410,0.0032818177714943886,66331410,0.0032818177714943886
66.33401300,66334013,-0.0031099640764296055,66334013,-0.0031099640764296055
66.33661500,66336615,-0.004175260663032532,66336615,-0.004175260663032532
66.33922200,66339222,0.002216520719230175,66339222,0.002216520719230175
66.34182700,66341827,-0.002044667024165392,66341827,-0.002044667024165392
66.34442800,66344428,-0.0009793699719011784,66344428,-0.0009793699719011784
66.34704600,66347046,-0.002044667024165392,66347046,-0.002044667024165392
66.34903000,66349030,0.002216520719230175,66349030,0.002216520719230175
66.35163100,66351631,-0.005240557715296745,66351631,-0.005240557715296745
66.35424700,66354247,8.59266147017479e-05,66354247,8.59266147017479e-05
66.35684700,66356847,8.59266147017479e-05,66356847,8.59266147017479e-05
66.35944700,66359447,0.0011512236669659615,66359447,0.0011512236669659615
66.36205500,66362055,-0.0009793699719011784,66362055,-0.0009793699719011784
66.36466100,66364661,-0.0009793699719011784,66364661,-0.0009793699719011784
66.36727500,66367275,-0.002044667024165392,66367275,-0.002044667024165392
66.36925700,66369257,-0.002044667024165392,66369257,-0.002044667024165392
66.37186400,66371864,0.002216520719230175,66371864,0.002216520719230175
66.37447300,66374473,-0.0031099640764296055,66374473,-0.0031099640764296055
66.37707600,66377076,0.0011512236669659615,66377076,0.0011512236669659615
66.37967900,66379679,8.59266147017479e-05,66379679,8.59266147017479e-05
66.38228900,66382289,-0.002044667024165392,66382289,-0.002044667024165392
66.38489500,66384895,-0.0009793699719011784,66384895,-0.0009793699719011784
66.38687600,66386876,-0.0009793699719011784,66386876,-0.0009793699719011784
66.38947800,66389478,8.59266147017479e-05,66389478,8.59266147017479e-05
66.39208300,66392083,0.0032818177714943886,66392083,0.0032818177714943886
66.39468800,66394688,-0.0031099640764296055,66394688,-0.0031099640764296055
66.39729300,66397293,-0.002044667024165392,66397293,-0.002044667024165392
66.39989500,66399895,-0.002044667024165392,66399895,-0.002044667024165392
66.40250500,66402505,-0.0009793699719011784,66402505,-0.0009793699719011784
66.40510600,66405106,8.59266147017479e-05,66405106,8.59266147017479e-05
66.40771100,66407711,-0.004175260663032532,66407711,-0.004175260663032532
66.40970500,66409705,-0.002044667024165392,66409705,-0.002044667024165392
66.41230500,66412305,-0.0031099640764296055,66412305,-0.0031099640764296055
66.41491900,66414919,-0.0009793699719011784,66414919,-0.0009793699719011784
66.41752000,66417520,8.59266147017479e-05,66417520,8.59266147017479e-05
66.42012400,66420124,-0.004175260663032532,66420124,-0.004175260663032532
66.42273600,66422736,-0.002044667024165392,66422736,-0.002044667024165392
66.42533800,66425338,8.59266147017479e-05,66425338,8.59266147017479e-05
66.42795400,66427954,-0.002044667024165392,66427954,-0.002044667024165392
66.42993400,66429934,0.0011512236669659615,66429934,0.0011512236669659615
66.43253300,66432533,-0.0031099640764296055,66432533,-0.0031099640764296055
66.43513900,66435139,0.0011512236669659615,66435139,0.0011512236669659615
66.43774800,66437748,-0.0009793699719011784,66437748,-0.0009793699719011784
66.44034800,66440348,8.59266147017479e-05,66440348,8.59266147017479e-05
66.44295300,66442953,-0.0031099640764296055,66442953,-0.0031099640764296055
66.44555600,66445556,8.59266147017479e-05,66445556,8.59266147017479e-05
66.44817000,66448170,-0.004175260663032532,66448170,-0.004175260663032532
66.45014800,66450148,-0.0031099640764296055,66450148,-0.0031099640764296055
66.45275700,66452757,0.002216520719230175,66452757,0.002216520719230175
66.45536500,66455365,0.0011512236669659615,66455365,0.0011512236669659615
66.45796800,66457968,-0.0031099640764296055,66457968,-0.0031099640764296055
66.46057200,66460572,-0.0031099640764296055,66460572,-0.0031099640764296055
66.46318700,66463187,-0.005240557715296745,66463187,-0.005240557715296745
66.46578400,66465784,0.0011512236669659615,66465784,0.0011512236669659615
66.46840400,66468404,-0.0009793699719011784,66468404,-0.0009793699719011784
66.47038700,66470387,-0.0031099640764296055,66470387,-0.0031099640764296055
66.47298700,66472987,-0.0009793699719011784,66472987,-0.0009793699719011784
66.47559700,66475597,-0.0031099640764296055,66475597,-0.0031099640764296055
66.47820000,66478200,-0.002044667024165392,66478200,-0.002044667024165392
66.48080500,66480805,-0.0009793699719011784,66480805,-0.0009793699719011784
66.48340900,66483409,-0.004175260663032532,66483409,-0.004175260663032532
66.48602100,66486021,8.59266147017479e-05,66486021,8.59266147017479e-05
66.48863100,66488631,0.0032818177714943886,66488631,0.0032818177714943886
66.49062400,66490624,-0.0031099640764296055,66490624,-0.0031099640764296055
66.49322500,66493225,0.002216520719230175,66493225,0.002216520719230175
66.49583500,66495835,8.59266147017479e-05,66495835,8.59266147017479e-05
66.49843900,66498439,-0.0031099640764296055,66498439,-0.0031099640764296055
66.50104400,66501044,0.0011512236669659615,66501044,0.0011512236669659615
66.50364800,66503648,-0.0009793699719011784,66503648,-0.0009793699719011784
66.50625600,66506256,0.0011512236669659615,66506256,0.0011512236669659615
66.50885700,66508857,-0.002044667024165392,66508857,-0.002044667024165392
66.51083800,66510838,-0.0009793699719011784,66510838,-0.0009793699719011784
66.51344400,66513444,8.59266147017479e-05,66513444,8.59266147017479e-05
66.51606000,66516060,-0.0031099640764296055,66516060,-0.0031099640764296055
66.51866200,66518662,-0.0031099640764296055,66518662,-0.0031099640764296055
66.52126300,66521263,-0.002044667024165392,66521263,-0.002044667024165392
66.52387500,66523875,-0.0031099640764296055,66523875,-0.0031099640764296055
66.52647500,66526475,-0.002044667024165392,66526475,-0.002044667024165392
66.52908300,66529083,-0.0031099640764296055,66529083,-0.0031099640764296055
66.53106600,66531066,0.002216520719230175,66531066,0.002216520719230175
66.53367000,66533670,-0.006305854767560959,66533670,-0.006305854767560959
66.53627500,66536275,-0.0031099640764296055,66536275,-0.0031099640764296055
66.53888300,66538883,-0.0009793699719011784,66538883,-0.0009793699719011784
66.54148400,66541484,8.59266147017479e-05,66541484,8.59266147017479e-05
66.54409900,66544099,-0.004175260663032532,66544099,-0.004175260663032532
66.54670400,66546704,8.59266147017479e-05,66546704,8.59266147017479e-05
66.54931300,66549313,0.0011512236669659615,66549313,0.0011512236669659615
66.55129900,66551299,-0.0031099640764296055,66551299,-0.0031099640764296055
66.55390300,66553903,-0.005240557715296745,66553903,-0.005240557715296745
66.55651700,66556517,-0.0009793699719011784,66556517,-0.0009793699719011784
66.55912200,66559122,-0.0031099640764296055,66559122,-0.0031099640764296055
66.56172500,66561725,-0.0031099640764296055,66561725,-0.0031099640764296055
66.56433400,66564334,0.002216520719230175,66564334,0.002216520719230175
66.56693800,66566938,8.59266147017479e-05,66566938,8.59266147017479e-05
66.56955400,66569554,8.59266147017479e-05,66569554,8.59266147017479e-05
66.57153300,66571533,8.59266147017479e-05,66571533,8.59266147017479e-05
66.57413600,66574136,-0.005240557715296745,66574136,-0.005240557715296745
66.57675000,66576750,-0.0031099640764296055,66576750,-0.0031099640764296055
66.57935300,66579353,-0.0009793699719011784,66579353,-0.0009793699719011784
66.58195200,66581952,-0.0009793699719011784,66581952,-0.0009793699719011784
66.58455800,66584558,-0.0009793699719011784,66584558,-0.0009793699719011784
66.58716500,66587165,-0.005240557715296745,66587165,-0.005240557715296745
66.58977300,66589773,-0.002044667024165392,66589773,-0.002044667024165392
66.59176700,66591767,-0.004175260663032532,66591767,-0.004175260663032532
66.59437000,66594370,-0.0009793699719011784,66594370,-0.0009793699719011784
66.59698200,66596982,-0.004175260663032532,66596982,-0.004175260663032532
66.59958400,66599584,-0.002044667024165392,66599584,-0.002044667024165392
66.60218500,66602185,-0.0009793699719011784,66602185,-0.0009793699719011784
66.60479900,66604799,-0.002044667024165392,66604799,-0.002044667024165392
66.60740100,66607401,-0.004175260663032532,66607401,-0.004175260663032532
66.60938100,66609381,-0.0009793699719011784,66609381,-0.0009793699719011784
66.61198700,66611987,-0.0031099640764296055,66611987,-0.0031099640764296055
66.61459000,66614590,-0.002044667024165392,66614590,-0.002044667024165392
66.61719700,66617197,-0.0031099640764296055,66617197,-0.0031099640764296055
66.61979700,66619797,-0.002044667024165392,66619797,-0.002044667024165392
66.62240100,66622401,-0.004175260663032532,66622401,-0.004175260663032532
66.62501700,66625017,0.0011512236669659615,66625017,0.0011512236669659615
66.62762000,66627620,-0.0031099640764296055,66627620,-0.0031099640764296055
66.63022600,66630226,-0.002044667024165392,66630226,-0.002044667024165392
66.63220500,66632205,-0.0009793699719011784,66632205,-0.0009793699719011784
66.63480400,66634804,8.59266147017479e-05,66634804,8.59266147017479e-05
66.63741200,66637412,-0.004175260663032532,66637412,-0.004175260663032532
66.64001300,66640013,-0.0009793699719011784,66640013,-0.0009793699719011784
66.64261600,66642616,-0.007371151819825172,66642616,-0.007371151819825172
66.64522200,66645222,-0.0009793699719011784,66645222,-0.0009793699719011784
66.64782400,66647824,-0.004175260663032532,66647824,-0.004175260663032532
66.65043000,66650430,-0.0009793699719011784,66650430,-0.0009793699719011784
66.65241100,66652411,0.0011512236669659615,66652411,0.0011512236669659615
66.65501800,66655018,-0.004175260663032532,66655018,-0.004175260663032532
66.65762300,66657623,-0.0009793699719011784,66657623,-0.0009793699719011784
66.66022600,66660226,-0.002044667024165392,66660226,-0.002044667024165392
66.66283700,66662837,-0.006305854767560959,66662837,-0.006305854767560959
66.66544700,66665447,8.59266147017479e-05,66665447,8.59266147017479e-05
66.66804900,66668049,-0.002044667024165392,66668049,-0.002044667024165392
66.67065900,66670659,-0.0009793699719011784,66670659,-0.0009793699719011784
66.67264700,66672647,-0.0031099640764296055,66672647,-0.0031099640764296055
66.67525000,66675250,-0.002044667024165392,66675250,-0.002044667024165392
66.67786000,66677860,-0.007371151819825172,66677860,-0.007371151819825172
66.68046400,66680464,-0.002044667024165392,66680464,-0.002044667024165392
66.68307500,66683075,-0.002044667024165392,66683075,-0.002044667024165392
66.68568000,66685680,-0.002044667024165392,66685680,-0.002044667024165392
66.68829100,66688291,-0.0031099640764296055,66688291,-0.0031099640764296055
66.69090100,66690901,-0.0009793699719011784,66690901,-0.0009793699719011784
66.69288400,66692884,-0.0031099640764296055,66692884,-0.0031099640764296055
66.69548700,66695487,0.005412411876022816,66695487,0.005412411876022816
66.69810600,66698106,-0.004175260663032532,66698106,-0.004175260663032532
66.70071400,66700714,-0.002044667024165392,66700714,-0.002044667024165392
66.70331600,66703316,-0.002044667024165392,66703316,-0.002044667024165392
66.70592400,66705924,-0.0031099640764296055,66705924,-0.0031099640764296055
66.70852500,66708525,-0.0009793699719011784,66708525,-0.0009793699719011784
66.71113600,66711136,8.59266147017479e-05,66711136,8.59266147017479e-05
66.71311800,66713118,-0.005240557715296745,66713118,-0.005240557715296745
66.71572200,66715722,-0.002044667024165392,66715722,-0.002044667024165392
66.71833200,66718332,-0.0009793699719011784,66718332,-0.0009793699719011784
66.72093700,66720937,8.59266147017479e-05,66720937,8.59266147017479e-05
66.72353800,66723538,-0.0009793699719011784,66723538,-0.0009793699719011784
66.72614700,66726147,-0.005240557715296745,66726147,-0.005240557715296745
66.72875500,66728755,8.59266147017479e-05,66728755,8.59266147017479e-05
66.73136200,66731362,-0.0009793699719011784,66731362,-0.0009793699719011784
66.73334600,66733346,-0.002044667024165392,66733346,-0.002044667024165392
66.73594900,66735949,-0.0009793699719011784,66735949,-0.0009793699719011784
66.73856100,66738561,-0.005240557715296745,66738561,-0.005240557715296745
66.74116300,66741163,-0.002044667024165392,66741163,-0.002044667024165392
66.74376200,66743762,-0.0009793699719011784,66743762,-0.0009793699719011784
66.74637800,66746378,-0.006305854767560959,66746378,-0.006305854767560959
66.74898600,66748986,8.59266147017479e-05,66748986,8.59266147017479e-05
66.75159500,66751595,-0.004175260663032532,66751595,-0.004175260663032532
66.75357200,66753572,-0.0009793699719011784,66753572,-0.0009793699719011784
66.75618100,66756181,-0.002044667024165392,66756181,-0.002044667024165392
66.75878800,66758788,-0.002044667024165392,66758788,-0.002044667024165392
66.76138900,66761389,-0.0009793699719011784,66761389,-0.0009793699719011784
66.76398900,66763989,-0.0009793699719011784,66763989,-0.0009793699719011784
66.76659900,66766599,-0.004175260663032532,66766599,-0.004175260663032532
66.76920300,66769203,0.0011512236669659615,66769203,0.0011512236669659615
66.77180900,66771809,8.59266147017479e-05,66771809,8.59266147017479e-05
66.77379100,66773791,-0.0009793699719011784,66773791,-0.0009793699719011784
66.77639200,66776392,-0.0031099640764296055,66776392,-0.0031099640764296055
66.77900300,66779003,-0.0009793699719011784,66779003,-0.0009793699719011784
66.78161600,66781616,0.0011512236669659615,66781616,0.0011512236669659615
66.78421600,66784216,-0.0009793699719011784,66784216,-0.0009793699719011784
66.78682200,66786822,-0.0031099640764296055,66786822,-0.0031099640764296055
66.78942500,66789425,8.59266147017479e-05,66789425,8.59266147017479e-05
66.79203300,66792033,-0.002044667024165392,66792033,-0.002044667024165392
66.79401600,66794016,0.004347114823758602,66794016,0.004347114823758602
66.79661600,66796616,-0.0031099640764296055,66796616,-0.0031099640764296055
66.79922500,66799225,-0.004175260663032532,66799225,-0.004175260663032532
66.80182900,66801829,-0.0031099640764296055,66801829,-0.0031099640764296055
66.80443400,66804434,-0.0009793699719011784,66804434,-0.0009793699719011784
66.80704200,66807042,-0.0009793699719011784,66807042,-0.0009793699719011784
66.80964900,66809649,-0.004175260663032532,66809649,-0.004175260663032532
66.81225400,66812254,8.59266147017479e-05,66812254,8.59266147017479e-05
66.81424900,66814249,0.0011512236669659615,66814249,0.0011512236669659615
66.81685300,66816853,-0.002044667024165392,66816853,-0.002044667024165392
66.81946600,66819466,-0.002044667024165392,66819466,-0.002044667024165392
66.82207300,66822073,8.59266147017479e-05,66822073,8.59266147017479e-05
66.82467300,66824673,-0.002044667024165392,66824673,-0.002044667024165392
66.82728700,66827287,-0.0009793699719011784,66827287,-0.0009793699719011784
66.82989100,66829891,8.59266147017479e-05,66829891,8.59266147017479e-05
66.83249400,66832494,0.0011512236669659615,66832494,0.0011512236669659615
66.83447100,66834471,-0.0009793699719011784,66834471,-0.0009793699719011784
66.83707300,66837073,-0.0031099640764296055,66837073,-0.0031099640764296055
66.83967700,66839677,-0.0009793699719011784,66839677,-0.0009793699719011784
66.84229300,66842293,-0.0009793699719011784,66842293,-0.0009793699719011784
66.84489800,66844898,8.59266147017479e-05,66844898,8.59266147017479e-05
66.84750800,66847508,0.002216520719230175,66847508,0.002216520719230175
66.85011200,66850112,-0.002044667024165392,66850112,-0.002044667024165392
66.85271800,66852718,-0.0031099640764296055,66852718,-0.0031099640764296055
66.85469500,66854695,-0.002044667024165392,66854695,-0.002044667024165392
66.85730800,66857308,8.59266147017479e-05,66857308,8.59266147017479e-05
66.85991000,66859910,0.002216520719230175,66859910,0.002216520719230175
66.86252000,66862520,-0.005240557715296745,66862520,-0.005240557715296745
66.86511800,66865118,-0.005240557715296745,66865118,-0.005240557715296745
66.86773600,66867736,0.0032818177714943886,66867736,0.0032818177714943886
66.87033700,66870337,8.59266147017479e-05,66870337,8.59266147017479e-05
66.87294800,66872948,-0.0009793699719011784,66872948,-0.0009793699719011784
66.87493100,66874931,-0.002044667024165392,66874931,-0.002044667024165392
66.87753400,66877534,-0.0031099640764296055,66877534,-0.0031099640764296055
66.88014100,66880141,-0.005240557715296745,66880141,-0.005240557715296745
66.88274700,66882747,0.0011512236669659615,66882747,0.0011512236669659615
66.88535400,66885354,0.004347114823758602,66885354,0.004347114823758602
66.88796100,66887961,-0.0031099640764296055,66887961,-0.0031099640764296055
66.89056500,66890565,0.0011512236669659615,66890565,0.0011512236669659615
66.89317600,66893176,-0.006305854767560959,66893176,-0.006305854767560959
66.89515900,66895159,-0.004175260663032532,66895159,-0.004175260663032532
66.89776300,66897763,0.0011512236669659615,66897763,0.0011512236669659615
66.90037200,66900372,8.59266147017479e-05,66900372,8.59266147017479e-05
66.90298200,66902982,-0.0009793699719011784,66902982,-0.0009793699719011784
66.90558800,66905588,-0.0009793699719011784,66905588,-0.0009793699719011784
66.90819300,66908193,-0.005240557715296745,66908193,-0.005240557715296745
66.91080800,66910808,-0.0009793699719011784,66910808,-0.0009793699719011784
66.91341600,66913416,-0.0009793699719011784,66913416,-0.0009793699719011784
66.91539400,66915394,-0.002044667024165392,66915394,-0.002044667024165392
66.91800000,66918000,0.0032818177714943886,66918000,0.0032818177714943886
66.92061500,66920615,0.0011512236669659615,66920615,0.0011512236669659615
66.92321600,66923216,-0.0031099640764296055,66923216,-0.0031099640764296055
66.92581500,66925815,0.002216520719230175,66925815,0.002216520719230175
66.92843400,66928434,0.0011512236669659615,66928434,0.0011512236669659615
66.93104000,66931040,-0.0009793699719011784,66931040,-0.0009793699719011784
66.93364600,66933646,-0.004175260663032532,66933646,-0.004175260663032532
66.93562600,66935626,0.0011512236669659615,66935626,0.0011512236669659615
66.93822800,66938228,-0.0031099640764296055,66938228,-0.0031099640764296055
66.94084100,66940841,8.59266147017479e-05,66940841,8.59266147017479e-05
66.94344300,66943443,-0.002044667024165392,66943443,-0.002044667024165392
66.94604900,66946049,8.59266147017479e-05,66946049,8.59266147017479e-05
66.94865100,66948651,-0.007371151819825172,66948651,-0.007371151819825172
66.95125900,66951259,8.59266147017479e-05,66951259,8.59266147017479e-05
66.95386400,66953864,-0.0031099640764296055,66953864,-0.0031099640764296055
66.95584400,66955844,8.59266147017479e-05,66955844,8.59266147017479e-05
66.95844700,66958447,-0.0009793699719011784,66958447,-0.0009793699719011784
66.96105000,66961050,0.002216520719230175,66961050,0.002216520719230175
66.96365200,66963652,-0.002044667024165392,66963652,-0.002044667024165392
66.96625300,66966253,-0.004175260663032532,66966253,-0.004175260663032532
66.96886200,66968862,0.002216520719230175,66968862,0.002216520719230175
66.97146500,66971465,0.0011512236669659615,66971465,0.0011512236669659615
66.97406700,66974067,-0.004175260663032532,66974067,-0.004175260663032532
66.97605100,66976051,-0.0009793699719011784,66976051,-0.0009793699719011784
66.97865300,66978653,-0.002044667024165392,66978653,-0.002044667024165392
66.98125900,66981259,0.0011512236669659615,66981259,0.0011512236669659615
66.98386100,66983861,-0.0031099640764296055,66983861,-0.0031099640764296055
66.98646200,66986462,-0.0009793699719011784,66986462,-0.0009793699719011784
66.98906900,66989069,-0.0009793699719011784,66989069,-0.0009793699719011784
66.99167400,66991674,-0.0009793699719011784,66991674,-0.0009793699719011784
66.99427700,66994277,8.59266147017479e-05,66994277,8.59266147017479e-05
66.99625900,66996259,-0.006305854767560959,66996259,-0.006305854767560959
66.99886200,66998862,-0.0009793699719011784,66998862,-0.0009793699719011784
67.00147100,67001471,-0.0009793699719011784,67001471,-0.0009793699719011784
67.00407700,67004077,-0.002044667024165392,67004077,-0.002044667024165392
67.00667600,67006676,-0.002044667024165392,67006676,-0.002044667024165392
67.00928400,67009284,-0.004175260663032532,67009284,-0.004175260663032532
67.01189200,67011892,0.002216520719230175,67011892,0.002216520719230175
67.01449700,67014497,-0.0009793699719011784,67014497,-0.0009793699719011784
67.01647900,67016479,-0.002044667024165392,67016479,-0.002044667024165392
67.01908300,67019083,-0.0009793699719011784,67019083,-0.0009793699719011784
67.02169400,67021694,-0.004175260663032532,67021694,-0.004175260663032532
67.02429500,67024295,-0.002044667024165392,67024295,-0.002044667024165392
67.02689700,67026897,-0.0031099640764296055,67026897,-0.0031099640764296055
67.02950100,67029501,-0.0009793699719011784,67029501,-0.0009793699719011784
67.03211300,67032113,-0.0031099640764296055,67032113,-0.0031099640764296055
67.03472500,67034725,-0.004175260663032532,67034725,-0.004175260663032532
67.03671100,67036711,-0.005240557715296745,67036711,-0.005240557715296745
67.03931100,67039311,0.0011512236669659615,67039311,0.0011512236669659615
67.04192200,67041922,-0.007371151819825172,67041922,-0.007371151819825172
67.04452500,67044525,-0.0009793699719011784,67044525,-0.0009793699719011784
67.04713700,67047137,-0.005240557715296745,67047137,-0.005240557715296745
67.04974600,67049746,-0.002044667024165392,67049746,-0.002044667024165392
67.05235200,67052352,0.0011512236669659615,67052352,0.0011512236669659615
67.05495900,67054959,-0.0009793699719011784,67054959,-0.0009793699719011784
67.05694400,67056944,-0.0009793699719011784,67056944,-0.0009793699719011784
67.05954400,67059544,-0.002044667024165392,67059544,-0.002044667024165392
67.06214800,67062148,-0.0009793699719011784,67062148,-0.0009793699719011784
67.06475600,67064756,-0.0009793699719011784,67064756,-0.0009793699719011784
67.06735600,67067356,8.59266147017479e-05,67067356,8.59266147017479e-05
67.06996400,67069964,-0.0009793699719011784,67069964,-0.0009793699719011784
67.07256400,67072564,-0.0031099640764296055,67072564,-0.0031099640764296055
67.07517300,67075173,-0.002044667024165392,67075173,-0.002044667024165392
67.07778000,67077780,-0.002044667024165392,67077780,-0.002044667024165392
67.07975600,67079756,-0.0009793699719011784,67079756,-0.0009793699719011784
67.08235300,67082353,-0.002044667024165392,67082353,-0.002044667024165392
67.08496300,67084963,-0.004175260663032532,67084963,-0.004175260663032532
67.08756500,67087565,8.59266147017479e-05,67087565,8.59266147017479e-05
67.09017300,67090173,-0.0009793699719011784,67090173,-0.0009793699719011784
67.09277500,67092775,8.59266147017479e-05,67092775,8.59266147017479e-05
67.09538400,67095384,-0.0031099640764296055,67095384,-0.0031099640764296055
67.09798800,67097988,-0.0031099640764296055,67097988,-0.0031099640764296055
67.09996700,67099967,0.002216520719230175,67099967,0.002216520719230175
67.10258000,67102580,-0.004175260663032532,67102580,-0.004175260663032532
67.10518400,67105184,-0.0031099640764296055,67105184,-0.0031099640764296055
67.10778500,67107785,-0.0009793699719011784,67107785,-0.0009793699719011784
67.11040500,67110405,-0.0009793699719011784,67110405,-0.0009793699719011784
67.11300700,67113007,-0.002044667024165392,67113007,-0.002044667024165392
67.11561700,67115617,-0.0009793699719011784,67115617,-0.0009793699719011784
67.11822600,67118226,-0.0031099640764296055,67118226,-0.0031099640764296055
67.12020800,67120208,-0.0031099640764296055,67120208,-0.0031099640764296055
67.12280600,67122806,8.59266147017479e-05,67122806,8.59266147017479e-05
67.12541300,67125413,-0.004175260663032532,67125413,-0.004175260663032532
67.12802000,67128020,-0.002044667024165392,67128020,-0.002044667024165392
67.13062800,67130628,-0.002044667024165392,67130628,-0.002044667024165392
67.13323000,67133230,0.002216520719230175,67133230,0.002216520719230175
67.13583900,67135839,-0.0031099640764296055,67135839,-0.0031099640764296055
67.13845000,67138450,-0.0009793699719011784,67138450,-0.0009793699719011784
67.14043400,67140434,0.0011512236669659615,67140434,0.0011512236669659615
67.14304000,67143040,0.0032818177714943886,67143040,0.0032818177714943886
67.14564800,67145648,-0.002044667024165392,67145648,-0.002044667024165392
67.14824600,67148246,-0.0009793699719011784,67148246,-0.0009793699719011784
67.15085400,67150854,-0.002044667024165392,67150854,-0.002044667024165392
67.15346100,67153461,-0.0009793699719011784,67153461,-0.0009793699719011784
67.15607200,67156072,8.59266147017479e-05,67156072,8.59266147017479e-05
67.15867600,67158676,8.59266147017479e-05,67158676,8.59266147017479e-05
67.16065400,67160654,-0.004175260663032532,67160654,-0.004175260663032532
67.16326200,67163262,0.0011512236669659615,67163262,0.0011512236669659615
67.16586400,67165864,-0.0009793699719011784,67165864,-0.0009793699719011784
67.16846500,67168465,-0.0009793699719011784,67168465,-0.0009793699719011784
67.17107200,67171072,-0.0009793699719011784,67171072,-0.0009793699719011784
67.17367400,67173674,0.002216520719230175,67173674,0.002216520719230175
67.17628300,67176283,-0.002044667024165392,67176283,-0.002044667024165392
67.17888300,67178883,-0.0009793699719011784,67178883,-0.0009793699719011784
67.18086100,67180861,-0.0031099640764296055,67180861,-0.0031099640764296055
67.18347100,67183471,-0.0009793699719011784,67183471,-0.0009793699719011784
67.18607100,67186071,-0.0009793699719011784,67186071,-0.0009793699719011784
67.18867100,67188671,8.59266147017479e-05,67188671,8.59266147017479e-05
67.19128800,67191288,8.59266147017479e-05,67191288,8.59266147017479e-05
67.19389100,67193891,8.59266147017479e-05,67193891,8.59266147017479e-05
67.19649500,67196495,0.002216520719230175,67196495,0.002216520719230175
67.19909900,67199099,-0.0009793699719011784,67199099,-0.0009793699719011784
67.20107700,67201077,-0.0009793699719011784,67201077,-0.0009793699719011784
67.20368200,67203682,-0.0031099640764296055,67203682,-0.0031099640764296055
67.20628500,67206285,-0.0031099640764296055,67206285,-0.0031099640764296055
67.20888800,67208888,-0.0009793699719011784,67208888,-0.0009793699719011784
67.21149100,67211491,-0.002044667024165392,67211491,-0.002044667024165392
67.21409500,67214095,8.59266147017479e-05,67214095,8.59266147017479e-05
67.21670400,67216704,0.002216520719230175,67216704,0.002216520719230175
67.21930800,67219308,-0.002044667024165392,67219308,-0.002044667024165392
67.22128600,67221286,-0.0009793699719011784,67221286,-0.0009793699719011784
67.22389300,67223893,-0.002044667024165392,67223893,-0.002044667024165392
67.22650400,67226504,-0.002044667024165392,67226504,-0.002044667024165392
67.22910500,67229105,-0.0031099640764296055,67229105,-0.0031099640764296055
67.23171600,67231716,-0.0009793699719011784,67231716,-0.0009793699719011784
67.23431600,67234316,-0.0009793699719011784,67234316,-0.0009793699719011784
67.23693000,67236930,-0.0009793699719011784,67236930,-0.0009793699719011784
67.23952700,67239527,-0.0009793699719011784,67239527,-0.0009793699719011784
67.24150700,67241507,-0.002044667024165392,67241507,-0.002044667024165392
67.24410900,67244109,0.0011512236669659615,67244109,0.0011512236669659615
67.24672700,67246727,8.59266147017479e-05,67246727,8.59266147017479e-05
67.24932700,67249327,-0.007371151819825172,67249327,-0.007371151819825172
67.25193800,67251938,0.0011512236669659615,67251938,0.0011512236669659615
