timestamp,TimeUS,I,GyrX,GyrY,GyrZ,AccX,AccY,AccZ,EG,EA,T,GH,AH,GHz,AHz
89.13216800,89132168,1,0.002830269280821085,-1.317192436545156e-05,0.00033349954173900187,-0.49128293991088867,-0.1503673642873764,-9.95030689239502,0,0,44.0,1,1,1995,2060
89.13397100,89133971,1,0.0025545605458319187,-0.00033954379614442587,0.00028850260423496366,-0.49546945095062256,-0.15036450326442719,-9.96073055267334,0,0,44.0,1,1,1995,2060
89.13622700,89136227,1,0.002034758450463414,-0.0004712699737865478,0.00038691647932864726,-0.4982488751411438,-0.14958250522613525,-9.972909927368164,0,0,44.0,1,1,1995,2060
89.13867700,89138677,1,0.001620805007405579,-3.435665712459013e-05,-0.00018116565479431301,-0.5011992454528809,-0.14858859777450562,-9.981051445007324,0,0,44.0,1,1,1995,2060
89.14142000,89141420,1,0.0014123711735010147,-0.00010172802285524085,-0.0007685028831474483,-0.5017195343971252,-0.14532780647277832,-9.983561515808105,0,0,44.0,1,1,1995,2060
89.14368800,89143688,1,0.0008766102255322039,-0.000333236763253808,-0.00022458347666542977,-0.5030367374420166,-0.13850289583206177,-9.98861026763916,0,0,44.0,1,1,1995,2060
89.14646800,89146468,1,0.0006054214900359511,-0.0005932411295361817,0.00013607832079287618,-0.503541886806488,-0.13165314495563507,-9.994645118713379,0,0,44.0,1,1,1995,2060
89.14886700,89148867,1,0.00076552719110623,-0.0012824676232412457,-0.00016178697114810348,-0.5024513602256775,-0.12887483835220337,-9.998945236206055,0,0,44.0,1,1,1995,2060
89.15119100,89151191,1,0.00045186487841419876,-0.001310394611209631,-0.00014323974028229713,-0.5026812553405762,-0.1294216811656952,-9.994702339172363,0,0,44.0,1,1,1995,2060
89.15390900,89153909,1,4.9833972298074514e-05,-0.0011655547423288226,-0.00042177148861810565,-0.5022191405296326,-0.1311938762664795,-9.993550300598145,0,0,44.0,1,1,1995,2060
89.15621600,89156216,1,5.4609135986538604e-05,-0.0008838886278681457,-0.0006513322005048394,-0.4988132417201996,-0.13442577421665192,-9.99145221710205,0,0,44.0,1,1,1995,2060
89.15889900,89158899,1,0.000221701615373604,-0.0001273125526495278,-0.00043867240310646594,-0.4917135536670685,-0.13840487599372864,-9.98702335357666,0,0,44.0,1,1,1995,2060
89.16118400,89161184,1,0.0002906691515818238,0.0007156156352721155,-0.00014049273158889264,-0.48319971561431885,-0.14294734597206116,-9.978025436401367,0,0,44.0,1,1,1995,2060
89.16365700,89163657,1,0.0006119189201854169,0.0008030588505789638,-5.473056444316171e-05,-0.4776584506034851,-0.1436535269021988,-9.967020988464355,0,0,44.0,1,1,1995,2060
89.16642200,89166422,1,0.0011166326003149152,-9.4726296083536e-05,-0.0004534776380751282,-0.47683167457580566,-0.1395445019006729,-9.959877014160156,0,0,44.0,1,1,1995,2060
89.16874300,89168743,1,0.0009750748286023736,-0.00028743172879330814,-0.0004281611181795597,-0.48011693358421326,-0.1372092366218567,-9.958646774291992,0,0,44.0,1,1,1995,2060
89.17141600,89171416,1,0.0006134654977358878,0.00011693083069985732,-0.00012721733946818858,-0.48479196429252625,-0.13565249741077423,-9.958500862121582,0,0,44.0,1,1,1995,2060
89.17368700,89173687,1,0.00017115010996349156,0.00027291104197502136,-0.0003935113491024822,-0.49072226881980896,-0.13264767825603485,-9.958850860595703,0,0,44.0,1,1,1995,2060
89.17618500,89176185,1,9.611197310732678e-05,0.0003715555358212441,-0.00041505665285512805,-0.49265632033348083,-0.1331179141998291,-9.959827423095703,0,0,44.0,1,1,1995,2060
89.17889700,89178897,1,0.0003046070341952145,-0.0001805173815228045,1.303767476201756e-05,-0.49599912762641907,-0.13613325357437134,-9.961386680603027,0,0,44.0,1,1,1995,2060
89.18117500,89181175,1,0.0010954218450933695,-0.0007882265490479767,0.0004618112579919398,-0.4982040226459503,-0.14029665291309357,-9.962726593017578,0,0,44.0,1,1,1995,2060
89.18411300,89184113,1,0.0014085356378927827,-0.0014428398571908474,0.0004989145672880113,-0.495970219373703,-0.140986368060112,-9.962339401245117,0,0,44.0,1,1,1995,2060
89.18617400,89186174,1,0.001350777572952211,-0.002138076350092888,0.00038035906618461013,-0.4943479895591736,-0.13981860876083374,-9.962163925170898,0,0,44.0,1,1,1995,2060
89.18874700,89188747,1,0.0013498264597728848,-0.002290048636496067,0.0003747972077690065,-0.4904579818248749,-0.1385391652584076,-9.959625244140625,0,0,44.0,1,1,1995,2060
89.19169700,89191697,1,0.0015359343960881233,-0.002468727296218276,0.0003413803642615676,-0.4890749454498291,-0.13816261291503906,-9.96127700805664,0,0,44.0,1,1,1995,2060
89.19372600,89193726,1,0.0018517477437853813,-0.003118493128567934,0.0003656976914498955,-0.48983266949653625,-0.13935892283916473,-9.966996192932129,0,0,44.0,1,1,1995,2060
89.19656000,89196560,1,0.0019070690032094717,-0.0028671533800661564,0.0008499353425577283,-0.4892260730266571,-0.14316426217556,-9.970062255859375,0,0,44.0,1,1,1995,2060
89.19870800,89198708,1,0.0015858084661886096,-0.0022374012041836977,0.0008128292392939329,-0.4873187243938446,-0.14825274050235748,-9.97064208984375,0,0,44.0,1,1,1995,2060
89.20115900,89201159,1,0.0015777101507410407,-0.0011490453034639359,0.000580012274440378,-0.48686861991882324,-0.1511220484972,-9.972166061401367,0,0,44.0,1,1,1995,2060
89.20392100,89203921,1,0.0017646203050389886,-0.0006697486387565732,-3.368793477420695e-05,-0.4850950837135315,-0.1522127091884613,-9.971723556518555,0,0,44.0,1,1,1995,2060
89.20622700,89206227,1,0.0023622396402060986,6.762985867680982e-05,-0.0003430302895139903,-0.4841136038303375,-0.15268667042255402,-9.967794418334961,0,0,44.0,1,1,1995,2060
89.20891500,89208915,1,0.0024317537900060415,0.0016179656377062201,-0.0003358957474119961,-0.48328259587287903,-0.1514391154050827,-9.962336540222168,0,0,44.0,1,1,1995,2060
89.21119300,89211193,1,0.002745362464338541,0.001822158694267273,-0.0003059951704926789,-0.4862214922904968,-0.14840999245643616,-9.957765579223633,0,0,44.0,1,1,1995,2060
89.21368300,89213683,1,0.0026216390542685986,0.0022921611089259386,-0.00034428536309860647,-0.4874386787414551,-0.14708395302295685,-9.950980186462402,0,0,44.0,1,1,1995,2060
89.21640000,89216400,1,0.0026298684533685446,0.0024673433508723974,-0.00036025483859702945,-0.488256573677063,-0.14490704238414764,-9.943700790405273,0,0,44.0,1,1,1995,2060
89.21872200,89218722,1,0.002839102176949382,0.0025312118232250214,-0.0005277764284983277,-0.4865739047527313,-0.1408170461654663,-9.938666343688965,0,0,44.0,1,1,1995,2060
89.22137500,89221375,1,0.0021639226470142603,0.0031819127034395933,-0.0005437168292701244,-0.48530420660972595,-0.13855665922164917,-9.935593605041504,0,0,44.0,1,1,1995,2060
89.22369400,89223694,1,0.0014314526924863458,0.003152623539790511,-0.00048366954433731735,-0.487053781747818,-0.13766199350357056,-9.938072204589844,0,0,44.0,1,1,1995,2060
89.22617000,89226170,1,0.00037992786383256316,0.0028095466550439596,-0.00033736854675225914,-0.486759215593338,-0.13713738322257996,-9.943001747131348,0,0,44.0,1,1,1995,2060
89.22892200,89228922,1,-0.0008057269151322544,0.001813559327274561,5.0157930672867224e-05,-0.48809048533439636,-0.1375977247953415,-9.9502534866333,0,0,44.0,1,1,1995,2060
89.23193600,89231936,1,-0.0010905249509960413,0.0010198670206591487,0.00010457322787260637,-0.48966675996780396,-0.13843519985675812,-9.960355758666992,0,0,44.0,1,1,1995,2060
89.23388600,89233886,1,-0.0010908154072239995,0.0004939360660500824,0.00033473953953944147,-0.48854222893714905,-0.13824047148227692,-9.963372230529785,0,0,44.0,1,1,1995,2060
89.23612700,89236127,1,-0.0007686075405217707,0.00038058278732933104,2.1407158783404157e-05,-0.4884125888347626,-0.1383216381072998,-9.968832015991211,0,0,44.0,1,1,1995,2060
89.23863700,89238637,1,-0.0005124423187226057,-0.00020318353199400008,0.0007230766932480037,-0.48998042941093445,-0.1375369131565094,-9.973953247070312,0,0,44.0,1,1,1995,2060
89.24127600,89241276,1,-0.0002967512991745025,-0.0007037422037683427,0.0010942445369437337,-0.49007731676101685,-0.13884611427783966,-9.979004859924316,0,0,44.0,1,1,1995,2060
89.24363000,89243630,1,-0.000369256769772619,-0.0008736594463698566,0.0011689523234963417,-0.4895603358745575,-0.140773206949234,-9.984752655029297,0,0,44.0,1,1,1995,2060
89.24634200,89246342,1,4.812298357137479e-05,-0.0017171275103464723,0.0009939898736774921,-0.4856349229812622,-0.14230726659297943,-9.98819637298584,0,0,44.0,1,1,1995,2060
89.24872400,89248724,1,0.0006065109628252685,-0.0021789923775941133,0.0013367027277126908,-0.4840666353702545,-0.14435862004756927,-9.988447189331055,0,0,44.0,1,1,1995,2060
89.25115500,89251155,1,0.0014329898403957486,-0.0017416153568774462,0.0010616639629006386,-0.48619815707206726,-0.14651817083358765,-9.984880447387695,0,0,44.0,1,1,1995,2060
89.25377500,89253775,1,0.0014544883742928505,-0.00137389509472996,0.001148437731899321,-0.4890615940093994,-0.14638173580169678,-9.980905532836914,0,0,44.0,1,1,1995,2060
89.25615900,89256159,1,0.0016400048043578863,-0.0006613695295527577,0.0009634089656174183,-0.49122002720832825,-0.14197775721549988,-9.979020118713379,0,0,44.0,1,1,1995,2060
89.25877700,89258777,1,0.0014619197463616729,-0.0009145651129074395,0.0008958649705164135,-0.4950706660747528,-0.13779279589653015,-9.976143836975098,0,0,44.0,1,1,1995,2060
89.26113700,89261137,1,0.0007797344005666673,-0.0013245103182271123,0.0011021587997674942,-0.49324846267700195,-0.13279978930950165,-9.972600936889648,0,0,44.0,1,1,1995,2060
89.26362600,89263626,1,0.0005542355356737971,-0.001753952819854021,0.0009949126979336143,-0.4901542067527771,-0.13199925422668457,-9.967304229736328,0,0,44.0,1,1,1995,2060
89.26630600,89266306,1,0.000565746973734349,-0.001780206337571144,0.0011130626080557704,-0.48750823736190796,-0.1350306272506714,-9.963301658630371,0,0,44.0,1,1,1995,2060
89.26871500,89268715,1,0.0006993169663473964,-0.0015863861190155149,0.0006042022723704576,-0.4816981256008148,-0.14190903306007385,-9.961368560791016,0,0,44.0,1,1,1995,2060
89.27130700,89271307,1,0.0010299705900251865,-0.0011758838081732392,0.0007371188839897513,-0.4802778363227844,-0.14513806998729706,-9.95919418334961,0,0,44.0,1,1,1995,2060
89.27363600,89273636,1,0.0011608193162828684,-0.0008425607229582965,0.00024345950805582106,-0.4829794466495514,-0.14457330107688904,-9.957777976989746,0,0,44.0,1,1,1995,2060
89.27614300,89276143,1,0.0011396064655855298,-0.0005498605314642191,0.0003280144592281431,-0.4876192510128021,-0.1443079113960266,-9.956974029541016,0,0,44.0,1,1,1995,2060
89.27887600,89278876,1,0.000997475697658956,-0.00017085805302485824,0.00035981880500912666,-0.489457905292511,-0.14201892912387848,-9.95603084564209,0,0,44.0,1,1,1995,2060
89.28113800,89281138,1,0.0013092212611809373,0.0010324864415451884,7.378027657978237e-05,-0.49117258191108704,-0.14006026089191437,-9.9515380859375,0,0,44.0,1,1,1995,2060
89.28403600,89284036,1,0.0014695058343932033,0.001386731513775885,-0.0003004589525517076,-0.49202215671539307,-0.1374976933002472,-9.950085639953613,0,0,44.0,1,1,1995,2060
89.28614300,89286143,1,0.0015797705855220556,0.0011493484489619732,-0.00029604166047647595,-0.4902523458003998,-0.13561764359474182,-9.94930648803711,0,0,44.0,1,1,1995,2060
89.28864000,89288640,1,0.0014042197726666927,0.0008757946197874844,-0.00024410051992163062,-0.4906764030456543,-0.136897474527359,-9.951021194458008,0,0,44.0,1,1,1995,2060
89.29162100,89291621,1,0.0010306108742952347,0.0009279160294681787,0.00022147716663312167,-0.4912409782409668,-0.13969029486179352,-9.95649242401123,0,0,44.0,1,1,1995,2060
89.29361700,89293617,1,0.0006698935176245868,0.0012379484251141548,0.0002909582981374115,-0.4936871826648712,-0.1416579782962799,-9.96092414855957,0,0,44.0,1,1,1995,2060
89.29645500,89296455,1,0.00028824477340094745,0.0013423942727968097,-2.5710724003147334e-05,-0.49445345997810364,-0.14300484955310822,-9.960076332092285,0,0,44.0,1,1,1995,2060
89.29863400,89298634,1,-1.1996444300166331e-05,0.0009154700092040002,-0.00022100983187556267,-0.49506622552871704,-0.14330868422985077,-9.956216812133789,0,0,44.0,1,1,1995,2060
89.30114700,89301147,1,6.969783862587065e-05,0.0006390099297277629,-0.000327188812661916,-0.49465641379356384,-0.14636211097240448,-9.95516586303711,0,0,44.0,1,1,1995,2060
89.30393200,89303932,1,-0.0006227472913451493,0.0005688515957444906,-0.0008304099319502711,-0.4945722818374634,-0.14908413589000702,-9.955743789672852,0,0,44.0,1,1,1995,2060
89.30610900,89306109,1,-0.0014354870654642582,0.0006482740282081068,-0.0010473774746060371,-0.4976532757282257,-0.14670658111572266,-9.958159446716309,0,0,44.0,1,1,1995,2060
89.30887300,89308873,1,-0.0015018145786598325,0.00043785091838799417,-0.0008619589498266578,-0.49804916977882385,-0.14288710057735443,-9.960982322692871,0,0,44.0,1,1,1995,2060
89.31112900,89311129,1,-0.001159286592155695,0.0003263973630964756,-0.0007620116230100393,-0.4954344630241394,-0.13977132737636566,-9.962642669677734,0,0,44.0,1,1,1995,2060
89.31363400,89313634,1,-0.0004370172682683915,7.988254947122186e-05,-0.0005182440509088337,-0.49352991580963135,-0.1368202120065689,-9.962105751037598,0,0,44.0,1,1,1995,2060
89.31630800,89316308,1,-0.0005052387132309377,0.0001009702609735541,0.00024295473122037947,-0.4887647330760956,-0.1352873593568802,-9.96004867553711,0,0,44.0,1,1,1995,2060
89.31863000,89318630,1,-0.0006160293123684824,-0.000863181718159467,0.0001699109998298809,-0.4858819544315338,-0.13443326950073242,-9.958680152893066,0,0,44.0,1,1,1995,2060
89.32127700,89321277,1,-8.476489165332168e-05,-0.0010808357037603855,0.0003047937643714249,-0.485872358083725,-0.134842187166214,-9.959303855895996,0,0,44.0,1,1,1995,2060
89.32364400,89323644,1,0.0002229715755674988,-0.000992904999293387,6.605888484045863e-05,-0.48848956823349,-0.13667291402816772,-9.959005355834961,0,0,44.0,1,1,1995,2060
89.32612900,89326129,1,0.0010491815628483891,-0.0011239934246987104,5.3645639127353206e-05,-0.49126991629600525,-0.1375710517168045,-9.958536148071289,0,0,44.0,1,1,1995,2060
89.32887700,89328877,1,0.0014105241280049086,-0.0011061163386330009,0.0006141024059616029,-0.4915395677089691,-0.13808201253414154,-9.954622268676758,0,0,44.0,1,1,1995,2060
89.33112600,89331126,1,0.0017399823991581798,-0.0005817607743665576,0.00048340464127250016,-0.4916156828403473,-0.14009514451026917,-9.949833869934082,0,0,44.0,1,1,1995,2060
89.33377200,89333772,1,0.0013091668952256441,0.0005381525843404233,0.0002493640931788832,-0.49047166109085083,-0.14141330122947693,-9.94648551940918,0,0,44.0,1,1,1995,2060
89.33613500,89336135,1,0.001004711608402431,0.0011928640305995941,-0.0002588997595012188,-0.48989617824554443,-0.14483578503131866,-9.945307731628418,0,0,44.0,1,1,1995,2060
89.33863700,89338637,1,0.0009460074943490326,0.0014459289377555251,-0.000506110314745456,-0.4947652816772461,-0.14519193768501282,-9.946142196655273,0,0,44.0,1,1,1995,2060
89.34127400,89341274,1,0.0005507941823452711,0.0012768073938786983,-0.000747454643715173,-0.5002503395080566,-0.1433427482843399,-9.949824333190918,0,0,44.0,1,1,1995,2060
89.34363000,89343630,1,0.0004947754205204546,0.0008539551636204123,-0.0007521833176724613,-0.5041145086288452,-0.1397012174129486,-9.953035354614258,0,0,44.0,1,1,1995,2060
89.34637900,89346379,1,0.0003803934087045491,0.0004090782313141972,-0.0007926268153823912,-0.5062938928604126,-0.13855710625648499,-9.95792293548584,0,0,44.0,1,1,1995,2060
89.34872300,89348723,1,8.566505130147561e-05,0.0007218057289719582,-0.0003324007266201079,-0.5072415471076965,-0.13526301085948944,-9.965231895446777,0,0,44.0,1,1,1995,2060
89.35113400,89351134,1,-0.0002948235778603703,0.0005933808861300349,4.506681943894364e-05,-0.5057180523872375,-0.13444961607456207,-9.968937873840332,0,0,44.0,1,1,1995,2060
89.35377600,89353776,1,-0.0007946461555548012,0.00015232714940793812,-0.00020348063844721764,-0.5044832825660706,-0.13391894102096558,-9.973713874816895,0,0,44.0,1,1,1995,2060
89.35614300,89356143,1,-0.0010278073605149984,4.0139038901543245e-05,0.0002485407458152622,-0.500623345375061,-0.13309049606323242,-9.974197387695312,0,0,44.0,1,1,1995,2060
89.35877900,89358779,1,-0.0005250061512924731,-7.220786937978119e-05,0.00046191943692974746,-0.4963158369064331,-0.13309445977210999,-9.974888801574707,0,0,44.0,1,1,1995,2060
89.36112700,89361127,1,0.0001859373296611011,-0.0004683842998929322,0.0006724151317030191,-0.4952555298805237,-0.1342673897743225,-9.973907470703125,0,0,44.0,1,1,1995,2060
89.36363000,89363630,1,0.000889737973921001,-0.0003928755468223244,0.0007703194860368967,-0.49507567286491394,-0.1354101002216339,-9.970687866210938,0,0,44.0,1,1,1995,2060
89.36627600,89366276,1,0.0012528870720416307,-0.0004692983638960868,0.0016670594923198223,-0.4929265081882477,-0.14003679156303406,-9.963406562805176,0,0,44.0,1,1,1995,2060
89.36866700,89368667,1,0.0017660071607679129,-0.0004779477312695235,0.0016522192163392901,-0.494540274143219,-0.14437851309776306,-9.958266258239746,0,0,44.0,1,1,1995,2060
89.37134300,89371343,1,0.0019311292562633753,-0.00012066395720466971,0.0013202292611822486,-0.4964340627193451,-0.1474575400352478,-9.956302642822266,0,0,44.0,1,1,1995,2060
89.37362700,89373627,1,0.0022328307386487722,0.0003570426197256893,0.0008631761302240193,-0.49548450112342834,-0.1492295265197754,-9.95655345916748,0,0,44.0,1,1,1995,2060
89.37616500,89376165,1,0.0021462540607899427,0.0007881139754317701,0.00014478049706667662,-0.492556631565094,-0.14691533148288727,-9.957509994506836,0,0,44.0,1,1,1995,2060
89.37877800,89378778,1,0.0023200546856969595,0.000756031135097146,2.7377544029150158e-05,-0.48948246240615845,-0.14455586671829224,-9.96086311340332,0,0,44.0,1,1,1995,2060
89.38113500,89381135,1,0.0025850932579487562,0.0008363191736862063,-0.00014030463353265077,-0.490017294883728,-0.1386117935180664,-9.966808319091797,0,0,44.0,1,1,1995,2060
89.38402500,89384025,1,0.0024663712829351425,0.0006166117964312434,2.118945849360898e-05,-0.4904576539993286,-0.13444861769676208,-9.969229698181152,0,0,44.0,1,1,1995,2060
89.38613800,89386138,1,0.002675112336874008,0.0008609252981841564,-0.00014127464964985847,-0.49168139696121216,-0.13221225142478943,-9.968302726745605,0,0,44.0,1,1,1995,2060
89.38864500,89388645,1,0.002546784933656454,0.00023280734603758901,0.00016375906125176698,-0.4935643672943115,-0.13121233880519867,-9.965349197387695,0,0,44.0,1,1,1995,2060
89.39165500,89391655,1,0.0026547785382717848,0.0005554002709686756,3.5908415156882256e-05,-0.49410468339920044,-0.13108573853969574,-9.962052345275879,0,0,44.0,1,1,1995,2060
89.39362400,89393624,1,0.002696338575333357,0.001384474104270339,-0.0003123843052890152,-0.49217233061790466,-0.13165584206581116,-9.957032203674316,0,0,44.0,1,1,1995,2060
89.39646300,89396463,1,0.0025513104628771544,0.0009833979420363903,-0.0006137790624052286,-0.4904431104660034,-0.13237421214580536,-9.95348072052002,0,0,44.0,1,1,1995,2060
89.39863500,89398635,1,0.002252517733722925,0.00035662963637150824,-0.0007125027477741241,-0.48695483803749084,-0.1347070336341858,-9.949647903442383,0,0,44.0,1,1,1995,2060
89.40113600,89401136,1,0.0027219061739742756,-0.0001350787206320092,-0.00044733224785886705,-0.4826151132583618,-0.13661636412143707,-9.949170112609863,0,0,44.0,1,1,1995,2060
89.40391000,89403910,1,0.0027724618557840586,-0.001091459533199668,-0.0003871684311889112,-0.4787563979625702,-0.13862718641757965,-9.948846817016602,0,0,44.0,1,1,1995,2060
89.40614700,89406147,1,0.0024499150458723307,-0.0015436384128406644,-0.0004078817437402904,-0.4768557846546173,-0.14196738600730896,-9.948260307312012,0,0,44.0,1,1,1995,2060
89.40894100,89408941,1,0.002224789699539542,-0.0013805438065901399,-0.0003976764564868063,-0.4779534637928009,-0.14465633034706116,-9.94991397857666,0,0,44.0,1,1,1995,2060
89.41114500,89411145,1,0.0014635649276897311,-0.0010825555073097348,-0.0009015945834107697,-0.4777652621269226,-0.14810329675674438,-9.950754165649414,0,0,44.0,1,1,1995,2060
89.41366000,89413660,1,0.001049236161634326,-0.0009865282336249948,-0.0009093902772292495,-0.4785325527191162,-0.14915430545806885,-9.952901840209961,0,0,44.0,1,1,1995,2060
89.41636400,89416364,1,0.0014091338962316513,-0.000702675839420408,-0.0006054422701708972,-0.47662103176116943,-0.14664426445960999,-9.9512300491333,0,0,44.0,1,1,1995,2060
89.41863500,89418635,1,0.001378648797981441,-0.00043068817467428744,-0.0006466074264608324,-0.47625958919525146,-0.1444128155708313,-9.9520845413208,0,0,44.0,1,1,1995,2060
89.42137200,89421372,1,0.000985175371170044,0.00025323755107820034,-0.0010580961825326085,-0.47954705357551575,-0.14181950688362122,-9.957331657409668,0,0,44.0,1,1,1995,2060
89.42363500,89423635,1,0.0010423044441267848,0.0003490239614620805,-0.0004301426815800369,-0.48310086131095886,-0.13890907168388367,-9.965115547180176,0,0,44.0,1,1,1995,2060
89.42615700,89426157,1,0.0011112011270597577,0.00011318807082716376,-0.00010337784624425694,-0.48708048462867737,-0.13944391906261444,-9.974767684936523,0,0,44.0,1,1,1995,2060
89.42887700,89428877,1,0.001162714441306889,-0.0005426598363555968,-0.00021072091476526111,-0.4890264570713043,-0.13902442157268524,-9.981618881225586,0,0,44.0,1,1,1995,2060
89.43113700,89431137,1,0.0007182992994785309,-0.0005661508184857666,-5.163340028957464e-05,-0.49085456132888794,-0.13502946496009827,-9.98590087890625,0,0,44.0,1,1,1995,2060
89.43377600,89433776,1,-2.4751576347625814e-05,-0.00018152367556467652,0.00043962037307210267,-0.49394676089286804,-0.133246049284935,-9.986342430114746,0,0,44.0,1,1,1995,2060
89.43617200,89436172,1,-0.0001178501479444094,-0.0001692937221378088,7.396645378321409e-05,-0.4951377213001251,-0.13089239597320557,-9.987251281738281,0,0,44.0,1,1,1995,2060
89.43866300,89438663,1,-0.0003092850383836776,-0.0008256242726929486,0.0009151306003332138,-0.4930874705314636,-0.12953215837478638,-9.986807823181152,0,0,44.0,1,1,1995,2060
89.44128000,89441280,1,-0.00031254146597348154,-0.0009501829626969993,0.0007606004946865141,-0.49013179540634155,-0.13163012266159058,-9.985129356384277,0,0,44.0,1,1,1995,2060
89.44364000,89443640,1,-0.0005342450458556414,-0.0012338451342657208,0.0003773939097300172,-0.48575589060783386,-0.13285134732723236,-9.978304862976074,0,0,44.0,1,1,1995,2060
89.44629300,89446293,1,-0.0008774363086558878,-0.0012085947673767805,0.0012968441005796194,-0.48141929507255554,-0.13585108518600464,-9.971028327941895,0,0,44.0,1,1,1995,2060
89.44872900,89448729,1,-0.0010625808499753475,-0.0012707551941275597,0.0013504126109182835,-0.47848138213157654,-0.1400289386510849,-9.968849182128906,0,0,44.0,1,1,1995,2060
89.45113300,89451133,1,-0.0015450920909643173,-0.0012933730613440275,0.0015446858014911413,-0.480007141828537,-0.14360405504703522,-9.965250015258789,0,0,44.0,1,1,1995,2060
89.45377600,89453776,1,-0.0015261395601555705,-0.0010711881332099438,0.0016989989671856165,-0.48017629981040955,-0.1492483764886856,-9.960392951965332,0,0,44.0,1,1,1995,2060
89.45612900,89456129,1,-0.0014280922478064895,-0.0008122195722535253,0.002206476405262947,-0.48515352606773376,-0.15294232964515686,-9.958931922912598,0,0,44.0,1,1,1995,2060
89.45890300,89458903,1,-0.0012704642722383142,-0.0008891255129128695,0.002748569007962942,-0.4874923527240753,-0.15428388118743896,-9.960306167602539,0,0,44.0,1,1,1995,2060
89.46115000,89461150,1,-0.0010900873458012938,-0.001079533831216395,0.0028998416382819414,-0.4899687170982361,-0.15355338156223297,-9.961047172546387,0,0,44.0,1,1,1995,2060
89.46363000,89463630,1,-0.0013524940004572272,-0.0004331807140260935,0.0024193632416427135,-0.4940274953842163,-0.150704488158226,-9.959012031555176,0,0,44.0,1,1,1995,2060
89.46627700,89466277,1,-0.001480551902204752,2.6185472961515188e-05,0.0020847192499786615,-0.49605298042297363,-0.148736372590065,-9.961323738098145,0,0,44.0,1,1,1995,2060
89.46865400,89468654,1,-0.0014622390735894442,-2.2023155906936154e-05,0.0012829593615606427,-0.4962606430053711,-0.14750821888446808,-9.966140747070312,0,0,44.0,1,1,1995,2060
89.47127700,89471277,1,-0.0012525920756161213,0.000508560799062252,0.0013424375792965293,-0.4985118508338928,-0.14547112584114075,-9.97036075592041,0,0,44.0,1,1,1995,2060
89.47363900,89473639,1,-0.001228280016221106,0.0007081652875058353,0.0013006371445953846,-0.502336323261261,-0.14301788806915283,-9.97193431854248,0,0,44.0,1,1,1995,2060
89.47612600,89476126,1,-0.001534797833301127,0.0010369237279519439,0.0010087472619488835,-0.506527304649353,-0.14160501956939697,-9.970484733581543,0,0,44.0,1,1,1995,2060
89.47880900,89478809,1,-0.0013237724779173732,0.001265823608264327,0.0003724816779140383,-0.5077576637268066,-0.14213445782661438,-9.967227935791016,0,0,44.0,1,1,1995,2060
89.48114000,89481140,1,-0.0010287913028150797,0.00027698319172486663,0.0006538487505167723,-0.5039252638816833,-0.14321501553058624,-9.965201377868652,0,0,44.0,1,1,1995,2060
89.48402200,89484022,1,-0.0006445411709137261,-0.0009837130783125758,0.0008800757932476699,-0.4969405233860016,-0.14691320061683655,-9.960997581481934,0,0,44.0,1,1,1995,2060
89.48612400,89486124,1,-0.0008351336000487208,-0.0014509669272229075,0.0010484270751476288,-0.4922274649143219,-0.14994333684444427,-9.956313133239746,0,0,44.0,1,1,1995,2060
89.48865800,89488658,1,-0.000881421088706702,-0.001854529487900436,0.00119593960698694,-0.49118173122406006,-0.149911567568779,-9.953672409057617,0,0,44.0,1,1,1995,2060
89.49161500,89491615,1,-0.0006389287882484496,-0.002219123998656869,0.0012038793647661805,-0.49317148327827454,-0.14840273559093475,-9.95340633392334,0,0,44.0,1,1,1995,2060
89.49363700,89493637,1,-0.0002684685750864446,-0.001836739364080131,0.0009593680733814836,-0.494188129901886,-0.1458693891763687,-9.95500659942627,0,0,44.0,1,1,1995,2060
89.49644900,89496449,1,0.0007116554770618677,-0.0019392446847632527,9.692994353827089e-06,-0.4932989478111267,-0.14162755012512207,-9.957996368408203,0,0,44.0,1,1,1995,2060
89.49864200,89498642,1,0.0017339041223749518,-0.0018883346347138286,0.00023527094163000584,-0.49214085936546326,-0.14080891013145447,-9.960415840148926,0,0,44.0,1,1,1995,2060
89.50113000,89501130,1,0.0024762991815805435,-0.002048561116680503,0.0003680473018903285,-0.4919378161430359,-0.1395665854215622,-9.962010383605957,0,0,44.0,1,1,1995,2060
89.50393500,89503935,1,0.002826550044119358,-0.0014800558565184474,0.0003912353131454438,-0.4923759698867798,-0.1379682421684265,-9.966804504394531,0,0,44.0,1,1,1995,2060
89.50611300,89506113,1,0.0028349305503070354,-0.0010265286546200514,0.0006357361562550068,-0.4916774332523346,-0.13856735825538635,-9.969733238220215,0,0,44.0,1,1,1995,2060
89.50887700,89508877,1,0.0026760408654809,-0.0010760565055534244,0.0008105063461698592,-0.4915224611759186,-0.1373995542526245,-9.973199844360352,0,0,44.0,1,1,1995,2060
89.51113000,89511130,1,0.0027096932753920555,-0.001244347426109016,0.0007901177159510553,-0.48997703194618225,-0.13262218236923218,-9.975336074829102,0,0,44.0,1,1,1995,2060
89.51364400,89513644,1,0.0024217821191996336,-0.0018255517352372408,0.0008584831957705319,-0.4904527962207794,-0.12770216166973114,-9.976700782775879,0,0,44.0,1,1,1995,2060
89.51659500,89516595,1,0.0014402332017198205,-0.0015334909548982978,0.0008671781397424638,-0.48927101492881775,-0.12623141705989838,-9.974444389343262,0,0,44.0,1,1,1995,2060
89.51894800,89518948,1,0.0010604572016745806,-0.0008943366701714694,0.0007702689617872238,-0.48599371314048767,-0.1260528266429901,-9.969931602478027,0,0,44.0,1,1,1995,2060
89.52130400,89521304,1,0.001358784269541502,-0.0001376103173242882,0.0005370559520088136,-0.48311808705329895,-0.12762781977653503,-9.966141700744629,0,0,44.0,1,1,1995,2060
89.52362500,89523625,1,0.0011706022778525949,0.00026143190916627645,-4.251950940670213e-06,-0.4806418716907501,-0.13027124106884003,-9.962882041931152,0,0,44.0,1,1,1995,2060
89.52616100,89526161,1,0.00099041941575706,-3.712828765856102e-05,3.3302629162790254e-05,-0.47969678044319153,-0.1332068145275116,-9.959006309509277,0,0,44.0,1,1,1995,2060
89.52884600,89528846,1,0.000739755982067436,0.00012719204823952168,0.00036407128209248185,-0.48248228430747986,-0.1369982212781906,-9.954050064086914,0,0,44.0,1,1,1995,2060
89.53114000,89531140,1,0.000649931957013905,-0.00012285119737498462,0.0005839049117639661,-0.48735570907592773,-0.14193665981292725,-9.954572677612305,0,0,44.0,1,1,1995,2060
89.53377500,89533775,1,0.0009246701374650002,-0.00059841712936759,0.0007027768879197538,-0.48985129594802856,-0.1484183967113495,-9.95549488067627,0,0,44.0,1,1,1995,2060
89.53613400,89536134,1,0.0010003478964790702,-0.0008063006680458784,0.00032839339110068977,-0.48930442333221436,-0.15478666126728058,-9.956390380859375,0,0,44.0,1,1,1995,2060
89.53863100,89538631,1,0.0005986310425214469,-0.000650669215247035,0.00014521725825034082,-0.4895267188549042,-0.15750083327293396,-9.957324028015137,0,0,44.0,1,1,1995,2060
89.54127300,89541273,1,0.0005930289044044912,-0.0006494938861578703,-8.410295777139254e-06,-0.48998862504959106,-0.15966591238975525,-9.957132339477539,0,0,44.0,1,1,1995,2060
89.54362600,89543626,1,0.0010559775400906801,-0.00031972836586646736,0.0007239261758513749,-0.4940871298313141,-0.16046242415905,-9.95401382446289,0,0,44.0,1,1,1995,2060
89.54627400,89546274,1,0.001004090765491128,0.0002163881144952029,0.0010137575445696712,-0.4965541362762451,-0.15989024937152863,-9.950057983398438,0,0,44.0,1,1,1995,2060
89.54873600,89548736,1,0.0010707341134548187,0.000793763785623014,0.0008964964654296637,-0.49888935685157776,-0.16136446595191956,-9.945632934570312,0,0,44.0,1,1,1995,2060
89.55113900,89551139,1,0.001388880074955523,0.0007820711471140385,0.0005892373737879097,-0.49851179122924805,-0.16305436193943024,-9.942607879638672,0,0,44.0,1,1,1995,2060
89.55377500,89553775,1,0.0011155522661283612,0.0010561434319242835,3.1965413654688746e-05,-0.4972324073314667,-0.1650170534849167,-9.94344711303711,0,0,44.0,1,1,1995,2060
89.55612800,89556128,1,0.0006625023088417947,0.001295619411394,-0.00013243228022474796,-0.49508136510849,-0.16348327696323395,-9.945204734802246,0,0,44.0,1,1,1995,2060
89.55880700,89558807,1,0.0007961695664562285,0.0015058843418955803,5.664840864483267e-05,-0.4926721155643463,-0.15669117867946625,-9.945908546447754,0,0,44.0,1,1,1995,2060
89.56112600,89561126,1,0.0009091970277950168,0.00180805625859648,-0.00011122173600597307,-0.4940353333950043,-0.15042747557163239,-9.94910717010498,0,0,44.0,1,1,1995,2060
89.56363300,89563633,1,0.0010394991841167212,0.0017808963311836123,0.0005364703829400241,-0.4961738884449005,-0.1448095738887787,-9.955991744995117,0,0,44.0,1,1,1995,2060
89.56641000,89566410,1,0.0008511552587151527,0.0016728355549275875,0.0009059766889549792,-0.4980618357658386,-0.14007337391376495,-9.960522651672363,0,0,44.0,1,1,1995,2060
89.56866000,89568660,1,0.0006906256312504411,0.0015587554080411792,0.001230581314302981,-0.4981039762496948,-0.1361158937215805,-9.966349601745605,0,0,44.0,1,1,1995,2060
89.57134400,89571344,1,0.0003893724933732301,0.0014147262554615736,0.0014927658485248685,-0.4952584505081177,-0.1336687207221985,-9.971458435058594,0,0,44.0,1,1,1995,2060
89.57363600,89573636,1,8.877264917828143e-05,0.0009686628472991288,0.0018604084616526961,-0.4883853793144226,-0.13273194432258606,-9.970712661743164,0,0,44.0,1,1,1995,2060
89.57612800,89576128,1,0.0002702657366171479,0.00024525990011170506,0.0023319132160395384,-0.4821900725364685,-0.13393880426883698,-9.965302467346191,0,0,44.0,1,1,1995,2060
89.57880400,89578804,1,0.00022990877914708108,-0.000645716383587569,0.0026720974128693342,-0.4789685308933258,-0.1331644207239151,-9.963351249694824,0,0,44.0,1,1,1995,2060
89.58112600,89581126,1,0.00042126496555283666,-0.0009634314919821918,0.0027242747601121664,-0.476330429315567,-0.13118360936641693,-9.964570045471191,0,0,44.0,1,1,1995,2060
89.58402800,89584028,1,0.0005888515152037144,-0.0006243177922442555,0.0025274869985878468,-0.47498849034309387,-0.1309032291173935,-9.965300559997559,0,0,44.0,1,1,1995,2060
89.58612400,89586124,1,0.0011259535094723105,-0.0007480666972696781,0.0018181819468736649,-0.47518008947372437,-0.1353771686553955,-9.966522216796875,0,0,44.0,1,1,1995,2060
89.58865700,89588657,1,0.0012015633983537555,-0.0005972519284114242,0.0017921392573043704,-0.4744609594345093,-0.14027564227581024,-9.96951961517334,0,0,44.0,1,1,1995,2060
89.59161200,89591612,1,0.0016626449069008231,-0.00018550019012764096,0.0009885927429422736,-0.4727992117404938,-0.14426881074905396,-9.97399616241455,0,0,44.0,1,1,1995,2060
89.59364000,89593640,1,0.002226334298029542,-0.00027538827271200716,0.0005161133012734354,-0.473428338766098,-0.14898523688316345,-9.981475830078125,0,0,44.0,1,1,1995,2060
89.59644000,89596440,1,0.0023674550466239452,-0.0004058529739268124,0.00011087926395703107,-0.4765585660934448,-0.15488876402378082,-9.983694076538086,0,0,44.0,1,1,1995,2060
89.59865300,89598653,1,0.002051707124337554,-0.0008509423932991922,0.0003622650692705065,-0.4800562262535095,-0.15744440257549286,-9.983783721923828,0,0,44.0,1,1,1995,2060
89.60112400,89601124,1,0.0017618745332583785,-0.001427721930667758,0.0008593990933150053,-0.48500221967697144,-0.15790678560733795,-9.98181438446045,0,0,44.0,1,1,1995,2060
89.60389100,89603891,1,0.0018846418242901564,-0.0016341672744601965,0.0006039389409124851,-0.48714324831962585,-0.16130369901657104,-9.978849411010742,0,0,44.0,1,1,1995,2060
89.60612300,89606123,1,0.0017359670018777251,-0.0010899993358179927,0.000790626450907439,-0.4886259436607361,-0.1630970686674118,-9.97326374053955,0,0,44.0,1,1,1995,2060
89.60888300,89608883,1,0.0015721600502729416,-0.0005070793558843434,0.0004753535322379321,-0.4950017035007477,-0.16318222880363464,-9.963630676269531,0,0,44.0,1,1,1995,2060
89.61113400,89611134,1,0.001040182076394558,0.0002639825688675046,0.0003149811818730086,-0.502686619758606,-0.16237857937812805,-9.957910537719727,0,0,44.0,1,1,1995,2060
89.61362800,89613628,1,0.0004457516479305923,0.0006306027644313872,0.0005729030817747116,-0.508892297744751,-0.16301724314689636,-9.955437660217285,0,0,44.0,1,1,1995,2060
89.61640200,89616402,1,-2.503066571080126e-05,0.000635639124084264,0.00043460598681122065,-0.5098490715026855,-0.1619933843612671,-9.953021049499512,0,0,44.0,1,1,1995,2060
89.61864000,89618640,1,-9.646426769904792e-05,0.0006889362121000886,0.0005636409041471779,-0.506357729434967,-0.1621384471654892,-9.951666831970215,0,0,44.0,1,1,1995,2060
89.62130400,89621304,1,-0.00024497637059539557,0.0006729284068569541,0.0007050539716146886,-0.5001168251037598,-0.16371284425258636,-9.950979232788086,0,0,44.0,1,1,1995,2060
89.62362500,89623625,1,-0.0004174406349193305,0.0007700787391513586,0.0008386114495806396,-0.49489933252334595,-0.16167715191841125,-9.947775840759277,0,0,44.0,1,1,1995,2060
89.62613700,89626137,1,-0.00031855228007771075,0.0009827181929722428,0.0005472578341141343,-0.49549683928489685,-0.1595308482646942,-9.943133354187012,0,0,44.0,1,1,1995,2060
89.62887400,89628874,1,6.446778570534661e-05,0.0012486815685406327,0.0007920823991298676,-0.49603015184402466,-0.15802840888500214,-9.941422462463379,0,0,44.0,1,1,1995,2060
89.63113200,89631132,1,0.0001117833744501695,0.001648605801165104,0.0009542036568745971,-0.4947679936885834,-0.15573541820049286,-9.942397117614746,0,0,44.0,1,1,1995,2060
89.63375500,89633755,1,8.54268091643462e-06,0.0015496978303417563,0.00021575565915554762,-0.49346575140953064,-0.15573635697364807,-9.94510555267334,0,0,44.0,1,1,1995,2060
89.63611200,89636112,1,-0.00022571804584003985,0.0013352448586374521,0.00019366122432984412,-0.49020516872406006,-0.1538950353860855,-9.946385383605957,0,0,44.0,1,1,1995,2060
89.63862100,89638621,1,-8.215453271986917e-05,0.0004263021401129663,-0.00041630060877650976,-0.4861443340778351,-0.15031376481056213,-9.950133323669434,0,0,44.0,1,1,1995,2060
89.64125400,89641254,1,0.00044448915286920965,0.00035476189805194736,-0.0006924315239302814,-0.4826931059360504,-0.14348874986171722,-9.95547866821289,0,0,44.0,1,1,1995,2060
89.64360200,89643602,1,0.0007323118625208735,-0.0005830476875416934,-0.0007947122794575989,-0.4815426170825958,-0.13971127569675446,-9.959151268005371,0,0,44.0,1,1,1995,2060
89.64625700,89646257,1,0.0006107938243076205,-0.0011160679860040545,-0.0010600044624879956,-0.4832879602909088,-0.13734668493270874,-9.961288452148438,0,0,44.0,1,1,1995,2060
89.64869100,89648691,1,8.672749390825629e-05,-0.001015416462905705,-0.0013636726653203368,-0.4836076498031616,-0.13402900099754333,-9.962135314941406,0,0,44.0,1,1,1995,2060
89.65112200,89651122,1,-4.044533125124872e-05,-0.0003225808613933623,-0.0020585611928254366,-0.4846758544445038,-0.13326101005077362,-9.964838981628418,0,0,44.0,1,1,1995,2060
89.65377300,89653773,1,-0.00026849948335438967,-0.0002006498398259282,-0.0019188693258911371,-0.4857306182384491,-0.13236798346042633,-9.967034339904785,0,0,44.0,1,1,1995,2060
89.65614600,89656146,1,-0.00019618295482359827,-0.0002407079009572044,-0.0018732561729848385,-0.48426324129104614,-0.13471649587154388,-9.965249061584473,0,0,44.0,1,1,1995,2060
89.65877800,89658778,1,-0.0002796015760395676,-0.0006714081391692162,-0.0014246358769014478,-0.48197492957115173,-0.13523614406585693,-9.962843894958496,0,0,44.0,1,1,1995,2060
89.66115100,89661151,1,-0.0005989167839288712,-0.0008269080426543951,-0.0004092093149665743,-0.48241084814071655,-0.13698384165763855,-9.958141326904297,0,0,44.0,1,1,1995,2060
89.66362200,89663622,1,-0.000956414791289717,-0.0009758698870427907,0.00021177768940106034,-0.4830315411090851,-0.13617809116840363,-9.953723907470703,0,0,44.0,1,1,1995,2060
89.66630400,89666304,1,-0.0012866612523794174,-0.0010436165612190962,0.0004952882300131023,-0.4787779152393341,-0.1361600011587143,-9.953298568725586,0,0,44.0,1,1,1995,2060
89.66865700,89668657,1,-0.001205342705361545,-0.00030808860901743174,0.0009715448250062764,-0.47615334391593933,-0.1373167634010315,-9.956503868103027,0,0,44.0,1,1,1995,2060
89.67142400,89671424,1,-0.0014579874696210027,0.0005962170544080436,0.0015765916323289275,-0.4771254062652588,-0.1353638917207718,-9.958731651306152,0,0,44.0,1,1,1995,2060
89.67363300,89673633,1,-0.0020004017278552055,0.0010033214930444956,0.0017638275166973472,-0.47844842076301575,-0.13901913166046143,-9.9596586227417,0,0,44.0,1,1,1995,2060
89.67612500,89676125,1,-0.0024985885247588158,0.000986796454526484,0.0021701303776353598,-0.47997915744781494,-0.1444225162267685,-9.956636428833008,0,0,44.0,1,1,1995,2060
89.67881000,89678810,1,-0.00299010518938303,0.0012789377942681313,0.0019902228377759457,-0.4810590445995331,-0.1475037783384323,-9.953020095825195,0,0,44.0,1,1,1995,2060
89.68113200,89681132,1,-0.0025765306781977415,0.0013636063085868955,0.0017169731436297297,-0.48603230714797974,-0.14816336333751678,-9.951717376708984,0,0,44.0,1,1,1995,2060
89.68406900,89684069,1,-0.002581043168902397,0.0015643623191863298,0.0018057918641716242,-0.4908662438392639,-0.14972051978111267,-9.950214385986328,0,0,44.0,1,1,1995,2060
89.68612500,89686125,1,-0.002663523657247424,0.0018592920387163758,0.0014511363115161657,-0.49418771266937256,-0.15087997913360596,-9.948285102844238,0,0,44.0,1,1,1995,2060
89.68865500,89688655,1,-0.0024083093740046024,0.0019413188565522432,0.001004737219773233,-0.49620547890663147,-0.15303444862365723,-9.948080062866211,0,0,44.0,1,1,1995,2060
89.69161900,89691619,1,-0.001700010267086327,0.001758711994625628,0.0009559580939821899,-0.4929783046245575,-0.1521001160144806,-9.950481414794922,0,0,44.0,1,1,1995,2060
89.69362200,89693622,1,-0.0014803149970248342,0.0019536709878593683,0.00013488292461261153,-0.488152414560318,-0.1495797038078308,-9.94933795928955,0,0,44.0,1,1,1995,2060
89.69645100,89696451,1,-0.0015201978385448456,0.002142351819202304,-0.00015309614536818117,-0.48759686946868896,-0.1462799459695816,-9.948768615722656,0,0,44.0,1,1,1995,2060
89.69864000,89698640,1,-0.0019688326865434647,0.0022336882539093494,3.938601730624214e-05,-0.48749324679374695,-0.14616529643535614,-9.94975471496582,0,0,44.0,1,1,1995,2060
89.70112700,89701127,1,-0.0021264830138534307,0.0016386609058827162,4.360915772849694e-05,-0.48655468225479126,-0.1485390067100525,-9.952238082885742,0,0,44.0,1,1,1995,2060
89.70389800,89703898,1,-0.0017732641426846385,0.0012523040641099215,0.00014357492909766734,-0.4860367476940155,-0.15211012959480286,-9.95577335357666,0,0,44.0,1,1,1995,2060
89.70614700,89706147,1,-0.0010283011943101883,0.000495861517265439,0.00019208304001949728,-0.4840868413448334,-0.15196311473846436,-9.955999374389648,0,0,44.0,1,1,1995,2060
89.70886900,89708869,1,-0.0005926971789449453,0.00025619592634029686,0.00022235697542782873,-0.4834023416042328,-0.1502322405576706,-9.952873229980469,0,0,44.0,1,1,1995,2060
89.71112900,89711129,1,-0.000364166044164449,0.00046643312089145184,0.0001840994373196736,-0.4815704822540283,-0.14726707339286804,-9.946893692016602,0,0,44.0,1,1,1995,2060
89.71363400,89713634,1,0.0002755283785518259,0.0008266862714663148,-0.0001457981124985963,-0.47930222749710083,-0.14557746052742004,-9.94332218170166,0,0,44.0,1,1,1995,2060
89.71627300,89716273,1,0.0009147964301519096,0.0006067212671041489,0.00021954852854833007,-0.47859933972358704,-0.14672400057315826,-9.94287395477295,0,0,44.0,1,1,1995,2060
89.71865400,89718654,1,0.001071361475624144,0.0009126472286880016,0.0004337331629358232,-0.4799526631832123,-0.14693686366081238,-9.94365406036377,0,0,44.0,1,1,1995,2060
89.72127100,89721271,1,0.0011965339072048664,0.0015996890142560005,0.0002488992759026587,-0.4809091091156006,-0.14670923352241516,-9.949361801147461,0,0,44.0,1,1,1995,2060
89.72364500,89723645,1,0.0010912760626524687,0.001370610436424613,1.56522139604931e-06,-0.48252326250076294,-0.14677438139915466,-9.952320098876953,0,0,44.0,1,1,1995,2060
89.72613100,89726131,1,0.0011092305649071932,0.0005758433253504336,-0.00019710535707417876,-0.4811067581176758,-0.14732268452644348,-9.9508056640625,0,0,44.0,1,1,1995,2060
89.72892800,89728928,1,0.000670389854349196,0.0010727921035140753,0.00019946355314459652,-0.479384183883667,-0.14939863979816437,-9.949349403381348,0,0,44.0,1,1,1995,2060
89.73112900,89731129,1,0.00036368457949720323,0.0010486821411177516,0.00022606369748245925,-0.47996020317077637,-0.15068653225898743,-9.952446937561035,0,0,44.0,1,1,1995,2060
89.73377400,89733774,1,2.810966907418333e-05,0.0009241029038093984,0.0007605234859511256,-0.48012033104896545,-0.14943146705627441,-9.956738471984863,0,0,44.0,1,1,1995,2060
89.73614300,89736143,1,-0.00027468346524983644,0.0010445755906403065,0.0006897977436892688,-0.4789498448371887,-0.14727945625782013,-9.961038589477539,0,0,44.0,1,1,1995,2060
89.73863000,89738630,1,-0.0002972181828226894,0.000917805009521544,0.0008395399781875312,-0.47981467843055725,-0.14442697167396545,-9.961779594421387,0,0,44.0,1,1,1995,2060
89.74127700,89741277,1,-0.0004018253239337355,0.0009370773914270103,0.0006077676080167294,-0.4798336625099182,-0.140134796500206,-9.959982872009277,0,0,44.0,1,1,1995,2060
89.74362100,89743621,1,-0.0005356295150704682,0.000942631158977747,0.0006032091332599521,-0.4798179864883423,-0.13679346442222595,-9.958005905151367,0,0,44.0,1,1,1995,2060
89.74628100,89746281,1,-0.0003431671066209674,0.0007752283709123731,0.0004306532209739089,-0.4805826246738434,-0.13302867114543915,-9.955341339111328,0,0,44.0,1,1,1995,2060
89.74871900,89748719,1,-0.0005245882784947753,0.0004360444436315447,0.0007575644413009286,-0.48198485374450684,-0.12903107702732086,-9.955174446105957,0,0,44.0,1,1,1995,2060
89.75115300,89751153,1,-0.0005398263456299901,0.00027109397342428565,0.001065139309503138,-0.4825769066810608,-0.1298808455467224,-9.956095695495605,0,0,44.0,1,1,1995,2060
89.75376600,89753766,1,-0.0005589608917944133,7.859495235607028e-05,0.0014581166906282306,-0.4844866991043091,-0.13289573788642883,-9.959733009338379,0,0,44.0,1,1,1995,2060
89.75613300,89756133,1,-0.0008846506243571639,-0.00035626578028313816,0.001931813545525074,-0.48504936695098877,-0.13603556156158447,-9.959939956665039,0,0,44.0,1,1,1995,2060
89.75877200,89758772,1,-0.0014156597899273038,-0.000484478659927845,0.0020380825735628605,-0.4837633967399597,-0.13848647475242615,-9.96096134185791,0,0,44.0,1,1,1995,2060
89.76113700,89761137,1,-0.001654233899898827,-0.0005190655938349664,0.001516135991550982,-0.48201945424079895,-0.13994568586349487,-9.963687896728516,0,0,44.0,1,1,1995,2060
89.76362400,89763624,1,-0.0021824450232088566,-0.0005791425937786698,0.0013690756168216467,-0.48328301310539246,-0.14100083708763123,-9.963418960571289,0,0,44.0,1,1,1995,2060
89.76630800,89766308,1,-0.0029456294141709805,-0.0006789366016164422,0.0011704337084665895,-0.48627519607543945,-0.14264652132987976,-9.962143898010254,0,0,44.0,1,1,1995,2060
89.76870700,89768707,1,-0.002316524041816592,-0.0009453386883251369,0.0011756544699892402,-0.48987823724746704,-0.14705151319503784,-9.964406967163086,0,0,44.0,1,1,1995,2060
89.77133500,89771335,1,-0.0015572024276480079,-0.001414680853486061,0.0010198971722275019,-0.4927175045013428,-0.1543724238872528,-9.970845222473145,0,0,44.0,1,1,1995,2060
89.77363500,89773635,1,-0.0007135612540878356,-0.0019088630797341466,0.000404390215408057,-0.49215200543403625,-0.15612128376960754,-9.972918510437012,0,0,44.0,1,1,1995,2060
89.77615100,89776151,1,-2.6820998755283654e-05,-0.0015208068070933223,-0.00016603179392404854,-0.491843581199646,-0.1565844863653183,-9.971747398376465,0,0,44.0,1,1,1995,2060
89.77877000,89778770,1,0.00048196318675763905,-0.0011017558863386512,-0.0001847457024268806,-0.4904973804950714,-0.15650153160095215,-9.968283653259277,0,0,44.0,1,1,1995,2060
89.78113800,89781138,1,0.0009848291520029306,-0.0010555866174399853,0.000513291684910655,-0.4872087240219116,-0.1561107039451599,-9.965108871459961,0,0,44.0,1,1,1995,2060
89.78402100,89784021,1,0.0014008277794346213,-0.0008129581692628562,0.0005048158345744014,-0.4845380187034607,-0.15538287162780762,-9.960857391357422,0,0,44.0,1,1,1995,2060
89.78613500,89786135,1,0.0016957080224528909,-0.0010304477764293551,0.00022513321891892701,-0.48310190439224243,-0.15283097326755524,-9.96277141571045,0,0,44.0,1,1,1995,2060
89.78864500,89788645,1,0.0012041075387969613,-0.0007241159328259528,0.00042813600157387555,-0.48157981038093567,-0.15213164687156677,-9.963852882385254,0,0,44.0,1,1,1995,2060
89.79161200,89791612,1,0.0011457300279289484,-0.0007049818523228168,0.0003874005051329732,-0.48008814454078674,-0.1511700302362442,-9.9649658203125,0,0,44.0,1,1,1995,2060
89.79362300,89793623,1,0.001592737971805036,-0.0010363389737904072,0.0007570950547233224,-0.4835692346096039,-0.15237008035182953,-9.961259841918945,0,0,44.0,1,1,1995,2060
89.79649500,89796495,1,0.0015388401225209236,-0.0005083201103843749,0.00034636331838555634,-0.4875829815864563,-0.15487302839756012,-9.956758499145508,0,0,44.0,1,1,1995,2060
89.79863900,89798639,1,0.001555906143039465,-0.00041672709630802274,-0.00019414423150010407,-0.4882619380950928,-0.15760047733783722,-9.9531831741333,0,0,44.0,1,1,1995,2060
89.80114300,89801143,1,0.001064141164533794,-0.0006513764383271337,-0.000661818019580096,-0.48584824800491333,-0.1567971557378769,-9.952539443969727,0,0,44.0,1,1,1995,2060
89.80388200,89803882,1,0.0005856273928657174,-0.0005129579221829772,-0.0009702970855869353,-0.48532989621162415,-0.15437546372413635,-9.954161643981934,0,0,44.0,1,1,1995,2060
89.80613500,89806135,1,0.0002212375693488866,-8.649389201309532e-05,-0.0009528240188956261,-0.48601776361465454,-0.1544211208820343,-9.96030044555664,0,0,44.0,1,1,1995,2060
89.80887600,89808876,1,0.00014540246047545224,-0.00013156383647583425,-0.0009517598082311451,-0.4860542118549347,-0.1546325385570526,-9.965216636657715,0,0,44.0,1,1,1995,2060
89.81112500,89811125,1,-3.384027513675392e-05,-2.972882975882385e-05,-0.0005958430701866746,-0.484295129776001,-0.15209481120109558,-9.968945503234863,0,0,44.0,1,1,1995,2060
89.81363200,89813632,1,-0.0009014544193632901,0.0003122244670521468,-0.00026739182067103684,-0.48279860615730286,-0.14904773235321045,-9.97138786315918,0,0,44.0,1,1,1995,2060
89.81633200,89816332,1,-0.0016435239231213927,0.0010117359925061464,-4.1838538891170174e-05,-0.48336926102638245,-0.14761140942573547,-9.970879554748535,0,0,44.0,1,1,1995,2060
89.81865200,89818652,1,-0.0014767204411327839,0.0012519791489467025,-0.0001042789954226464,-0.4866718649864197,-0.14868129789829254,-9.9681978225708,0,0,44.0,1,1,1995,2060
89.82128200,89821282,1,-0.0010098741622641683,0.001545322360470891,-0.00019277136016171426,-0.48979452252388,-0.15022322535514832,-9.968570709228516,0,0,44.0,1,1,1995,2060
89.82363300,89823633,1,-0.0008407302084378898,0.001429020194336772,-6.387872417690232e-06,-0.4915771484375,-0.15291401743888855,-9.968694686889648,0,0,44.0,1,1,1995,2060
89.82612700,89826127,1,-0.0009003476588986814,0.0011959436815232038,0.0002655774005688727,-0.4925884008407593,-0.1552421599626541,-9.96910572052002,0,0,44.0,1,1,1995,2060
89.82893200,89828932,1,-0.0011043179547414184,0.0007118308567442,9.086669888347387e-05,-0.4926413595676422,-0.15703967213630676,-9.967666625976562,0,0,44.0,1,1,1995,2060
89.83112800,89831128,1,-0.0007844892097637057,0.000220931411604397,-0.00026135664666071534,-0.49119672179222107,-0.1595679372549057,-9.964106559753418,0,0,44.0,1,1,1995,2060
89.83384300,89833843,1,-0.000240877183387056,-0.0003427419869694859,-0.0009236933547072113,-0.489644855260849,-0.16181032359600067,-9.964255332946777,0,0,44.0,1,1,1995,2060
89.83612800,89836128,1,0.00031489564571529627,-0.0006045715417712927,-0.0015990793472155929,-0.48772263526916504,-0.16277249157428741,-9.964141845703125,0,0,44.0,1,1,1995,2060
89.83863900,89838639,1,0.0008101386483758688,-0.00022176740458235145,-0.0021601570770144463,-0.4816259443759918,-0.1646149605512619,-9.962385177612305,0,0,44.0,1,1,1995,2060
89.84133600,89841336,1,0.0013592240866273642,0.0003434547397773713,-0.002157653449103236,-0.4776284992694855,-0.16505666077136993,-9.96201229095459,0,0,44.0,1,1,1995,2060
89.84363200,89843632,1,0.0018447058973833919,0.0008484596619382501,-0.0026516078505665064,-0.47680535912513733,-0.16489966213703156,-9.960236549377441,0,0,44.0,1,1,1995,2060
89.84627700,89846277,1,0.002309623174369335,0.0006336059886962175,-0.0020307081285864115,-0.47815194725990295,-0.16358886659145355,-9.959885597229004,0,0,44.0,1,1,1995,2060
89.84873000,89848730,1,0.0023591534700244665,-1.0882708011195064e-05,-0.0012907772324979305,-0.47986483573913574,-0.1592080444097519,-9.95738410949707,0,0,44.0,1,1,1995,2060
89.85113600,89851136,1,0.0022286742459982634,-0.00039061642019078135,-0.0008186012855730951,-0.4832403063774109,-0.15382224321365356,-9.957188606262207,0,0,44.0,1,1,1995,2060
89.85377900,89853779,1,0.0016443553613498807,-0.0005402236129157245,-0.00017803114315029234,-0.4868176579475403,-0.1472635269165039,-9.962250709533691,0,0,44.0,1,1,1995,2060
89.85613000,89856130,1,0.0016041080234572291,-3.754846329684369e-05,0.0005885832943022251,-0.49072298407554626,-0.14099954068660736,-9.965326309204102,0,0,44.0,1,1,1995,2060
89.85880600,89858806,1,0.0017202261369675398,1.436912043573102e-05,0.0011914698407053947,-0.4946819841861725,-0.13623695075511932,-9.965373992919922,0,0,44.0,1,1,1995,2060
89.86112500,89861125,1,0.0017113032517954707,-0.000880478008184582,0.001624320400878787,-0.49710750579833984,-0.13161447644233704,-9.964954376220703,0,0,44.0,1,1,1995,2060
89.86364800,89863648,1,0.0018375940853729844,-0.0023679137229919434,0.0022892560809850693,-0.49943679571151733,-0.12792466580867767,-9.960445404052734,0,0,44.0,1,1,1995,2060
89.86631400,89866314,1,0.0018030719365924597,-0.0025230487808585167,0.001989671029150486,-0.5016602277755737,-0.12844081223011017,-9.953590393066406,0,0,44.0,1,1,1995,2060
89.86865500,89868655,1,0.00198997650295496,-0.0033225847873836756,0.0015288230497390032,-0.503883421421051,-0.12919244170188904,-9.941400527954102,0,0,44.0,1,1,1995,2060
89.87131600,89871316,1,0.002203035866841674,-0.0034159081988036633,0.0015655560418963432,-0.5038808584213257,-0.12937471270561218,-9.93875503540039,0,0,44.0,1,1,1995,2060
89.87363300,89873633,1,0.0024006166495382786,-0.0026369772385805845,0.0014997671823948622,-0.5067969560623169,-0.12992465496063232,-9.941488265991211,0,0,44.0,1,1,1995,2060
89.87614200,89876142,1,0.0023447314742952585,-0.002476372290402651,0.0013543871464207768,-0.5070027112960815,-0.12819387018680573,-9.944609642028809,0,0,44.0,1,1,1995,2060
89.87877900,89878779,1,0.0023867953568696976,-0.002443601144477725,0.0012509638909250498,-0.5029971599578857,-0.12819837033748627,-9.949139595031738,0,0,44.0,1,1,1995,2060
89.88115100,89881151,1,0.002412780188024044,-0.0023174285888671875,0.0010418570600450039,-0.5015857219696045,-0.13066351413726807,-9.951651573181152,0,0,44.0,1,1,1995,2060
89.88402500,89884025,1,0.0021822869312018156,-0.0018892338266596198,0.0010770284570753574,-0.49856022000312805,-0.13594436645507812,-9.953208923339844,0,0,44.0,1,1,1995,2060
89.88615500,89886155,1,0.0019637015648186207,-0.0015636611497029662,0.0003596460446715355,-0.4966358244419098,-0.13825921714305878,-9.95439338684082,0,0,44.0,1,1,1995,2060
89.88864900,89888649,1,0.0020607563201338053,-0.0015387089224532247,0.00018065918993670493,-0.4988921880722046,-0.13965435326099396,-9.9569730758667,0,0,44.0,1,1,1995,2060
89.89162400,89891624,1,0.0020271053072065115,-0.0012512870598584414,-0.00014691465185023844,-0.5000565648078918,-0.14392973482608795,-9.958843231201172,0,0,44.0,1,1,1995,2060
89.89362000,89893620,1,0.0017556032398715615,-0.001751264906488359,-0.000510181300342083,-0.5017517805099487,-0.14825686812400818,-9.960317611694336,0,0,44.0,1,1,1995,2060
89.89646300,89896463,1,0.0011388716520741582,-0.0020458560902625322,-0.001215501339174807,-0.5008809566497803,-0.15244805812835693,-9.961585998535156,0,0,44.0,1,1,1995,2060
89.89864700,89898647,1,0.0009932952234521508,-0.0018339355010539293,-0.00144370982889086,-0.49877801537513733,-0.15547478199005127,-9.96262264251709,0,0,44.0,1,1,1995,2060
89.90113800,89901138,1,0.0007882354548200965,-0.0021826860029250383,-0.0017014630138874054,-0.49325329065322876,-0.15621010959148407,-9.964714050292969,0,0,44.0,1,1,1995,2060
89.90388100,89903881,1,0.0005366092664189637,-0.002098306082189083,-0.0016815116396173835,-0.48923155665397644,-0.15403668582439423,-9.96395492553711,0,0,44.0,1,1,1995,2060
89.90614300,89906143,1,0.0008543496951460838,-0.0016889771213755012,-0.0022548874840140343,-0.4886888563632965,-0.15296122431755066,-9.961210250854492,0,0,44.0,1,1,1995,2060
89.90891800,89908918,1,0.0007812606636434793,-0.0016280135605484247,-0.0024914895184338093,-0.48827874660491943,-0.15314903855323792,-9.959522247314453,0,0,44.0,1,1,1995,2060
89.91113400,89911134,1,0.00019550244905985892,-0.0020160991698503494,-0.0013248786563053727,-0.4845206141471863,-0.1512587070465088,-9.958725929260254,0,0,44.0,1,1,1995,2060
89.91362600,89913626,1,-0.0004209311446174979,-0.0012640974018722773,-0.0004047586699016392,-0.48215287923812866,-0.148678719997406,-9.959955215454102,0,0,44.0,1,1,1995,2060
89.91634600,89916346,1,-0.00045547843910753727,-0.001576786395162344,-0.000365079496987164,-0.4844363033771515,-0.1469755619764328,-9.963176727294922,0,0,44.0,1,1,1995,2060
89.91862900,89918629,1,-0.0004858005850110203,-0.0016355543630197644,-0.00037845910992473364,-0.4887720048427582,-0.14479926228523254,-9.964829444885254,0,0,44.0,1,1,1995,2060
89.92129300,89921293,1,-0.00019166554557159543,-0.0016126835253089666,-0.000602690561208874,-0.4916830360889435,-0.142692431807518,-9.968062400817871,0,0,44.0,1,1,1995,2060
89.92362900,89923629,1,0.0004081394581589848,-0.0013427212834358215,-0.0002573015808593482,-0.4955179691314697,-0.14112521708011627,-9.967852592468262,0,0,44.0,1,1,1995,2060
89.92613800,89926138,1,0.00010569732694420964,-0.000658774224575609,-0.00019669477478601038,-0.4993940591812134,-0.14121393859386444,-9.963993072509766,0,0,44.0,1,1,1995,2060
89.92884400,89928844,1,0.00028637354262173176,-0.000590528070461005,2.7180301913176663e-05,-0.4991513788700104,-0.14153851568698883,-9.9603910446167,0,0,44.0,1,1,1995,2060
89.93117000,89931170,1,3.5809418477583677e-05,-3.165922680636868e-05,0.0007227629539556801,-0.497741162776947,-0.13951468467712402,-9.958561897277832,0,0,44.0,1,1,1995,2060
89.93391500,89933915,1,0.0003175646415911615,0.0003974806750193238,0.0006140506011433899,-0.4938291013240814,-0.13804104924201965,-9.954455375671387,0,0,44.0,1,1,1995,2060
89.93613600,89936136,1,0.00021948065841570497,0.00041509605944156647,0.00036660756450146437,-0.4899778366088867,-0.1396348476409912,-9.954878807067871,0,0,44.0,1,1,1995,2060
89.93863700,89938637,1,0.0004092820454388857,0.00035426142858341336,0.0005535749951377511,-0.48646247386932373,-0.1408119797706604,-9.954324722290039,0,0,44.0,1,1,1995,2060
89.94128000,89941280,1,0.0003190331917721778,0.0003410619974602014,0.0011014534393325448,-0.4850398600101471,-0.14091932773590088,-9.953939437866211,0,0,44.0,1,1,1995,2060
89.94363400,89943634,1,0.0006767240120097995,-5.5258864449569955e-05,0.001273073023185134,-0.48427313566207886,-0.14197668433189392,-9.95715045928955,0,0,44.0,1,1,1995,2060
89.94634300,89946343,1,0.000569057825487107,-0.00010217636736342683,0.0018075393745675683,-0.4851917624473572,-0.14536139369010925,-9.959725379943848,0,0,44.0,1,1,1995,2060
89.94875100,89948751,1,0.0007174767670221627,-6.355791265377775e-05,0.001301935059018433,-0.4826139211654663,-0.1455359160900116,-9.962939262390137,0,0,44.0,1,1,1995,2060
89.95113000,89951130,1,0.0007825196953490376,0.00035507400752976537,0.0004028075491078198,-0.48146796226501465,-0.14755603671073914,-9.965502738952637,0,0,44.0,1,1,1995,2060
89.95390900,89953909,1,0.0010284746531397104,0.0006399294943548739,-0.0003868820203933865,-0.48086151480674744,-0.14933167397975922,-9.966020584106445,0,0,44.0,1,1,1995,2060
89.95613700,89956137,1,0.0007071237778291106,0.0012920682784169912,-0.0013861506013199687,-0.48095157742500305,-0.15154637396335602,-9.962146759033203,0,0,44.0,1,1,1995,2060
89.95880800,89958808,1,0.0009680010844022036,0.002007997827604413,-0.0019816425628960133,-0.48071062564849854,-0.15152375400066376,-9.960405349731445,0,0,44.0,1,1,1995,2060
89.96112800,89961128,1,0.0009444573079235852,0.0020522833801805973,-0.0012403869768604636,-0.4826914668083191,-0.14953188598155975,-9.959151268005371,0,0,44.0,1,1,1995,2060
89.96364600,89963646,1,0.000748491904232651,0.0022990326397120953,-0.0004719942226074636,-0.4840776324272156,-0.14903108775615692,-9.95815658569336,0,0,44.0,1,1,1995,2060
89.96627800,89966278,1,0.0011229242663830519,0.002275802893564105,-0.00041635968955233693,-0.4877021014690399,-0.1512494832277298,-9.961482048034668,0,0,44.0,1,1,1995,2060
89.96865800,89968658,1,0.0014440632658079267,0.002072457456961274,-0.0008649500086903572,-0.4897359311580658,-0.15316371619701385,-9.964386940002441,0,0,44.0,1,1,1995,2060
89.97127100,89971271,1,0.0018772752955555916,0.001665079384110868,-0.0002766683173831552,-0.4927711486816406,-0.151618093252182,-9.963184356689453,0,0,44.0,1,1,1995,2060
89.97363700,89973637,1,0.0013482487993314862,0.0011941994307562709,-0.00011942280980292708,-0.49777311086654663,-0.14917737245559692,-9.964268684387207,0,0,44.0,1,1,1995,2060
89.97615500,89976155,1,0.0007478378247469664,0.0012738417135551572,-6.975035648792982e-05,-0.5005985498428345,-0.14470461010932922,-9.965378761291504,0,0,44.0,1,1,1995,2060
89.97877900,89978779,1,0.0007825547945685685,0.000976896844804287,0.00011812784214271232,-0.5034207105636597,-0.1426256150007248,-9.96707820892334,0,0,44.0,1,1,1995,2060
89.98112500,89981125,1,0.0010953082237392664,0.0005409076111391187,8.625686314189807e-05,-0.5058860778808594,-0.14125138521194458,-9.969120979309082,0,0,44.0,1,1,1995,2060
89.98402600,89984026,1,0.0012331552570685744,0.0007531510782428086,0.000153595712617971,-0.5051238536834717,-0.14420482516288757,-9.968127250671387,0,0,44.0,1,1,1995,2060
89.98615200,89986152,1,0.0012028225464746356,0.0013288540067151189,-0.0001455560268368572,-0.5028579235076904,-0.14950542151927948,-9.968343734741211,0,0,44.0,1,1,1995,2060
89.98865500,89988655,1,0.0008664662600494921,0.0015766342403367162,0.0001889837731141597,-0.5032956600189209,-0.15428125858306885,-9.97262954711914,0,0,44.0,1,1,1995,2060
89.99162500,89991625,1,0.0006944537162780762,0.0015732625033706427,0.0004642844432964921,-0.5031617283821106,-0.15595866739749908,-9.975481986999512,0,0,44.0,1,1,1995,2060
89.99362800,89993628,1,0.0005827599670737982,0.0008254489512182772,0.0008143724990077317,-0.5026867389678955,-0.15501487255096436,-9.975271224975586,0,0,44.0,1,1,1995,2060
