timestamp,TimeUS,I,GyrX,GyrY,GyrZ,AccX,AccY,AccZ,EG,EA,T,GH,AH,GHz,AHz
72.97291600,72972916,0,0.0003021006705239415,0.0010192707413807511,0.001698323991149664,-0.6756995320320129,0.19256974756717682,-9.868083953857422,0,0,45.0,1,1,1756,1830
72.97556700,72975567,0,-1.5779651221237145e-06,0.0015820552362129092,0.001643279567360878,-0.6739510893821716,0.1909330189228058,-9.86958122253418,0,0,45.0,1,1,1756,1830
72.97823500,72978235,0,-0.000597830512560904,0.0018729576840996742,0.0019042778294533491,-0.6739945411682129,0.18800640106201172,-9.871883392333984,0,0,45.0,1,1,1756,1830
72.98040600,72980406,0,-0.0014924133429303765,0.0036844464484602213,0.0014485529391095042,-0.6794052124023438,0.1833127737045288,-9.869363784790039,0,0,45.0,1,1,1756,1830
72.98291100,72982911,0,-0.002264343434944749,0.004595613572746515,0.00040320129483006895,-0.6838613748550415,0.17751654982566833,-9.864912986755371,0,0,45.0,1,1,1756,1830
72.98541200,72985412,0,-0.0034485100768506527,0.004213828127831221,-7.453666330548003e-05,-0.6850957870483398,0.17161694169044495,-9.862951278686523,0,0,45.0,1,1,1756,1830
72.98819600,72988196,0,-0.004681756719946861,0.0035865958780050278,-0.0004826535878237337,-0.6869156360626221,0.1666080206632614,-9.86032485961914,0,0,45.0,1,1,1756,1830
72.99042300,72990423,0,-0.004635002929717302,0.0021140628959983587,-0.0005652931286022067,-0.6870154142379761,0.16476228833198547,-9.860713958740234,0,0,45.0,1,1,1756,1830
72.99291200,72992912,0,-0.002981616649776697,0.00031289082835428417,-0.0006238954374566674,-0.6850226521492004,0.16393308341503143,-9.856786727905273,0,0,45.0,1,1,1756,1830
72.99541400,72995414,0,-0.001293223351240158,-0.0011473784688860178,-0.0014065839350223541,-0.6839867234230042,0.16887934505939484,-9.850051879882812,0,0,45.0,1,1,1756,1830
72.99813700,72998137,0,-1.6145637346198782e-05,-0.000435209454735741,-0.001532785128802061,-0.6823039054870605,0.17643553018569946,-9.847306251525879,0,0,45.0,1,1,1756,1830
73.00042900,73000429,0,0.0013505560345947742,0.0002727763494476676,-0.0009870629291981459,-0.6822171807289124,0.18519699573516846,-9.848424911499023,0,0,45.0,1,1,1756,1830
73.00290900,73002909,0,0.0024995876010507345,0.000747227924875915,-0.0006741198594681919,-0.6818810105323792,0.19278572499752045,-9.851579666137695,0,0,45.0,1,1,1756,1830
73.00541600,73005416,0,0.002351626753807068,0.002349911956116557,-0.000260169617831707,-0.681122899055481,0.1994529664516449,-9.85490608215332,0,0,45.0,1,1,1756,1830
73.00818300,73008183,0,0.0020025966223329306,0.002984672551974654,3.4255550417583436e-05,-0.6819038987159729,0.20217475295066833,-9.86243724822998,0,0,45.0,1,1,1756,1830
73.01059400,73010594,0,0.0015852288343012333,0.0029899165965616703,0.0005906600272282958,-0.6848809123039246,0.20281904935836792,-9.868688583374023,0,0,45.0,1,1,1756,1830
73.01290500,73012905,0,0.0008986446773633361,0.0024916427209973335,0.0011122412979602814,-0.6882882714271545,0.2034500390291214,-9.874869346618652,0,0,45.0,1,1,1756,1830
73.01542400,73015424,0,0.0010623636189848185,0.0015015352983027697,0.0006650480208918452,-0.6908715963363647,0.20312771201133728,-9.880943298339844,0,0,45.0,1,1,1756,1830
73.01813300,73018133,0,0.0010300363646820188,0.001100147608667612,0.0008126178290694952,-0.6962288022041321,0.20233775675296783,-9.885005950927734,0,0,45.0,1,1,1756,1830
73.02040600,73020406,0,0.0011474475031718612,0.001776841119863093,0.0013658410171046853,-0.6965211033821106,0.20418575406074524,-9.883212089538574,0,0,45.0,1,1,1756,1830
73.02290000,73022900,0,0.0009432010119780898,0.0016757168341428041,0.001920192502439022,-0.6952158808708191,0.206037700176239,-9.878948211669922,0,0,45.0,1,1,1756,1830
73.02541000,73025410,0,0.00013599390513263643,0.001359214074909687,0.0016622620169073343,-0.6924095749855042,0.2046714723110199,-9.87559700012207,0,0,45.0,1,1,1756,1830
73.02828200,73028282,0,-0.00029228077619336545,0.0010195906506851315,0.001390864490531385,-0.6897055506706238,0.20412124693393707,-9.871273040771484,0,0,45.0,1,1,1756,1830
73.03044800,73030448,0,-0.0012343989219516516,0.0015118527226150036,0.0005612218519672751,-0.6875256299972534,0.20081138610839844,-9.870355606079102,0,0,45.0,1,1,1756,1830
73.03290100,73032901,0,-0.0021148722153156996,0.002678625052794814,0.0009983032941818237,-0.68586665391922,0.19895526766777039,-9.868609428405762,0,0,45.0,1,1,1756,1830
73.03542500,73035425,0,-0.0026978382375091314,0.0035738882143050432,0.0004630738985724747,-0.6851499080657959,0.19909831881523132,-9.868694305419922,0,0,45.0,1,1,1756,1830
73.03823800,73038238,0,-0.0021074421238154173,0.0030545678455382586,0.0006375685334205627,-0.685547947883606,0.19560076296329498,-9.86794662475586,0,0,45.0,1,1,1756,1830
73.04042200,73040422,0,-0.0019399916054680943,0.0020145513117313385,0.0003962476330343634,-0.6891354918479919,0.19031572341918945,-9.862943649291992,0,0,45.0,1,1,1756,1830
73.04290000,73042900,0,-0.003916522022336721,0.0036853516940027475,0.0006176710012368858,-0.6934083104133606,0.1851997673511505,-9.860871315002441,0,0,45.0,1,1,1756,1830
73.04540900,73045409,0,-0.005758622661232948,0.005206524860113859,0.0008061723783612251,-0.6954073905944824,0.18079200387001038,-9.85848331451416,0,0,45.0,1,1,1756,1830
73.04813000,73048130,0,-0.006075745914131403,0.004479060415178537,0.0006478186114691198,-0.6957260966300964,0.1802530586719513,-9.856037139892578,0,0,45.0,1,1,1756,1830
73.05042600,73050426,0,-0.005189505871385336,0.0035763918422162533,0.0007159658125601709,-0.6964060068130493,0.18163181841373444,-9.853490829467773,0,0,45.0,1,1,1756,1830
73.05295300,73052953,0,-0.0038274789694696665,0.0013862020568922162,0.0002649551024660468,-0.6949226260185242,0.18452812731266022,-9.84744930267334,0,0,45.0,1,1,1756,1830
73.05541800,73055418,0,-0.0032355657313019037,0.00029604980954900384,0.0005826365668326616,-0.69636470079422,0.18847768008708954,-9.848213195800781,0,0,45.0,1,1,1756,1830
73.05812700,73058127,0,-0.0025412666145712137,7.636855298187584e-05,0.0008325590169988573,-0.6997312307357788,0.19205500185489655,-9.857858657836914,0,0,45.0,1,1,1756,1830
73.06041100,73060411,0,-0.001021623145788908,-0.0002555412647780031,0.0009356741793453693,-0.7007973194122314,0.1928676813840866,-9.862853050231934,0,0,45.0,1,1,1756,1830
73.06289400,73062894,0,0.0005633385735563934,-0.0006593726575374603,0.0010138776851817966,-0.7009435892105103,0.19536302983760834,-9.862995147705078,0,0,45.0,1,1,1756,1830
73.06540700,73065407,0,0.002061061095446348,-0.0014557978138327599,0.0007316208793781698,-0.7012712359428406,0.19615313410758972,-9.86227798461914,0,0,45.0,1,1,1756,1830
73.06813300,73068133,0,0.0033304018434137106,-0.0021677871700376272,-0.00012290794984437525,-0.6987498998641968,0.19618581235408783,-9.861604690551758,0,0,45.0,1,1,1756,1830
73.07043600,73070436,0,0.004037399310618639,-0.0022061853669583797,-0.00044489410356618464,-0.6972643136978149,0.19349732995033264,-9.862781524658203,0,0,45.0,1,1,1756,1830
73.07293000,73072930,0,0.0045176842249929905,-0.0020049489103257656,-0.000668687338475138,-0.6960390210151672,0.18999072909355164,-9.865608215332031,0,0,45.0,1,1,1756,1830
73.07545100,73075451,0,0.004509315360337496,-0.001258038217201829,-0.0006248565623536706,-0.6953170299530029,0.18619686365127563,-9.867294311523438,0,0,45.0,1,1,1756,1830
73.07811700,73078117,0,0.00424214219674468,-0.0006113028503023088,-0.0008629361400380731,-0.6920511722564697,0.18081654608249664,-9.867335319519043,0,0,45.0,1,1,1756,1830
73.08040100,73080401,0,0.0025607566349208355,0.0012613872531801462,-0.0009405801538378,-0.6909833550453186,0.1761319488286972,-9.869063377380371,0,0,45.0,1,1,1756,1830
73.08292800,73082928,0,0.0011955425143241882,0.0024781893007457256,-0.0006296928622759879,-0.6937735080718994,0.1722399890422821,-9.871554374694824,0,0,45.0,1,1,1756,1830
73.08539700,73085397,0,-0.0006584729999303818,0.00362694775685668,-0.0006186380633153021,-0.6953554153442383,0.16885587573051453,-9.871980667114258,0,0,45.0,1,1,1756,1830
73.08813000,73088130,0,-0.0024442756548523903,0.004043061751872301,-0.001015464891679585,-0.6942606568336487,0.16720309853553772,-9.872954368591309,0,0,45.0,1,1,1756,1830
73.09041700,73090417,0,-0.0037313508801162243,0.004415841307491064,-0.0011901304824277759,-0.6910272836685181,0.16816134750843048,-9.87157917022705,0,0,45.0,1,1,1756,1830
73.09292900,73092929,0,-0.0041353218257427216,0.004617976490408182,-0.00066778325708583,-0.6864742636680603,0.17356324195861816,-9.866850852966309,0,0,45.0,1,1,1756,1830
73.09541200,73095412,0,-0.004485188517719507,0.004116827622056007,-0.0006716797943226993,-0.684158444404602,0.17746008932590485,-9.861764907836914,0,0,45.0,1,1,1756,1830
73.09818800,73098188,0,-0.003929985221475363,0.004925261251628399,-0.0010515527101233602,-0.6831595301628113,0.18297961354255676,-9.858867645263672,0,0,45.0,1,1,1756,1830
73.10041000,73100410,0,-0.0034145531244575977,0.004800721537321806,-0.001440874650143087,-0.6829578280448914,0.18750104308128357,-9.85443115234375,0,0,45.0,1,1,1756,1830
73.10291800,73102918,0,-0.0025339527055621147,0.0036436922382563353,-0.0008003398543223739,-0.6816703677177429,0.18747740983963013,-9.850460052490234,0,0,45.0,1,1,1756,1830
73.10539400,73105394,0,-0.0013421033509075642,0.0027311425656080246,0.00021448734332807362,-0.6801581382751465,0.1870165467262268,-9.850529670715332,0,0,45.0,1,1,1756,1830
73.10820600,73108206,0,-0.00087990757310763,0.0017423855606466532,0.0009685254190117121,-0.6786660552024841,0.19000081717967987,-9.854999542236328,0,0,45.0,1,1,1756,1830
73.11051200,73110512,0,-0.0003119590983260423,0.0005016742506995797,0.0012370983604341745,-0.6791679859161377,0.19192123413085938,-9.862212181091309,0,0,45.0,1,1,1756,1830
73.11292200,73112922,0,-2.1611645934171975e-05,-0.0005255297874100506,0.0013289842754602432,-0.6803447604179382,0.1941797286272049,-9.86441707611084,0,0,45.0,1,1,1756,1830
73.11541200,73115412,0,0.000190597798791714,-0.0013123624958097935,0.0013974369503557682,-0.6845579743385315,0.19836226105690002,-9.865228652954102,0,0,45.0,1,1,1756,1830
73.11814700,73118147,0,-0.001019666320644319,-0.0006643013912253082,0.0012628984404727817,-0.6857365965843201,0.19969134032726288,-9.863734245300293,0,0,45.0,1,1,1756,1830
73.12041400,73120414,0,-0.0017015904886648059,-0.00014621355512645096,0.0008876082138158381,-0.6852396130561829,0.20054836571216583,-9.86002254486084,0,0,45.0,1,1,1756,1830
73.12291900,73122919,0,-0.0009163547656498849,-0.00018251477740705013,0.0011449001030996442,-0.6813662648200989,0.1998065859079361,-9.853543281555176,0,0,45.0,1,1,1756,1830
73.12539900,73125399,0,8.1309350207448e-05,-0.0013391318498179317,0.0013134932378306985,-0.6823301911354065,0.19928479194641113,-9.848156929016113,0,0,45.0,1,1,1756,1830
73.12828200,73128282,0,0.0004089607682544738,-0.0014234815025702119,0.000763505173381418,-0.6854439973831177,0.1957150250673294,-9.844488143920898,0,0,45.0,1,1,1756,1830
73.13042300,73130423,0,0.001308906590566039,-0.001587075530551374,0.0009442413575015962,-0.6897838711738586,0.19231444597244263,-9.84174919128418,0,0,45.0,1,1,1756,1830
73.13293700,73132937,0,0.00202689110301435,-0.0020203632302582264,0.0008661054889671504,-0.6929375529289246,0.19012673199176788,-9.839445114135742,0,0,45.0,1,1,1756,1830
73.13547600,73135476,0,0.0026683846954256296,-0.0021477926056832075,0.0010342183522880077,-0.6964637041091919,0.18577271699905396,-9.839656829833984,0,0,45.0,1,1,1756,1830
73.13822700,73138227,0,0.002567894058302045,-0.0026087318547070026,0.0005900511750951409,-0.6990064978599548,0.18492013216018677,-9.842778205871582,0,0,45.0,1,1,1756,1830
73.14040600,73140406,0,0.0018097456777468324,-0.0018233427545055747,0.000906073662918061,-0.698589026927948,0.18583378195762634,-9.84534740447998,0,0,45.0,1,1,1756,1830
73.14291700,73142917,0,0.0006789658218622208,-0.0012711266754195094,0.0004553469188977033,-0.6982070207595825,0.18551521003246307,-9.847655296325684,0,0,45.0,1,1,1756,1830
73.14541200,73145412,0,-3.57501812686678e-05,-0.0002256864245282486,3.280887540313415e-05,-0.6953842043876648,0.18437817692756653,-9.850460052490234,0,0,45.0,1,1,1756,1830
73.14814000,73148140,0,0.0004568962613120675,0.0008135479292832315,-0.0006866446346975863,-0.6930527687072754,0.18406899273395538,-9.855507850646973,0,0,45.0,1,1,1756,1830
73.15041800,73150418,0,0.001522268634289503,0.0019075266318395734,-0.0007380985771305859,-0.6914528608322144,0.18277320265769958,-9.85881233215332,0,0,45.0,1,1,1756,1830
73.15292000,73152920,0,0.0026219275314360857,0.0014595850370824337,-0.0008386785048060119,-0.6910412907600403,0.18150797486305237,-9.859542846679688,0,0,45.0,1,1,1756,1830
73.15540700,73155407,0,0.0028205043636262417,0.0017270623939111829,-0.001039709779433906,-0.6905373334884644,0.17788387835025787,-9.861888885498047,0,0,45.0,1,1,1756,1830
73.15814100,73158141,0,0.0021220522467046976,0.0024785897694528103,-0.0008805180550552905,-0.6887800693511963,0.17551761865615845,-9.861598014831543,0,0,45.0,1,1,1756,1830
73.16040300,73160403,0,0.0014538211980834603,0.002943847794085741,-0.0010667495662346482,-0.6906018853187561,0.1706937998533249,-9.861583709716797,0,0,45.0,1,1,1756,1830
73.16290200,73162902,0,0.0012237370247021317,0.00358348386362195,-0.0012201470090076327,-0.6957338452339172,0.1694921851158142,-9.861652374267578,0,0,45.0,1,1,1756,1830
73.16541500,73165415,0,0.00014808241394348443,0.004163429606705904,-0.001134798745624721,-0.70123690366745,0.16947194933891296,-9.85859489440918,0,0,45.0,1,1,1756,1830
73.16814300,73168143,0,-0.0008750422857701778,0.0048448373563587666,-0.0007159253000281751,-0.704731822013855,0.16984501481056213,-9.855396270751953,0,0,45.0,1,1,1756,1830
73.17044600,73170446,0,-0.0008944671717472374,0.003853420726954937,-0.000925278349313885,-0.7085280418395996,0.17205265164375305,-9.856106758117676,0,0,45.0,1,1,1756,1830
73.17291700,73172917,0,-0.0017891189781948924,0.003423631889745593,-0.0007667011814191937,-0.7108535766601562,0.17695024609565735,-9.854973793029785,0,0,45.0,1,1,1756,1830
73.17540500,73175405,0,-0.0023352401331067085,0.0034577855840325356,-0.0006771549815312028,-0.7133767604827881,0.18311984837055206,-9.858657836914062,0,0,45.0,1,1,1756,1830
73.17813100,73178131,0,-0.0020395731553435326,0.0032142524141818285,-0.0007544797845184803,-0.7130315899848938,0.18890929222106934,-9.862968444824219,0,0,45.0,1,1,1756,1830
73.18040400,73180404,0,-0.0018071751110255718,0.0029548336751759052,-0.0004769082006532699,-0.7117387056350708,0.19568097591400146,-9.867835998535156,0,0,45.0,1,1,1756,1830
73.18290400,73182904,0,-0.000839978747535497,0.0016462119529023767,-0.0002897166123148054,-0.7086719870567322,0.19911549985408783,-9.870896339416504,0,0,45.0,1,1,1756,1830
73.18540300,73185403,0,0.0005746834794990718,0.0013596729841083288,-0.0005512466887012124,-0.7034105062484741,0.20118927955627441,-9.87283992767334,0,0,45.0,1,1,1756,1830
73.18820200,73188202,0,0.0012058992870151997,0.0017011240124702454,-0.00036572173121385276,-0.6989561319351196,0.1998765617609024,-9.875004768371582,0,0,45.0,1,1,1756,1830
73.19042900,73190429,0,0.0013603357365354896,0.002111998153850436,-0.0007485215901397169,-0.6954820156097412,0.19587814807891846,-9.874322891235352,0,0,45.0,1,1,1756,1830
73.19291600,73192916,0,0.0009604130173102021,0.0031539215706288815,-0.0005730405100621283,-0.6940112113952637,0.19109027087688446,-9.872542381286621,0,0,45.0,1,1,1756,1830
73.19541000,73195410,0,0.0003051201638299972,0.003910677507519722,-0.00039574119728058577,-0.6920185685157776,0.18759746849536896,-9.87216567993164,0,0,45.0,1,1,1756,1830
73.19818100,73198181,0,-0.0011185375042259693,0.00415593758225441,1.8759478734864388e-06,-0.6878911852836609,0.1881672441959381,-9.872766494750977,0,0,45.0,1,1,1756,1830
73.20042100,73200421,0,-0.002468931255862117,0.00454619200900197,-0.0001903152442537248,-0.6854365468025208,0.18960851430892944,-9.871109962463379,0,0,45.0,1,1,1756,1830
73.20290300,73202903,0,-0.0023094185162335634,0.005430799908936024,-0.00017440647934563458,-0.6855623722076416,0.18940001726150513,-9.867714881896973,0,0,45.0,1,1,1756,1830
73.20539800,73205398,0,-0.0027732043527066708,0.006854983977973461,-8.541285205865279e-05,-0.6902559995651245,0.1895858645439148,-9.867708206176758,0,0,45.0,1,1,1756,1830
73.20814600,73208146,0,-0.004134046379476786,0.007818300276994705,-6.0697646404150873e-05,-0.6945492625236511,0.19050811231136322,-9.868948936462402,0,0,45.0,1,1,1756,1830
73.21059400,73210594,0,-0.004417154006659985,0.007476418744772673,7.192947464318422e-07,-0.6972668170928955,0.19263491034507751,-9.867961883544922,0,0,45.0,1,1,1756,1830
73.21291700,73212917,0,-0.004178600385785103,0.00710814306512475,0.0003190019342582673,-0.6995567679405212,0.19621126353740692,-9.867552757263184,0,0,45.0,1,1,1758,1830
73.21542000,73215420,0,-0.0050148204900324345,0.007525912020355463,0.0004008295072708279,-0.7033111453056335,0.2002130150794983,-9.864521026611328,0,0,45.0,1,1,1758,1830
73.21813300,73218133,0,-0.003981851972639561,0.005438739899545908,0.00054342788644135,-0.7019607424736023,0.20017483830451965,-9.861846923828125,0,0,45.0,1,1,1758,1830
73.22041400,73220414,0,-0.00251809717155993,0.0021497507113963366,0.00039507538895122707,-0.6988085508346558,0.2002485692501068,-9.858715057373047,0,0,45.0,1,1,1758,1830
73.22290100,73222901,0,-0.0009854817762970924,-0.0011345436796545982,-0.00011793242447311059,-0.698291540145874,0.19919462502002716,-9.856708526611328,0,0,45.0,1,1,1758,1830
73.22541100,73225411,0,-0.00025538497720845044,-0.0016393562545999885,-0.00037632559542544186,-0.6985989809036255,0.19609420001506805,-9.85710334777832,0,0,45.0,1,1,1758,1830
73.22827900,73228279,0,-0.00024846597807481885,-0.0010765877086669207,-0.0007726501207798719,-0.6972229480743408,0.19290480017662048,-9.85720443725586,0,0,45.0,1,1,1758,1830
73.23042200,73230422,0,0.0004614580830093473,0.0002490584447514266,-0.0007572409813292325,-0.693913459777832,0.18884779512882233,-9.85862922668457,0,0,45.0,1,1,1758,1830
73.23292300,73232923,0,0.0007803540211170912,0.00109329994302243,-0.0002713702851906419,-0.6897795796394348,0.18503409624099731,-9.864439964294434,0,0,45.0,1,1,1758,1830
73.23539400,73235394,0,0.0004993901820853353,0.0021543707698583603,0.00035054239560849965,-0.6868810057640076,0.18634869158267975,-9.876091003417969,0,0,45.0,1,1,1758,1830
73.23821000,73238210,0,0.0015674742171540856,0.002994141075760126,0.00020468977163545787,-0.6845642924308777,0.18468718230724335,-9.883331298828125,0,0,45.0,1,1,1758,1830
73.24042100,73240421,0,0.0021449716296046972,0.0024623475037515163,8.230130333686247e-05,-0.6809988021850586,0.18374429643154144,-9.886526107788086,0,0,45.0,1,1,1758,1830
73.24291500,73242915,0,0.0023816758766770363,0.0019181838724762201,0.0002632763935253024,-0.677646815776825,0.18182416260242462,-9.887508392333984,0,0,45.0,1,1,1758,1830
73.24540800,73245408,0,0.0028785087633877993,0.0012595077278092504,-9.72733960225014e-06,-0.6748836636543274,0.17926816642284393,-9.887032508850098,0,0,45.0,1,1,1758,1830
73.24812100,73248121,0,0.002465135185047984,0.0012687270063906908,-0.0002961333084385842,-0.6715121865272522,0.17517954111099243,-9.884556770324707,0,0,45.0,1,1,1758,1830
73.25043300,73250433,0,0.001131393015384674,0.0009534295531921089,-0.000595475547015667,-0.6740511059761047,0.172207772731781,-9.881392478942871,0,0,45.0,1,1,1758,1830
73.25291600,73252916,0,5.3006766393082216e-05,0.0008861884707584977,-0.0005210095550864935,-0.6771740317344666,0.17092055082321167,-9.87753677368164,0,0,45.0,1,1,1758,1830
73.25541000,73255410,0,-0.001645164447836578,0.0006598584586754441,-0.0006619409541599452,-0.6781638860702515,0.16851025819778442,-9.87421989440918,0,0,45.0,1,1,1758,1830
73.25814200,73258142,0,-0.0024620285257697105,0.00024486074107699096,-0.0006409974303096533,-0.6790529489517212,0.16562996804714203,-9.873396873474121,0,0,45.0,1,1,1758,1830
73.26039900,73260399,0,-0.00203245272859931,-0.0003588759573176503,-0.0003428485069889575,-0.6813637018203735,0.16462887823581696,-9.871380805969238,0,0,45.0,1,1,1758,1830
73.26290200,73262902,0,-0.0015973993577063084,-0.000705961138010025,-0.00042343168752267957,-0.6816942691802979,0.16716469824314117,-9.865147590637207,0,0,45.0,1,1,1758,1830
73.26540200,73265402,0,-0.0014055278152227402,-0.0014043771661818027,-0.00044755605631507933,-0.6799168586730957,0.17091524600982666,-9.85783576965332,0,0,45.0,1,1,1758,1830
73.26813300,73268133,0,-0.0018996431026607752,-0.0014423186657950282,-0.00039369205478578806,-0.6806977987289429,0.17386937141418457,-9.856648445129395,0,0,45.0,1,1,1758,1830
73.27042300,73270423,0,-0.0018893855158239603,-0.0011480555403977633,-0.00028568459674715996,-0.6811758875846863,0.17211328446865082,-9.854702949523926,0,0,45.0,1,1,1758,1830
73.27291400,73272914,0,-0.0023680394515395164,-0.00013644447608385235,-0.000635497912298888,-0.6811023354530334,0.171720951795578,-9.854191780090332,0,0,45.0,1,1,1758,1830
73.27540200,73275402,0,-0.0019097469048574567,-0.0005392438033595681,-0.0002286538074258715,-0.6785871982574463,0.1729584038257599,-9.853779792785645,0,0,45.0,1,1,1758,1830
73.27818800,73278188,0,-0.0018320934614166617,-0.0011553795775398612,0.0002498713438399136,-0.67903071641922,0.17605257034301758,-9.849361419677734,0,0,45.0,1,1,1758,1830
73.28040400,73280404,0,-0.0023669812362641096,-0.0010878345929086208,0.001099497894756496,-0.6791421175003052,0.17659564316272736,-9.848183631896973,0,0,45.0,1,1,1758,1830
73.28290600,73282906,0,-0.002327595604583621,-0.00041876500472426414,0.001956007443368435,-0.6784708499908447,0.1734960526227951,-9.849674224853516,0,0,45.0,1,1,1758,1830
73.28539700,73285397,0,-0.0025089154951274395,-0.0001687101466814056,0.0015130044193938375,-0.6768101453781128,0.17089854180812836,-9.851344108581543,0,0,45.0,1,1,1758,1830
73.28814500,73288145,0,-0.0024456640239804983,0.0003549767716322094,0.0015868288464844227,-0.6764021515846252,0.16889552772045135,-9.855484008789062,0,0,45.0,1,1,1758,1830
73.29041700,73290417,0,-0.001981154317036271,0.0008314354345202446,0.002288384595885873,-0.6779383420944214,0.1669692099094391,-9.861214637756348,0,0,45.0,1,1,1758,1830
73.29292800,73292928,0,-0.0014788112603127956,0.000529164623003453,0.0019006499787792563,-0.681418776512146,0.16512531042099,-9.863511085510254,0,0,45.0,1,1,1758,1830
73.29540300,73295403,0,-0.000767643447034061,0.0011765630915760994,0.0012934869155287743,-0.6813361644744873,0.16292163729667664,-9.860459327697754,0,0,45.0,1,1,1758,1830
73.29813700,73298137,0,-0.00016229096218012273,0.0018334718188270926,0.0007567564025521278,-0.6808916330337524,0.1638694852590561,-9.859278678894043,0,0,45.0,1,1,1758,1830
73.30043700,73300437,0,0.0002318970946362242,0.001107365358620882,0.00023959022655617446,-0.6812023520469666,0.16542889177799225,-9.859060287475586,0,0,45.0,1,1,1758,1830
73.30292400,73302924,0,0.0005270591354928911,-0.00015863862063270062,-0.00039905350422486663,-0.6812929511070251,0.16686579585075378,-9.857076644897461,0,0,45.0,1,1,1758,1830
73.30540100,73305401,0,0.0004342937027104199,-8.335493475897238e-05,-0.0006624710513278842,-0.6808072924613953,0.16410121321678162,-9.853670120239258,0,0,45.0,1,1,1758,1830
73.30813600,73308136,0,0.00015904729661997408,0.00027833611238747835,-0.0005824349354952574,-0.6798545122146606,0.1640172153711319,-9.849514961242676,0,0,45.0,1,1,1758,1830
73.31058300,73310583,0,-0.00019141382654197514,0.0010749760549515486,0.00021960822050459683,-0.6801683306694031,0.16370992362499237,-9.846007347106934,0,0,45.0,1,1,1758,1830
73.31291600,73312916,0,-0.0009339255630038679,0.002631980227306485,-0.00018521772290114313,-0.6794443130493164,0.16473370790481567,-9.846181869506836,0,0,45.0,1,1,1758,1830
73.31540800,73315408,0,-0.001955779967829585,0.005310529377311468,-0.0005193229299038649,-0.6790049076080322,0.16800826787948608,-9.850281715393066,0,0,45.0,1,1,1758,1830
73.31815000,73318150,0,-0.003914734348654747,0.006892345380038023,-0.00043570942943915725,-0.6785873174667358,0.16792944073677063,-9.850944519042969,0,0,45.0,1,1,1758,1830
73.32040500,73320405,0,-0.005685137119144201,0.007533126510679722,0.00018963473848998547,-0.6773145794868469,0.16721414029598236,-9.850174903869629,0,0,45.0,1,1,1758,1830
73.32292700,73322927,0,-0.0060415430925786495,0.00775674544274807,0.00055456452537328,-0.6758479475975037,0.1648413985967636,-9.848918914794922,0,0,45.0,1,1,1758,1830
73.32541400,73325414,0,-0.005152211524546146,0.006606502924114466,0.0004949644790031016,-0.6768476366996765,0.1639774590730667,-9.848125457763672,0,0,45.0,1,1,1758,1830
73.32830000,73328300,0,-0.004387630149722099,0.005366539116948843,6.755526555934921e-05,-0.6782602071762085,0.1646941751241684,-9.849103927612305,0,0,45.0,1,1,1758,1830
73.33043200,73330432,0,-0.003628119360655546,0.003827592357993126,0.00029190044733695686,-0.6795790791511536,0.16742576658725739,-9.850935935974121,0,0,45.0,1,1,1758,1830
73.33291300,73332913,0,-0.00274911941960454,0.0028769581113010645,-0.00015198095934465528,-0.6808010935783386,0.16752219200134277,-9.850682258605957,0,0,45.0,1,1,1758,1830
73.33541000,73335410,0,-0.002266059862449765,0.002201477298513055,-0.00021533149993047118,-0.6788411140441895,0.1672244817018509,-9.848896980285645,0,0,45.0,1,1,1758,1830
73.33824300,73338243,0,-0.0020840829238295555,0.0021771620959043503,-0.00039708660915493965,-0.6756395101547241,0.1692708283662796,-9.849075317382812,0,0,45.0,1,1,1758,1830
73.34040900,73340409,0,-0.0010380790336057544,0.0017307279631495476,-0.00015591438568662852,-0.6784789562225342,0.17256715893745422,-9.851923942565918,0,0,45.0,1,1,1758,1830
73.34289800,73342898,0,0.00026582536520436406,0.0020749391987919807,-0.0001293150126002729,-0.6829488277435303,0.1752573549747467,-9.853547096252441,0,0,45.0,1,1,1758,1830
73.34542100,73345421,0,0.0008805678226053715,0.0029748156666755676,0.00011397061462048441,-0.685513436794281,0.17474888265132904,-9.85604190826416,0,0,45.0,1,1,1758,1830
73.34814100,73348141,0,0.0008014258928596973,0.004163068253546953,0.0004375416610855609,-0.689663290977478,0.1759350746870041,-9.859504699707031,0,0,45.0,1,1,1758,1830
73.35042700,73350427,0,0.000797036977019161,0.0037255589850246906,0.0007161243702284992,-0.6928010582923889,0.17657414078712463,-9.866495132446289,0,0,45.0,1,1,1758,1830
73.35291000,73352910,0,0.0002637439174577594,0.0021775560453534126,0.0005936924135312438,-0.6917418837547302,0.17339973151683807,-9.868783950805664,0,0,45.0,1,1,1758,1830
73.35542300,73355423,0,0.000734304019715637,0.0004594086785800755,0.0008270178223028779,-0.6859399676322937,0.16782456636428833,-9.86923885345459,0,0,45.0,1,1,1758,1830
73.35819700,73358197,0,0.001277867122553289,-0.0006536692380905151,0.0008389392169192433,-0.6807091236114502,0.16429275274276733,-9.866949081420898,0,0,45.0,1,1,1758,1830
73.36041500,73360415,0,0.0009474768303334713,-0.001316394074819982,-0.0001785535569069907,-0.6769974827766418,0.15877801179885864,-9.858208656311035,0,0,45.0,1,1,1758,1830
73.36289100,73362891,0,-0.00021369484602473676,0.00047740628360770643,-0.0005183118628337979,-0.6746636629104614,0.1554451584815979,-9.850825309753418,0,0,45.0,1,1,1758,1830
73.36541600,73365416,0,-0.0019781342707574368,0.001679181819781661,-0.000660578312817961,-0.6704091429710388,0.15406948328018188,-9.840664863586426,0,0,45.0,1,1,1758,1830
73.36819100,73368191,0,-0.0045409356243908405,0.00228687166236341,-0.00035311165265738964,-0.664789617061615,0.15425658226013184,-9.823055267333984,0,0,45.0,1,1,1758,1830
73.37042700,73370427,0,-0.008355848491191864,0.0036615696735680103,-0.001060390379279852,-0.6590781807899475,0.1547352820634842,-9.798908233642578,0,0,45.0,1,1,1758,1830
73.37290500,73372905,0,-0.011880733072757721,0.004381241742521524,-0.0007585105486214161,-0.6584739685058594,0.15966765582561493,-9.777976036071777,0,0,45.0,1,1,1758,1830
73.37540300,73375403,0,-0.013367392122745514,0.0031261437106877565,-0.0003965678333770484,-0.6605575680732727,0.17322196066379547,-9.763772010803223,0,0,45.0,1,1,1758,1830
73.37814400,73378144,0,-0.011539719067513943,0.0017530008917674422,0.00022910877305548638,-0.66319340467453,0.1912091076374054,-9.764542579650879,0,0,45.0,1,1,1758,1830
73.38040900,73380409,0,-0.005476559046655893,0.0007955555920489132,0.0002718859468586743,-0.6677329540252686,0.21335160732269287,-9.78406810760498,0,0,45.0,1,1,1758,1830
73.38290400,73382904,0,0.005903884768486023,0.00036042160354554653,-0.000748300226405263,-0.6730518937110901,0.23006169497966766,-9.822827339172363,0,0,45.0,1,1,1758,1830
73.38540300,73385403,0,0.021596768870949745,-0.0001831585104810074,-0.0016617880901321769,-0.6794213056564331,0.2372480183839798,-9.8741455078125,0,0,45.0,1,1,1758,1830
73.38814400,73388144,0,0.03970475122332573,-0.0018068464705720544,-0.0021799940150231123,-0.6850860714912415,0.2348228245973587,-9.93419361114502,0,0,45.0,1,1,1758,1830
73.39044500,73390445,0,0.05320858582854271,-0.0032504014670848846,-0.002342235529795289,-0.6962192058563232,0.2178526371717453,-9.996209144592285,0,0,45.0,1,1,1758,1830
73.39292900,73392929,0,0.06500262767076492,-0.002349656540900469,-0.0019519476918503642,-0.7077499628067017,0.18824119865894318,-10.050122261047363,0,0,45.0,1,1,1758,1830
73.39541500,73395415,0,0.06904997676610947,-0.0007553268224000931,-0.002158532151952386,-0.7181428074836731,0.14264453947544098,-10.09597110748291,0,0,45.0,1,1,1758,1830
73.39819600,73398196,0,0.0649646744132042,0.0005383630050346255,-0.0012808791361749172,-0.7248360514640808,0.10233675688505173,-10.113482475280762,0,0,45.0,1,1,1758,1830
73.40043100,73400431,0,0.050454284995794296,0.0027668369002640247,-0.0005040962132625282,-0.7288811206817627,0.06563742458820343,-10.108623504638672,0,0,45.0,1,1,1758,1830
73.40291900,73402919,0,0.02691555581986904,0.004643096588551998,0.000640773621853441,-0.7307143807411194,0.03993047773838043,-10.078542709350586,0,0,45.0,1,1,1758,1830
73.40541200,73405412,0,-0.002258575288578868,0.004652667790651321,0.0019227040465921164,-0.7301558256149292,0.028542764484882355,-10.024393081665039,0,0,45.0,1,1,1758,1830
73.40817200,73408172,0,-0.03450915217399597,0.004872472956776619,0.0023216649424284697,-0.7294367551803589,0.03380590304732323,-9.950223922729492,0,0,45.0,1,1,1758,1830
73.41055600,73410556,0,-0.06626221537590027,0.005951753351837397,0.0027422397397458553,-0.7273643612861633,0.055150650441646576,-9.864500999450684,0,0,45.0,1,1,1758,1830
73.41294700,73412947,0,-0.09250784665346146,0.007052857428789139,0.0028247840236872435,-0.7222843766212463,0.08847364783287048,-9.777112007141113,0,0,45.0,1,1,1758,1830
73.41541800,73415418,0,-0.11031311005353928,0.00772395683452487,0.0025905899237841368,-0.7150763273239136,0.1414215862751007,-9.68209171295166,0,0,45.0,1,1,1758,1830
73.41811700,73418117,0,-0.1154031977057457,0.007374227978289127,0.003049877705052495,-0.7108713984489441,0.19194422662258148,-9.616668701171875,0,0,45.0,1,1,1758,1830
73.42040100,73420401,0,-0.10811573266983032,0.006085414905101061,0.0026892710011452436,-0.7077197432518005,0.2437862604856491,-9.573851585388184,0,0,45.0,1,1,1758,1830
73.42290000,73422900,0,-0.08950033783912659,0.0056143347173929214,0.0022132161539047956,-0.7052066326141357,0.288204163312912,-9.558116912841797,0,0,45.0,1,1,1758,1830
73.42539600,73425396,0,-0.05935315042734146,0.005970401223748922,0.001904571196064353,-0.7007120251655579,0.32020309567451477,-9.575318336486816,0,0,45.0,1,1,1758,1830
73.42865900,73428659,0,-0.022665895521640778,0.005785362329334021,0.000916721997782588,-0.6961833238601685,0.33662378787994385,-9.6209135055542,0,0,45.0,1,1,1758,1830
73.43059700,73430597,0,0.016650062054395676,0.005840481258928776,-0.0003731918113771826,-0.6933958530426025,0.33606961369514465,-9.69092082977295,0,0,45.0,1,1,1758,1830
73.43291700,73432917,0,0.05427565053105354,0.006278166081756353,-0.0015825527952983975,-0.6915491223335266,0.32226118445396423,-9.77830696105957,0,0,45.0,1,1,1758,1830
73.43541300,73435413,0,0.08632401376962662,0.006385988090187311,-0.002758550923317671,-0.6841440796852112,0.28578072786331177,-9.889790534973145,0,0,45.0,1,1,1758,1830
73.43822400,73438224,0,0.10829324275255203,0.005454192869365215,-0.0034833939280360937,-0.6794964075088501,0.2423015981912613,-9.977567672729492,0,0,45.0,1,1,1758,1830
73.44040100,73440401,0,0.11798013001680374,0.005080367438495159,-0.0029648542404174805,-0.6750276684761047,0.18924257159233093,-10.051286697387695,0,0,45.0,1,1,1758,1830
73.44290500,73442905,0,0.11481485515832901,0.003268483094871044,-0.0021822364069521427,-0.6743565201759338,0.13519413769245148,-10.102740287780762,0,0,45.0,1,1,1758,1830
73.44539700,73445397,0,0.09798425436019897,0.0032111210748553276,-0.0015818204265087843,-0.6760827898979187,0.08396528661251068,-10.128814697265625,0,0,45.0,1,1,1758,1830
73.44813600,73448136,0,0.0701320543885231,0.00407524686306715,-0.0010294197127223015,-0.677771806716919,0.047014158219099045,-10.12402629852295,0,0,45.0,1,1,1758,1830
73.45043200,73450432,0,0.03587795048952103,0.0050699952989816666,-0.0005051229964010417,-0.6764436364173889,0.025891311466693878,-10.093997955322266,0,0,45.0,1,1,1758,1830
73.45291700,73452917,0,-0.0003853050002362579,0.007426739204674959,0.0001858214382082224,-0.6743156909942627,0.02307862788438797,-10.042082786560059,0,0,45.0,1,1,1758,1830
73.45540400,73455404,0,-0.03541208431124687,0.009050979278981686,0.0007926016114652157,-0.668472170829773,0.04349851980805397,-9.95568561553955,0,0,45.0,1,1,1758,1830
73.45814300,73458143,0,-0.06350542604923248,0.009335841983556747,0.0010429214453324676,-0.6631582379341125,0.0740104615688324,-9.872633934020996,0,0,45.0,1,1,1758,1830
73.46043000,73460430,0,-0.08226612210273743,0.009356535971164703,0.0016535378526896238,-0.660154402256012,0.11385084688663483,-9.789488792419434,0,0,45.0,1,1,1758,1830
73.46290500,73462905,0,-0.09008551388978958,0.010479912161827087,0.0014961695997044444,-0.6580135226249695,0.15538622438907623,-9.718155860900879,0,0,45.0,1,1,1758,1830
73.46540500,73465405,0,-0.08678177744150162,0.009774127043783665,0.00141401425935328,-0.6586326360702515,0.1930793970823288,-9.668195724487305,0,0,45.0,1,1,1758,1830
73.46813700,73468137,0,-0.07316169142723083,0.008523746393620968,0.0011210691882297397,-0.6598213315010071,0.22618155181407928,-9.639532089233398,0,0,45.0,1,1,1758,1830
73.47042200,73470422,0,-0.0527675561606884,0.007379462942481041,0.000903271313291043,-0.6634112596511841,0.2522769570350647,-9.638388633728027,0,0,45.0,1,1,1758,1830
73.47291500,73472915,0,-0.028089741244912148,0.006657531019300222,0.0007593447808176279,-0.66692715883255,0.26745909452438354,-9.664545059204102,0,0,45.0,1,1,1758,1830
73.47540000,73475400,0,-0.0021381478291004896,0.005810501519590616,0.00022022622579243034,-0.6706527471542358,0.2682212293148041,-9.727269172668457,0,0,45.0,1,1,1758,1830
73.47812400,73478124,0,0.021518930792808533,0.0041611031629145145,-0.0004477851034607738,-0.6738587021827698,0.2541406452655792,-9.797714233398438,0,0,45.0,1,1,1758,1830
73.48042000,73480420,0,0.03989618644118309,0.0024445457383990288,-0.0010487799299880862,-0.6793466806411743,0.2324897199869156,-9.873373031616211,0,0,45.0,1,1,1758,1830
73.48291100,73482911,0,0.05091686546802521,0.001142044784501195,-0.0013005008222535253,-0.685528576374054,0.20442765951156616,-9.947793006896973,0,0,45.0,1,1,1758,1830
73.48540600,73485406,0,0.05378824472427368,0.0011880137026309967,-0.001573464018292725,-0.691421389579773,0.17365601658821106,-10.008445739746094,0,0,45.0,1,1,1758,1830
73.48812900,73488129,0,0.04970793053507805,0.002180564682930708,-0.0015781387919560075,-0.695037305355072,0.14709876477718353,-10.050193786621094,0,0,45.0,1,1,1758,1830
73.49042600,73490426,0,0.03966060280799866,0.0017854657489806414,-0.0008671925170347095,-0.6991069316864014,0.1210874617099762,-10.063469886779785,0,0,45.0,1,1,1758,1830
73.49290100,73492901,0,0.02508949488401413,0.002092227339744568,-0.0004198441456537694,-0.7031345963478088,0.09878923743963242,-10.04119873046875,0,0,45.0,1,1,1758,1830
73.49540200,73495402,0,0.007500614505261183,0.003398303175345063,0.00038376194424927235,-0.7033707499504089,0.0939117819070816,-10.001124382019043,0,0,45.0,1,1,1758,1830
73.49812900,73498129,0,-0.010036724619567394,0.004363688640296459,0.001354991807602346,-0.7040868401527405,0.0996980145573616,-9.950160026550293,0,0,45.0,1,1,1758,1830
73.50042200,73500422,0,-0.02475009113550186,0.0046516116708517075,0.001182299805805087,-0.7044731974601746,0.11437507718801498,-9.889056205749512,0,0,45.0,1,1,1758,1830
73.50291200,73502912,0,-0.035492219030857086,0.0038173277862370014,0.0011368197156116366,-0.704736053943634,0.13360708951950073,-9.825804710388184,0,0,45.0,1,1,1758,1830
73.50540800,73505408,0,-0.040343400090932846,0.0017980608390644193,0.0017408474814146757,-0.7045912742614746,0.15867124497890472,-9.766118049621582,0,0,45.0,1,1,1758,1830
73.50812800,73508128,0,-0.038386955857276917,0.00020933084306307137,0.001970132812857628,-0.7017633318901062,0.1871604323387146,-9.718582153320312,0,0,45.0,1,1,1758,1830
73.51060200,73510602,0,-0.029392380267381668,0.0005552956718020141,0.0013882858911529183,-0.6961849927902222,0.21232108771800995,-9.687067985534668,0,0,45.0,1,1,1758,1830
73.51292000,73512920,0,-0.01494891382753849,-0.00038911629235371947,0.0011564141605049372,-0.6923307180404663,0.23100081086158752,-9.675454139709473,0,0,45.0,1,1,1758,1830
73.51542700,73515427,0,0.0019527063705027103,-0.0009446588810533285,0.0010731311049312353,-0.6935736536979675,0.2373817414045334,-9.692131996154785,0,0,45.0,1,1,1758,1830
73.51812900,73518129,0,0.019481195136904716,-0.00168409023899585,0.0008715568110346794,-0.6929999589920044,0.2335921972990036,-9.731672286987305,0,0,45.0,1,1,1758,1830
73.52040400,73520404,0,0.03439314290881157,-0.002370942384004593,0.0013234572252258658,-0.6911171674728394,0.22109773755073547,-9.790968894958496,0,0,45.0,1,1,1758,1830
73.52290500,73522905,0,0.04430616647005081,-0.0017238202271983027,0.0009278754005208611,-0.6876561045646667,0.20170463621616364,-9.858924865722656,0,0,45.0,1,1,1758,1830
73.52540600,73525406,0,0.04831713065505028,-0.0012918171705678105,0.0005056744557805359,-0.6856053471565247,0.1743851751089096,-9.925798416137695,0,0,45.0,1,1,1758,1830
73.52827800,73528278,0,0.04575220122933388,-0.0008557582623325288,0.0005223894841037691,-0.6858146786689758,0.14614953100681305,-9.989227294921875,0,0,45.0,1,1,1758,1830
73.53042900,73530429,0,0.036420322954654694,-0.0001818380696931854,0.00030225366936065257,-0.6855261325836182,0.1213589459657669,-10.04007625579834,0,0,45.0,1,1,1758,1830
73.53290900,73532909,0,0.02185874991118908,0.0007440155022777617,0.0008326706010848284,-0.685326099395752,0.09970750659704208,-10.082212448120117,0,0,45.0,1,1,1758,1830
73.53539900,73535399,0,0.003981089219450951,0.0009432949591428041,0.0006506954086944461,-0.6810185313224792,0.09360665082931519,-10.091812133789062,0,0,45.0,1,1,1758,1830
73.53822600,73538226,0,-0.015052739530801773,0.0011860745726153255,0.0007306742481887341,-0.6766834855079651,0.09849067777395248,-10.077459335327148,0,0,45.0,1,1,1758,1830
73.54040600,73540406,0,-0.034276753664016724,0.0025800487492233515,0.0009164814255200326,-0.6756975054740906,0.1102471649646759,-10.041556358337402,0,0,45.0,1,1,1758,1830
73.54290700,73542907,0,-0.04998643696308136,0.0031724313739687204,0.0010267420439049602,-0.6762974858283997,0.1330002099275589,-9.9866943359375,0,0,45.0,1,1,1758,1830
73.54539900,73545399,0,-0.05916855111718178,0.003312084823846817,0.001558537594974041,-0.67716383934021,0.16198070347309113,-9.919249534606934,0,0,45.0,1,1,1758,1830
73.54818500,73548185,0,-0.06110706180334091,0.003300268901512027,0.0014294612919911742,-0.677200436592102,0.19167689979076385,-9.847765922546387,0,0,45.0,1,1,1758,1830
73.55042700,73550427,0,-0.055964596569538116,0.003133283229544759,0.00032636686228215694,-0.6745588183403015,0.21799777448177338,-9.779227256774902,0,0,45.0,1,1,1758,1830
73.55290700,73552907,0,-0.043885137885808945,0.0029214853420853615,-0.00036609978997148573,-0.6707179546356201,0.24694539606571198,-9.713388442993164,0,0,45.0,1,1,1758,1830
73.55540300,73555403,0,-0.0258925911039114,0.0022390219382941723,-0.0004069638380315155,-0.6684951782226562,0.2643396854400635,-9.674181938171387,0,0,45.0,1,1,1758,1830
73.55813700,73558137,0,-0.0044806054793298244,0.0019370364025235176,-0.0007081549265421927,-0.6670069694519043,0.27314475178718567,-9.656041145324707,0,0,45.0,1,1,1758,1830
73.56041400,73560414,0,0.017673952504992485,0.002257394604384899,-0.0012134215794503689,-0.6690885424613953,0.27281609177589417,-9.665426254272461,0,0,45.0,1,1,1758,1830
73.56291800,73562918,0,0.038587506860494614,0.0028755110688507557,-0.0016698837280273438,-0.6739707589149475,0.26286372542381287,-9.696613311767578,0,0,45.0,1,1,1758,1830
73.56540800,73565408,0,0.05537474900484085,0.003686779411509633,-0.001892541884444654,-0.6786171197891235,0.24449096620082855,-9.746356964111328,0,0,45.0,1,1,1758,1830
73.56813900,73568139,0,0.06524240225553513,0.003947851713746786,-0.001556512899696827,-0.6840291023254395,0.21786369383335114,-9.811360359191895,0,0,45.0,1,1,1758,1830
73.57041900,73570419,0,0.06784278154373169,0.004093628376722336,-0.0011778892949223518,-0.6888468861579895,0.18643303215503693,-9.883776664733887,0,0,45.0,1,1,1758,1830
73.57292100,73572921,0,0.06510262191295624,0.003542662598192692,-0.0013577282661572099,-0.6906050443649292,0.15783636271953583,-9.960415840148926,0,0,45.0,1,1,1758,1830
73.57540000,73575400,0,0.054787494242191315,0.003351074643433094,-0.000947709777392447,-0.6882766485214233,0.12960974872112274,-10.033977508544922,0,0,45.0,1,1,1758,1830
73.57812900,73578129,0,0.038430146872997284,0.001571935834363103,-0.001056354958564043,-0.6852222681045532,0.11013980954885483,-10.072807312011719,0,0,45.0,1,1,1758,1830
73.58039700,73580397,0,0.01865159533917904,6.223355740075931e-05,-0.0013000421458855271,-0.6833733320236206,0.09586852788925171,-10.088993072509766,0,0,45.0,1,1,1758,1830
73.58290100,73582901,0,-0.0029749313835054636,-2.555500395828858e-05,-0.0014419318176805973,-0.6840258240699768,0.09436269104480743,-10.082324981689453,0,0,45.0,1,1,1758,1831
73.58539400,73585394,0,-0.02290448546409607,0.0016434283461421728,-0.0007439461187459528,-0.6825873255729675,0.10150526463985443,-10.055124282836914,0,0,45.0,1,1,1758,1831
73.58814000,73588140,0,-0.04118157550692558,0.0031773098744452,6.903542089276016e-05,-0.6786082983016968,0.11783421784639359,-10.00821304321289,0,0,45.0,1,1,1758,1831
73.59042500,73590425,0,-0.054975371807813644,0.005621177610009909,0.0002786903060041368,-0.6783303618431091,0.137145534157753,-9.949420928955078,0,0,45.0,1,1,1758,1831
73.59292000,73592920,0,-0.061812713742256165,0.006762280594557524,-0.000275881466222927,-0.6819271445274353,0.16227607429027557,-9.87382984161377,0,0,45.0,1,1,1758,1831
73.59540300,73595403,0,-0.062002792954444885,0.00794624537229538,-1.6515596144017763e-05,-0.6821341514587402,0.18085996806621552,-9.81529426574707,0,0,45.0,1,1,1758,1831
73.59813900,73598139,0,-0.05462922155857086,0.00829822476953268,0.00019950872228946537,-0.6814459562301636,0.19982200860977173,-9.766075134277344,0,0,45.0,1,1,1758,1831
73.60041500,73600415,0,-0.04217184707522392,0.0077711595222353935,-0.0001511125883553177,-0.6817331910133362,0.218855619430542,-9.731222152709961,0,0,45.0,1,1,1758,1831
73.60289900,73602899,0,-0.025881033390760422,0.0068833171389997005,-0.0005458759260363877,-0.6825557947158813,0.23166292905807495,-9.7114839553833,0,0,45.0,1,1,1758,1831
73.60540000,73605400,0,-0.0073066093027591705,0.005097630899399519,-0.0002996035909745842,-0.6844610571861267,0.2384876012802124,-9.711749076843262,0,0,45.0,1,1,1758,1831
73.60825000,73608250,0,0.010144617408514023,0.0034652368631213903,-0.0004935515462420881,-0.6853303909301758,0.23743179440498352,-9.732231140136719,0,0,45.0,1,1,1758,1831
73.61057100,73610571,0,0.02531317062675953,0.0023651686497032642,-0.0003728762676473707,-0.6881333589553833,0.2286067008972168,-9.769042015075684,0,0,45.0,1,1,1758,1831
73.61290100,73612901,0,0.036086875945329666,0.0009497414575889707,-8.616891864221543e-05,-0.6899317502975464,0.20733588933944702,-9.82535457611084,0,0,45.0,1,1,1758,1831
73.61542100,73615421,0,0.04135088250041008,0.0004198776150587946,-0.0004762677999678999,-0.6900641918182373,0.18648016452789307,-9.873730659484863,0,0,45.0,1,1,1758,1831
73.61818300,73618183,0,0.041476838290691376,0.0012924830662086606,-0.0010136144701391459,-0.6908521056175232,0.16590891778469086,-9.915849685668945,0,0,45.0,1,1,1758,1831
73.62041200,73620412,0,0.036515410989522934,0.0026495344936847687,-0.0008236228604800999,-0.6920017600059509,0.14674872159957886,-9.947868347167969,0,0,45.0,1,1,1758,1831
73.62289900,73622899,0,0.027403609827160835,0.003679197048768401,-0.0004673542862292379,-0.6945089101791382,0.1307961791753769,-9.96701717376709,0,0,45.0,1,1,1758,1831
73.62540000,73625400,0,0.015927830711007118,0.003313125343993306,-0.00033469198388047516,-0.6960352659225464,0.12156001478433609,-9.972432136535645,0,0,45.0,1,1,1758,1831
73.62829000,73628290,0,0.004672769922763109,0.0026919408701360226,-0.0001170489631476812,-0.6967784762382507,0.11751265823841095,-9.962148666381836,0,0,45.0,1,1,1758,1831
73.63044500,73630445,0,-0.007273425348103046,0.0024525283370167017,0.0005213730037212372,-0.6949278712272644,0.11986672133207321,-9.940496444702148,0,0,45.0,1,1,1758,1831
73.63290600,73632906,0,-0.01612779311835766,0.002449659863486886,0.0005803463864140213,-0.6896944046020508,0.12993325293064117,-9.903022766113281,0,0,45.0,1,1,1758,1831
73.63540500,73635405,0,-0.021730421110987663,0.0033858639653772116,0.0005786658730357885,-0.6852457523345947,0.14294776320457458,-9.868876457214355,0,0,45.0,1,1,1758,1831
73.63827900,73638279,0,-0.023384425789117813,0.0040021659806370735,0.0013244033325463533,-0.6810702681541443,0.1576792150735855,-9.836899757385254,0,0,45.0,1,1,1758,1831
73.64041000,73640410,0,-0.021044744178652763,0.004294706042855978,0.0012038570130243897,-0.6778773665428162,0.17119714617729187,-9.810559272766113,0,0,45.0,1,1,1758,1831
73.64291000,73642910,0,-0.015497162938117981,0.005911647342145443,0.0009084048215299845,-0.6750056147575378,0.18208512663841248,-9.792867660522461,0,0,45.0,1,1,1758,1831
73.64540100,73645401,0,-0.00840151496231556,0.00691959960386157,0.0008386470726691186,-0.6750487089157104,0.18813049793243408,-9.782307624816895,0,0,45.0,1,1,1758,1831
73.64813600,73648136,0,-0.0004999897792004049,0.0074326577596366405,0.0006250862497836351,-0.6749760508537292,0.19030676782131195,-9.783114433288574,0,0,45.0,1,1,1758,1831
73.65043700,73650437,0,0.007399213034659624,0.0060277702286839485,5.898133895243518e-05,-0.6793879270553589,0.19202083349227905,-9.795743942260742,0,0,45.0,1,1,1758,1831
73.65291600,73652916,0,0.01434510201215744,0.003756713354960084,0.00047491726581938565,-0.6851634979248047,0.18770501017570496,-9.821256637573242,0,0,45.0,1,1,1758,1831
73.65540700,73655407,0,0.016888994723558426,0.002711470937356353,-0.0001352780091110617,-0.6916381120681763,0.182509183883667,-9.842177391052246,0,0,45.0,1,1,1758,1831
73.65812700,73658127,0,0.016397740691900253,0.0021558571606874466,-3.9480652048951015e-05,-0.6995946764945984,0.1765960305929184,-9.864690780639648,0,0,45.0,1,1,1758,1831
73.66042600,73660426,0,0.014009589329361916,0.00194761180318892,9.783633868210018e-05,-0.7056218981742859,0.17261415719985962,-9.891156196594238,0,0,45.0,1,1,1758,1831
73.66291500,73662915,0,0.009052946232259274,0.001088333548977971,0.0002990912180393934,-0.7061721682548523,0.16951552033424377,-9.91213607788086,0,0,45.0,1,1,1758,1831
73.66540800,73665408,0,0.0013064282247796655,0.0009400733397342265,-0.00018990208627656102,-0.7060330510139465,0.1706104576587677,-9.926979064941406,0,0,45.0,1,1,1758,1831
73.66812900,73668129,0,-0.007349834777414799,0.001250383909791708,-0.00041596489609219134,-0.7014427185058594,0.17159998416900635,-9.93126106262207,0,0,45.0,1,1,1758,1831
73.67046900,73670469,0,-0.014249201864004135,0.0013210406759753823,0.0004770683590322733,-0.6972585916519165,0.17301346361637115,-9.927803993225098,0,0,45.0,1,1,1758,1831
73.67291100,73672911,0,-0.019782111048698425,0.0018210773123428226,0.0006241520750336349,-0.6947640180587769,0.17810630798339844,-9.909472465515137,0,0,45.0,1,1,1758,1831
73.67540500,73675405,0,-0.022947883233428,0.0019137085182592273,0.00052208750275895,-0.6915714740753174,0.18520048260688782,-9.886472702026367,0,0,45.0,1,1,1758,1831
73.67813200,73678132,0,-0.022194601595401764,0.001855651498772204,0.0006548862438648939,-0.6877256035804749,0.19438689947128296,-9.865279197692871,0,0,45.0,1,1,1758,1831
73.68039900,73680399,0,-0.01766005903482437,0.0008780577918514609,0.0008688191301189363,-0.6855509281158447,0.20466920733451843,-9.845858573913574,0,0,45.0,1,1,1758,1831
73.68292800,73682928,0,-0.009380578994750977,-0.0007744190515950322,0.001299287541769445,-0.6867926716804504,0.21280233561992645,-9.825133323669434,0,0,45.0,1,1,1758,1831
73.68539800,73685398,0,-0.00012461717415135354,-0.0013252041535452008,0.0015817671082913876,-0.6872749328613281,0.21825143694877625,-9.808247566223145,0,0,45.0,1,1,1758,1831
73.68813500,73688135,0,0.009251001290977001,-0.001804732484742999,0.0011565358145162463,-0.6878452897071838,0.2191724181175232,-9.79918098449707,0,0,45.0,1,1,1758,1831
73.69043100,73690431,0,0.01615866646170616,-0.0008979227859526873,5.111944847158156e-05,-0.683955192565918,0.2107318490743637,-9.796472549438477,0,0,45.0,1,1,1758,1831
73.69291500,73692915,0,0.020967597141861916,0.0003779528196901083,-0.00024019010015763342,-0.6765936017036438,0.20196612179279327,-9.801570892333984,0,0,45.0,1,1,1758,1831
73.69540600,73695406,0,0.023693416267633438,0.0003418317355681211,-0.00057255569845438,-0.6723211407661438,0.1927531659603119,-9.81231689453125,0,0,45.0,1,1,1758,1831
73.69814800,73698148,0,0.0243221465498209,0.00040059039019979537,-0.00017515831859782338,-0.6671700477600098,0.1783815622329712,-9.829670906066895,0,0,45.0,1,1,1758,1831
73.70042100,73700421,0,0.02231292612850666,0.0010643473360687494,0.00026394351152703166,-0.6623103618621826,0.16705156862735748,-9.854479789733887,0,0,45.0,1,1,1758,1831
73.70291600,73702916,0,0.017217960208654404,0.0024961992166936398,0.000636393902823329,-0.6580376625061035,0.15932925045490265,-9.877142906188965,0,0,45.0,1,1,1758,1831
73.70541100,73705411,0,0.009189838543534279,0.0037982729263603687,0.0007883349899202585,-0.6549950838088989,0.15404112637043,-9.8955717086792,0,0,45.0,1,1,1758,1831
73.70814000,73708140,0,0.0007587338914163411,0.004429417662322521,0.0006387663306668401,-0.6539166569709778,0.15158390998840332,-9.905609130859375,0,0,45.0,1,1,1758,1831
73.71059500,73710595,0,-0.007411491591483355,0.004920294042676687,0.0006428073393180966,-0.6565189957618713,0.15388958156108856,-9.911423683166504,0,0,45.0,1,1,1758,1831
73.71293000,73712930,0,-0.015266585163772106,0.00446201441809535,0.00015711896412540227,-0.6612306237220764,0.1609409749507904,-9.912481307983398,0,0,45.0,1,1,1758,1831
73.71539900,73715399,0,-0.022747058421373367,0.0039996616542339325,0.0005374617758207023,-0.6645336747169495,0.16715995967388153,-9.906583786010742,0,0,45.0,1,1,1758,1831
73.71813700,73718137,0,-0.027798019349575043,0.0035862356889992952,0.0013398479204624891,-0.6651079058647156,0.1749589592218399,-9.892044067382812,0,0,45.0,1,1,1758,1831
73.72040000,73720400,0,-0.02935764007270336,0.0032788922544568777,0.0010741211008280516,-0.6641519069671631,0.1805887520313263,-9.871007919311523,0,0,45.0,1,1,1758,1831
73.72292600,73722926,0,-0.028659382835030556,0.0037558898329734802,0.0009487656643614173,-0.6654333472251892,0.18909244239330292,-9.85240364074707,0,0,45.0,1,1,1758,1831
73.72540500,73725405,0,-0.024792863056063652,0.00400459673255682,0.0009610849083401263,-0.6676212549209595,0.19818076491355896,-9.83712387084961,0,0,45.0,1,1,1758,1831
73.72830700,73728307,0,-0.01874447800219059,0.003526070388033986,0.0002155339898308739,-0.6718912124633789,0.20552092790603638,-9.824458122253418,0,0,45.0,1,1,1758,1831
73.73043000,73730430,0,-0.010394230484962463,0.0018648605328053236,-0.0005361892399378121,-0.6740894913673401,0.20916558802127838,-9.813272476196289,0,0,45.0,1,1,1758,1831
73.73291000,73732910,0,-0.0017791605787351727,-7.82954812166281e-05,-0.0006535463035106659,-0.6784301400184631,0.21183910965919495,-9.809889793395996,0,0,45.0,1,1,1758,1831
73.73539700,73735397,0,0.006442848592996597,-0.0016207003500312567,-0.001035186112858355,-0.6788229942321777,0.2109701782464981,-9.812429428100586,0,0,45.0,1,1,1758,1831
73.73820300,73738203,0,0.012882898561656475,-0.0024490186478942633,-0.0014868587022647262,-0.6762540340423584,0.20726144313812256,-9.823959350585938,0,0,45.0,1,1,1758,1831
73.74040100,73740401,0,0.016937676817178726,-0.0015374887734651566,-0.001682819682173431,-0.6765758395195007,0.2024838775396347,-9.842040061950684,0,0,45.0,1,1,1758,1831
73.74290800,73742908,0,0.018514474853873253,-0.0008449500892311335,-0.0021768028382211924,-0.6801972389221191,0.1943788379430771,-9.860878944396973,0,0,45.0,1,1,1758,1831
73.74541000,73745410,0,0.019980907440185547,0.00011659369920380414,-0.002551312791183591,-0.6841611862182617,0.18273335695266724,-9.880111694335938,0,0,45.0,1,1,1758,1831
73.74811300,73748113,0,0.019202619791030884,0.0005356227629818022,-0.0024682795628905296,-0.687136709690094,0.169939324259758,-9.899593353271484,0,0,45.0,1,1,1758,1831
73.75046300,73750463,0,0.016024474054574966,0.0019133733585476875,-0.0022628940641880035,-0.6880300045013428,0.15919914841651917,-9.912384986877441,0,0,45.0,1,1,1758,1831
73.75290500,73752905,0,0.011147630400955677,0.0023920093663036823,-0.0016982860397547483,-0.6887650489807129,0.15303479135036469,-9.917752265930176,0,0,45.0,1,1,1758,1831
73.75541700,73755417,0,0.004911486525088549,0.0035906995180994272,-0.001507928129285574,-0.6880519986152649,0.15310335159301758,-9.916370391845703,0,0,45.0,1,1,1758,1831
73.75814300,73758143,0,-0.0014748767716810107,0.005154007114470005,-0.0016964348033070564,-0.6876387000083923,0.15272441506385803,-9.912036895751953,0,0,45.0,1,1,1758,1831
73.76041600,73760416,0,-0.0066911932080984116,0.005616502370685339,-0.0013066704850643873,-0.6892615556716919,0.1534866988658905,-9.909566879272461,0,0,45.0,1,1,1758,1831
73.76289000,73762890,0,-0.010038751177489758,0.004074612632393837,-0.0004427630628924817,-0.6899459958076477,0.1587870866060257,-9.904092788696289,0,0,45.0,1,1,1758,1831
73.76542400,73765424,0,-0.012277860194444656,0.002017411170527339,6.454753747675568e-05,-0.6887436509132385,0.16586965322494507,-9.893866539001465,0,0,45.0,1,1,1758,1831
73.76812400,73768124,0,-0.012355989776551723,0.0008589731296524405,-5.240096288616769e-05,-0.6868552565574646,0.1714436262845993,-9.88170337677002,0,0,45.0,1,1,1758,1831
73.77043700,73770437,0,-0.012185154482722282,-0.00034818152198567986,-0.0006582789937965572,-0.6856861710548401,0.17651665210723877,-9.868326187133789,0,0,45.0,1,1,1758,1831
73.77291300,73772913,0,-0.011360736563801765,-0.001175468205474317,-0.0005435558268800378,-0.6851167678833008,0.18385016918182373,-9.854533195495605,0,0,45.0,1,1,1758,1831
73.77542100,73775421,0,-0.010173296555876732,-0.0007110878359526396,6.843727169325575e-05,-0.6863980293273926,0.18981587886810303,-9.851383209228516,0,0,45.0,1,1,1758,1831
73.77812400,73778124,0,-0.008944516070187092,0.0010994031326845288,0.0005248620291240513,-0.687705934047699,0.19609473645687103,-9.853507041931152,0,0,45.0,1,1,1758,1831
73.78040500,73780405,0,-0.007947984151542187,0.0038089086301624775,0.000358234450686723,-0.6855372190475464,0.19523507356643677,-9.856549263000488,0,0,45.0,1,1,1758,1831
73.78289200,73782892,0,-0.005598108284175396,0.004058185499161482,-0.000472681742394343,-0.6850265264511108,0.1920778602361679,-9.863805770874023,0,0,45.0,1,1,1758,1831
73.78540100,73785401,0,-0.0026803493965417147,0.0035365689545869827,-0.0011767535470426083,-0.6822434067726135,0.18563760817050934,-9.871458053588867,0,0,45.0,1,1,1758,1831
73.78811700,73788117,0,0.0004972110036760569,0.0029117732774466276,-0.0007892923313193023,-0.6813470721244812,0.1793200969696045,-9.87750244140625,0,0,45.0,1,1,1758,1831
73.79042100,73790421,0,0.0017917975783348083,0.0028719031251966953,0.00045159022556617856,-0.6820644736289978,0.17557215690612793,-9.881427764892578,0,0,45.0,1,1,1758,1831
73.79290200,73792902,0,0.0017412779852747917,0.0022708175238221884,0.0008754293667152524,-0.6845411062240601,0.17397785186767578,-9.881912231445312,0,0,45.0,1,1,1758,1831
73.79542700,73795427,0,0.0015334590571001172,0.0015626458916813135,0.0014225103659555316,-0.6850160956382751,0.1707851141691208,-9.878374099731445,0,0,45.0,1,1,1758,1831
73.79813700,73798137,0,0.0014721169136464596,0.0014735176227986813,0.0012491245288401842,-0.6866084933280945,0.16793280839920044,-9.871538162231445,0,0,45.0,1,1,1758,1831
73.80042600,73800426,0,0.0006824597949162126,0.0027437906246632338,0.000654720701277256,-0.6886666417121887,0.16717566549777985,-9.864604949951172,0,0,45.0,1,1,1758,1831
73.80289900,73802899,0,0.0001504569809185341,0.00442259619012475,0.0010306785115972161,-0.6908290386199951,0.1682358831167221,-9.858959197998047,0,0,45.0,1,1,1758,1831
73.80541300,73805413,0,9.291244350606576e-05,0.004633618518710136,0.0009755846695043147,-0.6926748156547546,0.1687295287847519,-9.852700233459473,0,0,45.0,1,1,1758,1831
73.80811500,73808115,0,0.000521102687343955,0.006030242890119553,0.0009468249045312405,-0.6928080320358276,0.168697327375412,-9.850464820861816,0,0,45.0,1,1,1758,1831
73.81059400,73810594,0,0.0020924871787428856,0.0070233759470283985,0.0011167324846610427,-0.691469132900238,0.1727699339389801,-9.852730751037598,0,0,45.0,1,1,1758,1831
73.81290600,73812906,0,0.003807859728112817,0.006379054859280586,0.0020470258314162493,-0.6884438991546631,0.17334800958633423,-9.853156089782715,0,0,45.0,1,1,1758,1831
73.81539600,73815396,0,0.004620595369488001,0.004344562068581581,0.0020659936126321554,-0.6867188215255737,0.16882389783859253,-9.853561401367188,0,0,45.0,1,1,1758,1831
73.81813900,73818139,0,0.004153530113399029,0.0037893892731517553,0.0019030130933970213,-0.6850866675376892,0.1643035113811493,-9.85254955291748,0,0,45.0,1,1,1758,1831
73.82040200,73820402,0,0.00273869838565588,0.003784215310588479,0.0011838425416499376,-0.68527752161026,0.16104142367839813,-9.856417655944824,0,0,45.0,1,1,1758,1831
73.82290800,73822908,0,0.0006329581956379116,0.003981089685112238,0.0004843978094868362,-0.6897678971290588,0.16153202950954437,-9.86186695098877,0,0,45.0,1,1,1758,1831
73.82539300,73825393,0,-0.0009144680225290358,0.004083550535142422,0.0007384139462374151,-0.692664623260498,0.1645873785018921,-9.871542930603027,0,0,45.0,1,1,1758,1831
73.82831300,73828313,0,-0.001983964815735817,0.0036905831657350063,0.0007095661130733788,-0.6914082169532776,0.16638463735580444,-9.881092071533203,0,0,45.0,1,1,1758,1831
73.83041800,73830418,0,-0.002742649056017399,0.002129222499206662,0.0012376768281683326,-0.6887608766555786,0.16896142065525055,-9.896621704101562,0,0,45.0,1,1,1758,1831
73.83290900,73832909,0,-0.003501474391669035,0.0008808965212665498,0.0012037073029205203,-0.686836838722229,0.16646341979503632,-9.903312683105469,0,0,45.0,1,1,1758,1831
73.83540000,73835400,0,-0.0031061251647770405,-0.0006114579737186432,0.0007857330492697656,-0.6884387731552124,0.1661473959684372,-9.906472206115723,0,0,45.0,1,1,1758,1831
73.83823500,73838235,0,-0.003200473031029105,-0.0009887146297842264,0.0006909309886395931,-0.6902135610580444,0.1660284847021103,-9.903935432434082,0,0,45.0,1,1,1758,1831
73.84041400,73840414,0,-0.0038337951991707087,-0.0012780395336449146,0.0010290611535310745,-0.6900488138198853,0.1668190211057663,-9.896483421325684,0,0,45.0,1,1,1758,1831
73.84290900,73842909,0,-0.003599187359213829,-0.0003517796576488763,0.00034498609602451324,-0.6891539692878723,0.16875721514225006,-9.885766983032227,0,0,45.0,1,1,1758,1831
73.84539500,73845395,0,-0.0028989259153604507,0.0006004490423947573,2.0852796296821907e-05,-0.68994140625,0.16997013986110687,-9.874978065490723,0,0,45.0,1,1,1758,1831
73.84813400,73848134,0,-0.002176879206672311,0.0016263016732409596,-0.00039132361416704953,-0.6894184350967407,0.1701888144016266,-9.865106582641602,0,0,45.0,1,1,1758,1831
