timestamp,TimeUS,I,GyrX,GyrY,GyrZ,AccX,AccY,AccZ,EG,EA,T,GH,AH,GHz,AHz
34.09560400,34095604,0,0.000655974552500993,-0.001760931801982224,0.0013270205818116665,-0.6891102194786072,-0.08066330850124359,-9.880024909973145,0,0,40.0,1,1,272,283
34.11117700,34111177,0,0.001285535516217351,-0.0008875907515175641,0.0009866425534710288,-0.689118504524231,-0.08067259192466736,-9.880033493041992,0,0,40.0,1,1,272,283
34.12664200,34126642,0,0.00412183441221714,-0.002388907130807638,0.0009266449487768114,-0.6891267895698547,-0.08066564798355103,-9.880041122436523,0,0,40.0,1,1,272,283
34.14261100,34142611,0,0.0038709579966962337,-0.0044195521622896194,0.0008451170288026333,-0.689134955406189,-0.08064389228820801,-9.880047798156738,0,0,40.0,1,1,272,283
34.15804500,34158045,0,0.000599666207563132,-0.003843008540570736,0.000495532585773617,-0.6891430616378784,-0.08060866594314575,-9.880053520202637,0,0,40.0,1,1,272,283
34.17354200,34173542,0,0.00011778351472457871,-0.00031225045677274466,0.0003644612443167716,-0.6891511082649231,-0.08056124299764633,-9.880058288574219,0,0,40.0,1,1,272,283
34.18911800,34189118,0,-0.00010217740054940805,0.0006253772880882025,0.00023523122945334762,-0.6891589164733887,-0.08050284534692764,-9.880062103271484,0,0,40.0,1,1,272,283
34.20507100,34205071,0,-0.001459399820305407,0.0029715283308178186,0.00025404489133507013,-0.6891667246818542,-0.08043462038040161,-9.880064964294434,0,0,40.0,1,1,272,283
34.22059800,34220598,0,-0.0007599435630254447,0.0019785193726420403,0.0003039447474293411,-0.6891744136810303,-0.08035767078399658,-9.880067825317383,0,0,40.0,1,1,272,283
34.23606700,34236067,0,0.000414920796174556,0.0025148456916213036,0.0006883764872327447,-0.6891818642616272,-0.08027302473783493,-9.880070686340332,0,0,40.0,1,1,272,283
34.25155600,34251556,0,0.00031996596953831613,0.0008696347358636558,0.0003881664015352726,-0.6891892552375793,-0.08018163591623306,-9.880073547363281,0,0,40.0,1,1,272,283
34.26758500,34267585,0,0.0005716418963856995,0.0006215446628630161,0.0006981181795708835,-0.6891962885856628,-0.08008445054292679,-9.880075454711914,0,0,40.0,1,1,272,283
34.28310500,34283105,0,-0.0007235461962409317,0.0025407099165022373,0.0010751043446362019,-0.6892032027244568,-0.07998231798410416,-9.88007640838623,0,0,40.0,1,1,272,283
34.29863400,34298634,0,0.00010289467172697186,0.00196236209012568,0.0012487164931371808,-0.6892099380493164,-0.07987605035305023,-9.88007640838623,0,0,40.0,1,1,272,283
34.31455500,34314555,0,-0.001975041115656495,0.0015654716407880187,0.00032340286998078227,-0.6892163753509521,-0.07976639270782471,-9.880075454711914,0,0,40.0,1,1,272,283
34.33006900,34330069,0,-0.0010334159014746547,-0.0005365185788832605,0.00020149241026956588,-0.6892225742340088,-0.07965405285358429,-9.880073547363281,0,0,40.0,1,1,272,283
34.34563600,34345636,0,-0.0010963319800794125,9.220690844813362e-05,7.941410149214789e-05,-0.6892285943031311,-0.07953967899084091,-9.880071640014648,0,0,40.0,1,1,272,283
34.36122500,34361225,0,0.0005621669697575271,-0.0021235800813883543,1.197102028527297e-05,-0.6892343759536743,-0.07942388206720352,-9.8800687789917,0,0,40.0,1,1,272,283
34.37732400,34377324,0,0.000893675081897527,-0.0005679489695467055,0.0010117068886756897,-0.6892399191856384,-0.07930721342563629,-9.880067825317383,0,0,40.0,1,1,272,283
34.39286700,34392867,0,-0.0010560881346464157,0.000884793815203011,0.0008641504100523889,-0.6892452239990234,-0.07926253974437714,-9.880066871643066,0,0,40.0,1,1,272,283
34.40815000,34408150,0,-0.003686164738610387,0.004766714293509722,0.0004950592410750687,-0.6892502307891846,-0.07935627549886703,-9.88006591796875,0,0,40.0,1,1,272,283
34.43987600,34439876,0,4.638880729675293,4.6449408531188965,4.642001628875732,-0.6891826391220093,-0.07950393110513687,-9.878979682922363,0,0,40.0,1,1,272,283
34.47071600,34470716,0,6.0522966384887695,6.051118850708008,6.052552223205566,-0.688976526260376,-0.07962802797555923,-9.875964164733887,0,0,40.0,1,1,271,283
34.50212100,34502121,0,0.8274250626564026,0.8258396983146667,0.8263280391693115,-0.6887167692184448,-0.0797300785779953,-9.872424125671387,0,0,40.0,1,1,271,283
34.53311400,34533114,0,-0.3143787384033203,-0.316130667924881,-0.31457874178886414,-0.6884813904762268,-0.07981158792972565,-9.869359016418457,0,0,40.0,1,1,271,283
34.56460400,34564604,0,-0.24312788248062134,-0.24582694470882416,-0.24313884973526,-0.6882690787315369,-0.07987399399280548,-9.866594314575195,0,0,40.0,1,1,271,283
34.59568200,34595682,0,-0.05248579382896423,-0.05338140204548836,-0.05228443443775177,-0.688078761100769,-0.07991868257522583,-9.864116668701172,0,0,40.0,1,1,271,283
34.62715200,34627152,0,0.012965862639248371,0.014075551182031631,0.014662629924714565,-0.6879091262817383,-0.07994698733091354,-9.861909866333008,0,0,40.0,1,1,271,283
34.65810400,34658104,0,0.012337476946413517,0.013314832001924515,0.013864440843462944,-0.6877593398094177,-0.07996018975973129,-9.859959602355957,0,0,40.0,1,1,271,283
34.68953300,34689533,0,0.002802225761115551,0.003392001148313284,0.0034140083007514477,-0.6876280307769775,-0.07995952665805817,-9.85824966430664,0,0,40.0,1,1,271,283
34.72057700,34720577,0,-0.001572866691276431,0.0005811711307615042,5.3027080866741017e-05,-0.6875142455101013,-0.07994619011878967,-9.856766700744629,0,0,40.0,1,1,271,283
34.75219700,34752197,0,-0.0004427068051882088,-0.0012866469332948327,0.0008970149792730808,-0.6874168515205383,-0.07992129027843475,-9.855498313903809,0,0,40.0,1,1,271,283
34.78309700,34783097,0,-0.00046100164763629436,0.00043524333159439266,0.0014080628752708435,-0.6873348355293274,-0.07988591492176056,-9.854430198669434,0,0,40.0,1,1,271,283
34.81462000,34814620,0,-0.0001224235602421686,0.001085160649381578,0.0011846647830680013,-0.6872671842575073,-0.07984109222888947,-9.853549003601074,0,0,39.5,1,1,271,283
34.84558500,34845585,0,-0.0007832498522475362,0.0008235255372710526,0.0008269552490673959,-0.6872129440307617,-0.07978779077529907,-9.852843284606934,0,0,39.5,1,1,271,283
34.87744700,34877447,0,-3.904930781573057e-05,0.0013702248688787222,0.00038720539305359125,-0.6871713399887085,-0.0797269344329834,-9.852299690246582,0,0,39.5,1,1,271,283
34.90882300,34908823,0,-0.0003576915478333831,0.000517721869982779,0.0005057096714153886,-0.6871412992477417,-0.07965939491987228,-9.851906776428223,0,0,39.5,1,1,271,283
34.93963900,34939639,0,0.00035196691169403493,-0.0011620339937508106,0.00015728885773569345,-0.6871220469474792,-0.07958599925041199,-9.851655006408691,0,0,39.5,1,1,271,283
34.97112100,34971121,0,0.0002679363824427128,-0.0004952179733663797,0.0006676801131106913,-0.6871126294136047,-0.07950752228498459,-9.851531028747559,0,0,39.5,1,1,271,283
35.00216400,35002164,0,-0.0006996385054662824,-0.0003800553095061332,0.0005541610298678279,-0.6871123909950256,-0.07942467927932739,-9.851526260375977,0,0,39.5,1,1,271,283
35.03365800,35033658,0,-0.0005656867288053036,-0.0011953957146033645,0.000778326066210866,-0.687120258808136,-0.07933817058801651,-9.851630210876465,0,0,39.5,1,1,271,283
35.06464400,35064644,0,3.272417598054744e-05,-0.002691755536943674,0.0012475450057536364,-0.6871358156204224,-0.07924862951040268,-9.851832389831543,0,0,39.5,1,1,271,283
35.09612800,35096128,0,0.0005101895076222718,-0.001421633642166853,0.0009695644839666784,-0.6871582269668579,-0.07915664464235306,-9.852124214172363,0,0,39.5,1,1,271,283
35.12723800,35127238,0,-0.001459824969060719,0.0002995716640725732,0.0007281985017471015,-0.6871867775917053,-0.07906278222799301,-9.852498054504395,0,0,39.5,1,1,271,283
35.15853000,35158530,0,-0.0022730613127350807,0.0007995526539161801,0.0002907835878431797,-0.6872209310531616,-0.07896754890680313,-9.85294246673584,0,0,39.5,1,1,271,283
35.18956200,35189562,0,-0.001512291724793613,0.0005125210154801607,0.000937366858124733,-0.6872599720954895,-0.07887142896652222,-9.8534517288208,0,0,39.5,1,1,271,283
35.22116300,35221163,0,-0.000753012194763869,0.002049171132966876,0.0011219829320907593,-0.6873034238815308,-0.07877485454082489,-9.85401725769043,0,0,39.5,1,1,271,283
35.25203900,35252039,0,-0.0013293237425386906,0.0030953409150242805,0.00062652857741341,-0.6873506903648376,-0.07867822796106339,-9.854632377624512,0,0,39.5,1,1,271,283
35.28364200,35283642,0,-0.0007910292479209602,0.0020049186423420906,0.0005717318272218108,-0.687401294708252,-0.07858192175626755,-9.855291366577148,0,0,39.5,1,1,271,283
35.31464700,35314647,0,8.8807413703762e-05,0.0016709287883713841,0.0012777326628565788,-0.6874548196792603,-0.07848628610372543,-9.855987548828125,0,0,39.5,1,1,271,283
35.34614600,35346146,0,0.0017486120341345668,-0.000497652858030051,0.001021582167595625,-0.6875106692314148,-0.07839161157608032,-9.856714248657227,0,0,39.5,1,1,271,283
35.37739600,35377396,0,-0.0005652304389514029,-0.000507051357999444,0.0005249780951999128,-0.6875686049461365,-0.0782981663942337,-9.857467651367188,0,0,39.5,1,1,271,283
35.40872400,35408724,0,-0.001627009711228311,-0.000569559691939503,0.00047412668936885893,-0.6876280903816223,-0.07820621877908707,-9.85824203491211,0,0,39.5,1,1,271,283
35.43970600,35439706,0,-0.000198766851099208,-0.0001339264417765662,0.0010803089244291186,-0.6876888871192932,-0.07811596989631653,-9.85903263092041,0,0,39.5,1,1,271,283
35.47108700,35471087,0,-0.00203978200443089,0.003151915268972516,0.0013540174113586545,-0.6877505779266357,-0.0780276209115982,-9.859834671020508,0,0,39.5,1,1,271,283
35.50206500,35502065,0,-0.00047870376147329807,0.0017632808303460479,0.0012381154811009765,-0.6878129839897156,-0.07794134318828583,-9.860645294189453,0,0,39.5,1,1,271,283
35.53362200,35533622,0,0.0021504834294319153,-0.0013534855097532272,0.0010683947475627065,-0.6878755688667297,-0.07785729318857193,-9.861459732055664,0,0,39.5,1,1,271,282
35.56476100,35564761,0,0.0025625035632401705,-0.002422990743070841,0.0006458962452597916,-0.6879382133483887,-0.07777559757232666,-9.862274169921875,0,0,39.5,1,1,271,282
35.59613300,35596133,0,0.0015792029444128275,-0.0018597461748868227,0.0008130497299134731,-0.6880007386207581,-0.07769634574651718,-9.863086700439453,0,0,39.5,1,1,271,282
35.62769400,35627694,0,5.801309089292772e-05,-0.0016448501264676452,0.0011299963807687163,-0.6880629062652588,-0.07761964946985245,-9.863892555236816,0,0,39.5,1,1,271,282
35.65861700,35658617,0,0.0007271460490301251,-0.0037270858883857727,0.0006728058215230703,-0.6881245374679565,-0.07761793583631516,-9.864691734313965,0,0,39.5,1,1,271,282
35.69007600,35690076,0,-0.0001412986166542396,-0.0015061033191159368,0.0003929070080630481,-0.6881852746009827,-0.07775717973709106,-9.865480422973633,0,0,39.5,1,1,271,282
35.72107300,35721073,0,-0.00030113759567029774,-0.0005470211617648602,0.0006284404080361128,-0.6882450580596924,-0.07795252650976181,-9.866257667541504,0,0,39.5,1,1,271,282
35.75275900,35752759,0,0.0007962665986269712,-0.0025258248206228018,0.001016399823129177,-0.6883037686347961,-0.07812611013650894,-9.867020606994629,0,0,39.5,1,1,271,282
35.78365700,35783657,0,0.0009635546593926847,0.00034058454912155867,0.0013847170630469918,-0.6883612871170044,-0.07827913016080856,-9.867766380310059,0,0,39.5,1,1,271,282
35.81518400,35815184,0,-0.00168595218565315,0.0026147551834583282,0.0009047255734913051,-0.688417375087738,-0.0784127488732338,-9.868494987487793,0,0,39.5,1,1,271,282
35.84613200,35846132,0,-0.00076746114064008,0.0032882338855415583,0.0010774249676615,-0.6884720921516418,-0.07852811366319656,-9.869205474853516,0,0,39.5,1,1,271,282
35.87784600,35877846,0,-4.272969817975536e-05,0.001503128558397293,0.0010994327021762729,-0.6885253190994263,-0.07862634211778641,-9.869895935058594,0,0,39.5,1,1,271,282
35.90881000,35908810,0,0.00020550547924358398,0.0006135505973361433,0.0005856324569322169,-0.688576877117157,-0.07870852947235107,-9.870565414428711,0,0,39.5,1,1,271,282
35.94007100,35940071,0,0.0011257227743044496,-0.0014731879346072674,0.0005339434137567878,-0.6886268854141235,-0.07877570390701294,-9.871213912963867,0,0,39.5,1,1,271,282
35.97114000,35971140,0,0.00033417317899875343,-0.001088590594008565,0.0008395805489271879,-0.6886751055717468,-0.07882890850305557,-9.871840476989746,0,0,39.5,1,1,271,282
36.00269100,36002691,0,0.0013847720110788941,-5.401137241278775e-05,0.0011944330763071775,-0.6887216567993164,-0.07886912673711777,-9.872445106506348,0,0,39.5,1,1,271,282
36.03364400,36033644,0,0.002737329574301839,0.00037423588219098747,0.0008774108137004077,-0.6887664198875427,-0.07889729738235474,-9.873025894165039,0,0,39.5,1,1,271,282
36.06511200,36065112,0,0.0007447287207469344,0.000881754735019058,0.0007360121235251427,-0.6888094544410706,-0.07891436666250229,-9.873583793640137,0,0,39.5,1,1,271,282
36.09610800,36096108,0,-0.0007929534767754376,7.691721293667797e-06,0.0005565269384533167,-0.6888507008552551,-0.07892119139432907,-9.87411880493164,0,0,39.5,1,1,271,282
36.12773700,36127737,0,-0.0022118743509054184,0.0018675082828849554,0.0009881535079330206,-0.6888901591300964,-0.07891862094402313,-9.874629974365234,0,0,39.5,1,1,271,282
36.15905100,36159051,0,-0.0008184839389286935,0.0020585190504789352,0.0007060219068080187,-0.6889278292655945,-0.07897982746362686,-9.875118255615234,0,0,39.5,1,1,271,282
36.19009900,36190099,0,0.0008734524017199874,-0.0014704404165968299,0.00045345944818109274,-0.6889637112617493,-0.07917150110006332,-9.875584602355957,0,0,39.5,1,1,271,282
36.22155000,36221550,0,0.0016055286396294832,-0.0026981718838214874,0.0011796202743425965,-0.688997745513916,-0.07940947264432907,-9.87602710723877,0,0,39.5,1,1,271,282
36.25257300,36252573,0,0.00199977308511734,-0.0018323962576687336,0.0008660540333949029,-0.6890301704406738,-0.07961654663085938,-9.876447677612305,0,0,39.5,1,1,271,282
36.28408500,36284085,0,0.0027033912483602762,-0.0017925534630194306,0.0012651307042688131,-0.6890609264373779,-0.07979457825422287,-9.876846313476562,0,0,39.5,1,1,271,282
36.31519800,36315198,0,0.0033300903160125017,-0.003913283813744783,0.0009724271949380636,-0.6890900135040283,-0.07994535565376282,-9.877222061157227,0,0,39.5,1,1,271,282
36.34659200,36346592,0,0.0010455794399604201,0.00021815754007548094,0.0007785694906488061,-0.689117431640625,-0.0800706297159195,-9.877574920654297,0,0,39.5,1,1,271,282
36.37793900,36377939,0,0.0010141622042283416,0.0021707022096961737,0.0004704743332695216,-0.6891432404518127,-0.0801720842719078,-9.877906799316406,0,0,39.5,1,1,271,282
36.40924800,36409248,0,0.0027715086471289396,-0.00034676006180234253,2.912514901254326e-06,-0.6891674399375916,-0.08025138825178146,-9.878217697143555,0,0,39.5,1,1,271,282
36.44018300,36440183,0,0.0010338746942579746,-0.00235372269526124,-6.097245932323858e-05,-0.6891900300979614,-0.08031009882688522,-9.878508567810059,0,0,39.5,1,1,271,282
36.47160100,36471601,0,-0.0003309015301056206,-0.0021141248289495707,0.00017263756308238953,-0.6892111897468567,-0.08034975826740265,-9.878780364990234,0,0,39.5,1,1,271,282
36.50266100,36502661,0,-0.00133048789575696,-0.0017887128051370382,0.0011492623016238213,-0.6892307996749878,-0.08037184178829193,-9.879032135009766,0,0,39.5,1,1,271,282
36.53412800,36534128,0,0.00013353054237086326,-0.00012385963054839522,0.000937896256800741,-0.6892489790916443,-0.08037775754928589,-9.879265785217285,0,0,39.5,1,1,271,282
36.56505700,36565057,0,-0.00015459678252227604,0.0015836866805329919,0.0006690636510029435,-0.689265787601471,-0.08036885410547256,-9.87948226928711,0,0,39.5,1,1,271,282
36.59662900,36596629,0,0.0021649212576448917,-0.001275051268748939,0.0006347047747112811,-0.6892812848091125,-0.08034641295671463,-9.879682540893555,0,0,39.5,1,1,271,282
36.62768900,36627689,0,0.0001934786996571347,-0.0015706465346738696,0.0009218155755661428,-0.6892954111099243,-0.08031168580055237,-9.879866600036621,0,0,39.5,1,1,271,282
36.65905800,36659058,0,-0.0007104150136001408,0.00030395700014196336,0.000675060844514519,-0.6893084049224854,-0.0802658423781395,-9.880035400390625,0,0,39.5,1,1,271,282
36.69054200,36690542,0,-0.00041385702206753194,0.0014091921038925648,0.0005530287162400782,-0.6893202662467957,-0.08021000027656555,-9.8801908493042,0,0,39.5,1,1,271,282
36.72160500,36721605,0,-8.635032281745225e-05,-0.0005739721818827093,0.0006047089118510485,-0.6893310546875,-0.0801452249288559,-9.880331039428711,0,0,39.5,1,1,271,282
36.75315100,36753151,0,0.0008835333865135908,-0.001567132188938558,0.0010338815627619624,-0.6893407106399536,-0.08007252216339111,-9.880459785461426,0,0,39.5,1,1,271,282
36.78410700,36784107,0,0.0019577955827116966,-0.002562290523201227,0.0011484993156045675,-0.6893495321273804,-0.07999283820390701,-9.880576133728027,0,0,39.5,1,1,271,282
36.81573800,36815738,0,0.0007329699001275003,-0.001515351701527834,0.0013585899723693728,-0.689357340335846,-0.07990705966949463,-9.880681037902832,0,0,39.5,1,1,271,282
36.84665700,36846657,0,-0.0002462121192365885,0.0016664380673319101,0.00139958830550313,-0.6893643140792847,-0.07981602847576141,-9.880772590637207,0,0,39.5,1,1,271,282
36.87840500,36878405,0,-8.738651376916096e-05,0.00025939883198589087,0.0020930503960698843,-0.6893704533576965,-0.07972054928541183,-9.880855560302734,0,0,39.5,1,1,271,282
36.90931200,36909312,0,-0.00033419602550566196,0.0016386236529797316,0.001561040640808642,-0.6893758177757263,-0.07962135225534439,-9.880927085876465,0,0,39.5,1,1,271,282
36.94060600,36940606,0,0.0003502373874653131,0.0012075291015207767,0.0011788225965574384,-0.6893805265426636,-0.0795191302895546,-9.880989074707031,0,0,39.5,1,1,271,282
36.97156000,36971560,0,0.0008610025397501886,0.0015612317947670817,0.0007738303975202143,-0.6893844604492188,-0.07941453158855438,-9.88104248046875,0,0,39.5,1,1,271,282
37.00330200,37003302,0,-0.0008485852740705013,0.00012168585817562416,0.0005990201025269926,-0.689387857913971,-0.0793081521987915,-9.881086349487305,0,0,39.5,1,1,271,282
37.03415400,37034154,0,1.282096718568937e-06,0.0009405267192050815,3.199500861228444e-05,-0.6893905997276306,-0.07920054346323013,-9.881123542785645,0,0,39.5,1,1,271,282
37.06557900,37065579,0,2.7728043278330006e-05,0.001243149978108704,0.00037778407568112016,-0.6893927454948425,-0.07909221947193146,-9.881153106689453,0,0,39.5,1,1,271,282
37.09664000,37096640,0,0.0007342561730183661,0.0003158703912049532,0.000612444244325161,-0.6893944144248962,-0.07898364216089249,-9.88117504119873,0,0,39.5,1,1,271,282
37.12816100,37128161,0,0.0019600684754550457,-0.001812513917684555,0.0007453918806277215,-0.689395546913147,-0.07887525111436844,-9.881190299987793,0,0,39.5,1,1,271,282
37.15916600,37159166,0,0.0016335624968633056,-0.001787864021025598,0.0006742562400177121,-0.6893962025642395,-0.07876743376255035,-9.881199836730957,0,0,39.5,1,1,271,282
37.19053200,37190532,0,0.0012670658761635423,-0.0010032851714640856,0.0007634563371539116,-0.6893965005874634,-0.07866054773330688,-9.881203651428223,0,0,39.5,1,1,271,282
37.22217600,37222176,0,0.0013129761209711432,-0.0023040047381073236,0.001245339633896947,-0.6893963813781738,-0.0785549208521843,-9.881202697753906,0,0,39.5,1,1,271,282
37.25314200,37253142,0,0.0005699206376448274,-0.0025711071211844683,0.0012290452141314745,-0.6893958449363708,-0.07845082879066467,-9.881196975708008,0,0,39.5,1,1,271,282
37.28460500,37284605,0,-0.001190383918583393,-0.0015919115394353867,0.0010397711303085089,-0.6893950700759888,-0.0783485621213913,-9.881187438964844,0,0,39.5,1,1,271,282
37.31565500,37315655,0,-0.002017045859247446,-0.0011591216316446662,0.0013790804659947753,-0.6893939971923828,-0.07824834436178207,-9.881173133850098,0,0,39.5,1,1,271,282
37.34705700,37347057,0,-0.0020272128749638796,-0.0002941879502031952,0.0007959854556247592,-0.6893926858901978,-0.07815037667751312,-9.881155014038086,0,0,39.5,1,1,271,282
37.37848900,37378489,0,-4.7133700718404725e-05,-0.000283214874798432,0.0005370098515413702,-0.6893911957740784,-0.07805483043193817,-9.881133079528809,0,0,39.5,1,1,271,282
37.40991800,37409918,0,0.0007393677369691432,4.693025857704924e-06,0.0006013944512233138,-0.6893894672393799,-0.07796188443899155,-9.881108283996582,0,0,39.5,1,1,271,282
37.44064900,37440649,0,0.0024918692652136087,-0.0021764650009572506,0.000384227343602106,-0.6893876194953918,-0.0778716504573822,-9.881081581115723,0,0,39.5,1,1,271,282
37.47210300,37472103,0,0.001384468050673604,-0.002000143053010106,0.001032876898534596,-0.6893855929374695,-0.07778424769639969,-9.88105297088623,0,0,39.5,1,1,271,282
37.50306500,37503065,0,-0.0013161675306037068,0.001896849018521607,0.0017190257785841823,-0.6893834471702576,-0.07769975066184998,-9.881022453308105,0,0,39.5,1,1,271,282
37.53455500,37534555,0,-0.002151397056877613,0.0016401986358687282,0.0018289308063685894,-0.6893811225891113,-0.07761824131011963,-9.880990982055664,0,0,39.5,1,1,271,282
37.56561800,37565618,0,-0.0013123287353664637,0.0017913288902491331,0.0009583602659404278,-0.6893787384033203,-0.07753976434469223,-9.880958557128906,0,0,39.5,1,1,271,282
37.59711300,37597113,0,-0.00028266498702578247,0.0006536142318509519,0.0008414511103183031,-0.6893762350082397,-0.07746437937021255,-9.8809232711792,0,0,39.5,1,1,271,282
37.62867000,37628670,0,-0.0005716525483876467,0.0010285646421834826,0.0009219611529260874,-0.6893737316131592,-0.0773920938372612,-9.880887985229492,0,0,39.5,1,1,271,282
37.65960700,37659607,0,-0.0013151641469448805,0.0017805090174078941,0.0007016615127213299,-0.6893709897994995,-0.07732291519641876,-9.880851745605469,0,0,39.5,1,1,271,282
37.69111600,37691116,0,0.00022823456674814224,0.0005047409795224667,0.0007384737255051732,-0.6893683075904846,-0.07725685834884644,-9.880814552307129,0,0,39.5,1,1,271,282
37.72213400,37722134,0,0.0006249657017178833,0.0020885877311229706,0.0008623120374977589,-0.6893655061721802,-0.07719389349222183,-9.880777359008789,0,0,39.5,1,1,271,282
37.75357500,37753575,0,0.002131628105416894,0.002017086371779442,0.0009221201180480421,-0.6893628239631653,-0.07713399082422256,-9.880741119384766,0,0,39.5,1,1,271,282
37.78465800,37784658,0,0.003539480734616518,-0.001715503167361021,0.0012688246788457036,-0.6893600821495056,-0.07707711309194565,-9.880705833435059,0,0,39.5,1,1,271,282
37.81607500,37816075,0,0.002368329791352153,-0.002010790631175041,0.0012499024160206318,-0.6893573999404907,-0.07702323794364929,-9.880669593811035,0,0,39.5,1,1,271,282
37.84709300,37847093,0,0.0014765906380489469,-0.0013297729892656207,0.0009522499749436975,-0.689354658126831,-0.07697229832410812,-9.880634307861328,0,0,39.5,1,1,271,282
37.87883100,37878831,0,0.00016800728917587548,-0.0029827768448740244,0.0014705434441566467,-0.6893519759178162,-0.07692424952983856,-9.880599021911621,0,0,39.5,1,1,271,282
37.90985700,37909857,0,-0.00041778001468628645,-0.0009145794901996851,0.0012712659081444144,-0.6893492937088013,-0.07687900960445404,-9.88056468963623,0,0,39.5,1,1,271,282
37.94120700,37941207,0,0.00023376823810394853,0.0007240240229293704,0.0008134153322316706,-0.6893466114997864,-0.07690887898206711,-9.88053035736084,0,0,39.5,1,1,271,282
37.97209000,37972090,0,-0.0003442930174060166,-4.875826198258437e-05,0.0006585041410289705,-0.6893439888954163,-0.07707971334457397,-9.88049602508545,0,0,39.0,1,1,271,282
38.00362200,38003622,0,-0.0012924197362735868,0.0002718060277402401,-6.84758197166957e-05,-0.6893414855003357,-0.07730652391910553,-9.880463600158691,0,0,39.0,1,1,271,282
38.03510300,38035103,0,-0.0009800407569855452,0.0011303093051537871,0.00031126945395953953,-0.6893390417098999,-0.07751134783029556,-9.88043212890625,0,0,39.0,1,1,271,282
38.06623700,38066237,0,-0.0006898705614730716,0.001450308016501367,0.0013759286375716329,-0.6893365979194641,-0.07769526541233063,-9.880401611328125,0,0,39.0,1,1,271,282
38.09759100,38097591,0,-0.00023992349451873451,-0.00013728393241763115,0.0009117022855207324,-0.6893342137336731,-0.07785936444997787,-9.880373001098633,0,0,39.0,1,1,271,282
38.12865800,38128658,0,0.0005958881811238825,-0.002457804512232542,0.0006953307311050594,-0.6893319487571716,-0.07800470292568207,-9.88034439086914,0,0,39.0,1,1,271,282
38.16007500,38160075,0,-0.0001883917866507545,-0.002253736136481166,0.001457752543501556,-0.6893297433853149,-0.07813233882188797,-9.880317687988281,0,0,39.0,1,1,271,282
38.19112300,38191123,0,-0.0006431072833947837,-0.0006715882336720824,0.0013737805420532823,-0.6893275380134583,-0.07824327796697617,-9.880290985107422,0,0,39.0,1,1,271,282
38.22259400,38222594,0,0.000638498633634299,-0.0020051775500178337,0.0016612033359706402,-0.6893254518508911,-0.07833854109048843,-9.880267143249512,0,0,39.0,1,1,271,282
38.25372000,38253720,0,0.00036436860682442784,-0.000640838232357055,0.00144247489515692,-0.689323365688324,-0.07841909676790237,-9.880242347717285,0,0,39.0,1,1,271,282
38.28522000,38285220,0,-0.0005306471139192581,0.0017567059257999063,0.0007187551236711442,-0.6893213987350464,-0.0784858837723732,-9.880219459533691,0,0,39.0,1,1,271,282
38.31616900,38316169,0,-0.0005052720662206411,0.0017258219886571169,0.0012264858232811093,-0.6893194317817688,-0.07853983342647552,-9.880196571350098,0,0,39.0,1,1,271,282
38.34762600,38347626,0,0.0011057629017159343,0.00023392910952679813,0.0013713855296373367,-0.6893176436424255,-0.07858182489871979,-9.880175590515137,0,0,39.0,1,1,271,282
38.37933000,38379330,0,0.0012520209420472383,0.00041155965300276875,0.0012940600281581283,-0.6893159747123718,-0.07861271500587463,-9.880155563354492,0,0,39.0,1,1,271,282
38.41030900,38410309,0,-0.00010388949158368632,0.001199362799525261,0.0009894350077956915,-0.6893144249916077,-0.07863332331180573,-9.880136489868164,0,0,39.0,1,1,271,282
38.44166500,38441665,0,-0.0009668753482401371,9.583955397829413e-05,0.0011200972367078066,-0.6893128752708435,-0.07864445447921753,-9.880117416381836,0,0,39.0,1,1,271,282
38.47259600,38472596,0,-0.0009911184897646308,0.00040743951103650033,0.0004031146818306297,-0.6893114447593689,-0.07864686101675034,-9.880098342895508,0,0,39.0,1,1,270,282
38.50411500,38504115,0,-0.0005757175385951996,-1.5787278243806213e-05,9.06255590962246e-05,-0.6893100738525391,-0.07864128798246384,-9.880081176757812,0,0,39.0,1,1,270,282
38.53505500,38535055,0,-0.001004317426122725,-0.00024860314442776144,0.0003388405602890998,-0.689308762550354,-0.07862842828035355,-9.880064010620117,0,0,39.0,1,1,270,282
38.56663600,38566636,0,-0.003328826976940036,0.002728925319388509,0.0003893482789862901,-0.689307451248169,-0.07860895991325378,-9.880049705505371,0,0,39.0,1,1,270,282
38.59755800,38597558,0,-0.0013886886881664395,-0.000783008465077728,0.0008480158867314458,-0.6893062591552734,-0.0785835012793541,-9.880034446716309,0,0,39.0,1,1,270,282
38.62911700,38629117,0,0.0005638865404762328,-0.002588176866993308,0.0007276113028638065,-0.6893051266670227,-0.07855268567800522,-9.880021095275879,0,0,39.0,1,1,270,282
38.66008800,38660088,0,0.001816757139749825,-0.003610799554735422,0.0007439889013767242,-0.689303994178772,-0.07851705700159073,-9.880008697509766,0,0,39.0,1,1,270,282
38.69159500,38691595,0,-0.00012350516044534743,-0.0005813173484057188,0.0006076900172047317,-0.6893030405044556,-0.0784771740436554,-9.879997253417969,0,0,39.0,1,1,270,282
38.72311700,38723117,0,-0.0009781596018001437,0.000850520096719265,0.0015768671873956919,-0.6893020272254944,-0.0784335508942604,-9.879986763000488,0,0,39.0,1,1,270,282
38.75408000,38754080,0,-0.0007081834482960403,0.0019193199696019292,0.0004923049127683043,-0.6893012523651123,-0.07838666439056396,-9.87997817993164,0,0,39.0,1,1,270,282
38.78556400,38785564,0,-0.0007294864626601338,0.0003879251016769558,0.00035089461016468704,-0.689300537109375,-0.07833696156740189,-9.879971504211426,0,0,39.0,1,1,270,282
38.81664700,38816647,0,0.0007701440481469035,-0.0023378063924610615,0.0006103342166170478,-0.6892998814582825,-0.07828488200902939,-9.879963874816895,0,0,39.0,1,1,270,282
38.84815600,38848156,0,0.0016218835953623056,-0.0031976669561117887,0.0007615526556037366,-0.6892992854118347,-0.0782308280467987,-9.87995719909668,0,0,39.0,1,1,270,282
38.87939100,38879391,0,0.0021331876050680876,-0.002117013791576028,0.001281792065128684,-0.6892988681793213,-0.07817515730857849,-9.879951477050781,0,0,39.0,1,1,270,282
38.91077700,38910777,0,0.001189586240798235,6.512545223813504e-05,0.0014339055633172393,-0.6892983913421631,-0.078118234872818,-9.8799467086792,0,0,39.0,1,1,270,282
38.94158100,38941581,0,0.0007588411099277437,0.00034351402428001165,0.001633034902624786,-0.6892980337142944,-0.07806037366390228,-9.879942893981934,0,0,39.0,1,1,270,282
38.97313100,38973131,0,0.001074453117325902,-0.001981895649805665,0.0016707712784409523,-0.6892977356910706,-0.07800187915563583,-9.879940032958984,0,0,39.0,1,1,270,282
39.00412700,39004127,0,-0.0006732844631187618,-0.0012236671755090356,0.0007875634473748505,-0.6892974972724915,-0.07794301956892014,-9.879938125610352,0,0,39.0,1,1,270,282
39.03557700,39035577,0,-0.00046608084812760353,-0.001057863119058311,0.0007818233571015298,-0.6892972588539124,-0.07788405567407608,-9.879936218261719,0,0,39.0,1,1,270,282
39.06662400,39066624,0,0.0007418933673761785,0.00028581643709912896,0.0012799560790881515,-0.6892970204353333,-0.07782521098852158,-9.879934310913086,0,0,39.0,1,1,270,282
39.09814900,39098149,0,-0.0006708336877636611,0.0017402172088623047,0.001406020950525999,-0.6892967820167542,-0.07776670157909393,-9.879932403564453,0,0,39.0,1,1,270,282
39.12961800,39129618,0,-0.0011495605576783419,0.0022583394311368465,0.0010625094873830676,-0.6892966032028198,-0.07770870625972748,-9.87993049621582,0,0,39.0,1,1,270,282
39.16060100,39160601,0,-0.0004887324175797403,0.002250620862469077,0.0006628748960793018,-0.689296543598175,-0.07765142619609833,-9.879928588867188,0,0,39.0,1,1,270,282
39.19206800,39192068,0,-8.66436239448376e-05,0.001846828730776906,0.0006848863558843732,-0.6892964243888855,-0.07759498804807663,-9.879926681518555,0,0,39.0,1,1,270,282
39.22305700,39223057,0,-0.0016531924484297633,0.001232751877978444,0.0006342864944599569,-0.6892964839935303,-0.07753954082727432,-9.879924774169922,0,0,39.0,1,1,270,282
39.25460700,39254607,0,-0.0007447535754181445,-0.0011182017624378204,0.0006978890742175281,-0.689296543598175,-0.07748521864414215,-9.879921913146973,0,0,39.0,1,1,270,282
39.28564500,39285645,0,0.000566598551813513,-0.0021529037039726973,-0.00016787830099929124,-0.6892966032028198,-0.07743213325738907,-9.879920959472656,0,0,39.0,1,1,270,282
39.31720900,39317209,0,0.0026371299754828215,-0.0032508503645658493,0.00021190194820519537,-0.6892968416213989,-0.07738037407398224,-9.879921913146973,0,0,39.0,1,1,270,282
39.34814900,39348149,0,0.0028487544041126966,-0.0025411255192011595,0.0006739140953868628,-0.6892969608306885,-0.07733000814914703,-9.879922866821289,0,0,39.0,1,1,270,282
39.37980700,39379807,0,0.0017353235743939877,-0.0003038609866052866,0.0013739675050601363,-0.6892971396446228,-0.07728113234043121,-9.879923820495605,0,0,39.0,1,1,270,282
39.41140900,39411409,0,0.00014915206702426076,0.0017624655738472939,0.00127582682762295,-0.6892973184585571,-0.07723379880189896,-9.879926681518555,0,0,39.0,1,1,270,282
39.44217300,39442173,0,-0.0022880129981786013,0.0028866706416010857,0.0004535121552180499,-0.6892973780632019,-0.07718804478645325,-9.879928588867188,0,0,39.0,1,1,270,282
39.50458100,39504581,0,0.0008890610770322382,-0.002820619149133563,0.0006960586179047823,-0.6892975568771362,-0.07714392244815826,-9.879929542541504,0,0,39.0,1,1,270,282
39.56724100,39567241,0,0.0021263263188302517,-0.0003608869737945497,0.000840680324472487,-0.689297616481781,-0.0771014392375946,-9.879929542541504,0,0,39.0,1,1,270,281
39.62977900,39629779,0,0.0005879407399334013,-0.0027916952967643738,0.0015424760058522224,-0.6892977952957153,-0.07706064730882645,-9.879929542541504,0,0,39.0,1,1,270,281
39.69204600,39692046,0,-0.0018725873669609427,0.00015586565132252872,0.001160089042969048,-0.6892979145050049,-0.0770215317606926,-9.879929542541504,0,0,39.0,1,1,270,281
39.75512100,39755121,0,0.0018272085580974817,-0.0010210576001554728,0.0009111013496294618,-0.6892980933189392,-0.07698411494493484,-9.879929542541504,0,0,39.0,1,1,270,281
39.81760200,39817602,0,-0.0008797940681688488,0.0003537511802278459,0.0009793401695787907,-0.6892982721328735,-0.076948381960392,-9.879929542541504,0,0,39.0,1,1,270,281
39.88042300,39880423,0,-0.0005947814206592739,-0.002162744291126728,0.0004985068808309734,-0.6892984509468079,-0.07691434025764465,-9.879929542541504,0,0,39.0,1,1,270,281
39.94273300,39942733,0,0.00044471342698670924,-6.872710946481675e-05,0.0008158179698511958,-0.6892985701560974,-0.07688196003437042,-9.879929542541504,0,0,39.0,1,1,270,281
40.00504600,40005046,0,0.001776489894837141,-0.00022040738258510828,0.0008133332012221217,-0.689298689365387,-0.07685123383998871,-9.879929542541504,0,0,39.0,1,1,270,281
40.06758700,40067587,0,0.00126130401622504,-0.001784124644473195,0.000975751259829849,-0.6892988085746765,-0.07682213187217712,-9.879929542541504,0,0,39.0,1,1,270,281
40.13024600,40130246,0,-0.001120021566748619,3.354125510668382e-05,0.00017864318215288222,-0.6892989277839661,-0.07679461687803268,-9.879929542541504,0,0,39.0,1,1,270,281
40.19256800,40192568,0,4.222054121783003e-05,-0.0008288647513836622,0.00043094006832689047,-0.6892990469932556,-0.0767686665058136,-9.879929542541504,0,0,39.0,1,1,270,281
40.25506000,40255060,0,0.00023000648070592433,-0.0020363912917673588,0.000647149863652885,-0.6892991662025452,-0.07674423605203629,-9.879929542541504,0,0,39.0,1,1,270,281
40.31757600,40317576,0,0.000637141230981797,-0.0012918309075757861,0.0007917707553133368,-0.6892992854118347,-0.07672131061553955,-9.879929542541504,0,0,39.0,1,1,270,281
40.38096700,40380967,0,0.0018038377165794373,-0.0025432920083403587,0.001032872823998332,-0.689299464225769,-0.07669983059167862,-9.879929542541504,0,0,39.0,1,1,270,281
40.44329400,40443294,0,0.0032976330257952213,-0.002043022308498621,0.0013302438892424107,-0.6892996430397034,-0.0766797587275505,-9.879929542541504,0,0,39.0,1,1,270,281
40.50564600,40505646,0,0.0008462186669930816,-0.0005356285255402327,0.0015078341821208596,-0.6892998218536377,-0.07666105031967163,-9.879929542541504,0,0,39.0,1,1,270,281
40.56808200,40568082,0,0.0023012403398752213,-0.0017084400169551373,0.0006662434316240251,-0.6892999410629272,-0.07664365321397781,-9.879929542541504,0,0,39.0,1,1,270,281
40.63065100,40630651,0,-0.0021187439560890198,0.001703272107988596,0.0006869425997138023,-0.6893001198768616,-0.07662753015756607,-9.879929542541504,0,0,39.0,1,1,270,281
40.69310900,40693109,0,0.001770603354088962,-0.0027367158327251673,0.0015418820548802614,-0.6893001794815063,-0.07661262899637222,-9.879929542541504,0,0,39.0,1,1,270,281
40.75562400,40755624,0,0.0016018550377339125,-0.00331433629617095,0.0011896960204467177,-0.6893003582954407,-0.07659891247749329,-9.879929542541504,0,0,39.0,1,1,270,281
40.81808900,40818089,0,-9.633359150029719e-05,0.002701359800994396,0.00048147523193620145,-0.6893004179000854,-0.07658632099628448,-9.879929542541504,0,0,39.0,1,1,270,281
40.88084500,40880845,0,-0.0013659473042935133,0.0007926305406726897,0.0005823609535582364,-0.6893005967140198,-0.07657480984926224,-9.879929542541504,0,0,39.0,1,1,270,281
40.94388300,40943883,0,-0.0006838379194959998,0.0013155987253412604,0.0006042661843821406,-0.6893006563186646,-0.07656432688236237,-9.879929542541504,0,0,39.0,1,1,270,281
41.00612200,41006122,0,0.0008197997231036425,-0.0011035201605409384,0.001111997407861054,-0.6893008351325989,-0.07655482739210129,-9.879929542541504,0,0,39.0,1,1,270,281
41.06857600,41068576,0,-0.00022225588327273726,-0.001020929659716785,0.0007928156410343945,-0.6893008947372437,-0.07654626667499542,-9.879929542541504,0,0,39.0,1,1,270,281
41.13110800,41131108,0,0.0003907997743226588,-0.00026324993814341724,0.0010053236037492752,-0.6893010139465332,-0.07653860002756119,-9.879929542541504,0,0,39.0,1,1,270,281
41.19362200,41193622,0,0.0009223316446878016,0.0005515537923201919,0.00046787335304543376,-0.6893010139465332,-0.076531782746315,-9.879929542541504,0,0,39.0,1,1,270,281
41.25608300,41256083,0,-0.00013632248737849295,0.000866205315105617,0.0011735582957044244,-0.6893009543418884,-0.07652575522661209,-9.879929542541504,0,0,39.0,1,1,270,281
41.31860000,41318600,0,-0.00040698936209082603,0.0021527656354010105,0.0014574532397091389,-0.6893008351325989,-0.07652048021554947,-9.879929542541504,0,0,39.0,1,1,270,281
41.38149000,41381490,0,-0.0012510145315900445,-0.001752843614667654,0.0012377211824059486,-0.6893006563186646,-0.07651590555906296,-9.879929542541504,0,0,39.0,1,1,270,281
41.44396800,41443968,0,-0.0003681056259665638,0.0007326728664338589,0.0011852014577016234,-0.6893005967140198,-0.07651199400424957,-9.879929542541504,0,0,39.0,1,1,270,281
41.50613000,41506130,0,-0.0008483618148602545,0.002099990379065275,0.0006015741964802146,-0.6893004775047302,-0.07650870829820633,-9.879929542541504,0,0,39.0,1,1,270,281
41.56907200,41569072,0,-0.0007447079406119883,-0.000850098324008286,0.0012990041868761182,-0.689300537109375,-0.07650599628686905,-9.879929542541504,0,0,39.0,1,1,270,281
41.63176400,41631764,0,0.0012210411950945854,-0.0008918967214412987,0.0014354161685332656,-0.6893005967140198,-0.07650383561849594,-9.879929542541504,0,0,39.0,1,1,270,281
41.69424000,41694240,0,-0.001286613056436181,-0.00020290928659960628,0.0010255889501422644,-0.6893006563186646,-0.07650218158960342,-9.879929542541504,0,0,39.0,1,1,270,281
41.75659400,41756594,0,0.00027996060089208186,0.0005402362439781427,0.00122257845941931,-0.6893008351325989,-0.07650099694728851,-9.879929542541504,0,0,39.0,1,1,270,281
41.81914900,41819149,0,-0.0006837917026132345,0.0007276873220689595,0.0005628932849504054,-0.6893008947372437,-0.07650024443864822,-9.879929542541504,0,0,39.0,1,1,270,281
41.88191200,41881912,0,-0.0015394333750009537,0.004382259212434292,0.002309598959982395,-0.6893010139465332,-0.07649990171194077,-9.879929542541504,0,0,39.0,1,1,270,281
41.94425000,41944250,0,0.0016178952064365149,0.0007055350579321384,0.0014147453475743532,-0.6893010139465332,-0.07649991661310196,-9.879929542541504,0,0,39.0,1,1,270,281
42.00660400,42006604,0,0.00042368145659565926,0.0004175133944954723,0.0012615376617759466,-0.6893009543418884,-0.07650026679039001,-9.879929542541504,0,0,39.0,1,1,270,281
42.06915500,42069155,0,-0.0013016529846936464,0.00038336904253810644,0.0007250038906931877,-0.6893008351325989,-0.07650091499090195,-9.879929542541504,0,0,39.0,1,1,270,281
42.13233100,42132331,0,0.0018357266671955585,0.0016550857108086348,0.0011303848586976528,-0.6893006563186646,-0.07650183886289597,-9.879929542541504,0,0,39.0,1,1,270,281
42.19477900,42194779,0,0.0011906045256182551,-0.001932772109284997,0.0008915163925848901,-0.6893005967140198,-0.07650302350521088,-9.879929542541504,0,0,39.0,1,1,270,281
42.25711400,42257114,0,0.0008023325935937464,-9.608266555005684e-05,0.0009288948494940996,-0.6893004775047302,-0.0765044316649437,-9.879929542541504,0,0,39.0,1,1,270,281
42.31960000,42319600,0,3.636974361143075e-05,-0.0005768822738900781,0.0009699146612547338,-0.689300537109375,-0.07650603353977203,-9.879929542541504,0,0,39.0,1,1,270,281
42.38239900,42382399,0,-0.0010427512461319566,0.0008138003759086132,0.000677653937600553,-0.6893005967140198,-0.0765078142285347,-9.879929542541504,0,0,39.0,1,1,270,281
42.44484500,42444845,0,0.0009505555499345064,-0.0003464316250756383,0.0016787633066996932,-0.6893006563186646,-0.0765097513794899,-9.879929542541504,0,0,39.0,1,1,270,281
42.50712600,42507126,0,0.001126403221860528,0.0017453819746151567,0.0012799638789147139,-0.6893008351325989,-0.07651183009147644,-9.879929542541504,0,0,39.0,1,1,269,281
42.56961700,42569617,0,0.00020828282868023962,-0.0017910986207425594,0.001103995949961245,-0.6893008947372437,-0.07651402056217194,-9.879929542541504,0,0,39.0,1,1,269,280
42.63264700,42632647,0,0.0026179433334618807,-0.0014534690417349339,0.0017786654643714428,-0.6893010139465332,-0.07651631534099579,-9.879929542541504,0,0,39.0,1,1,269,280
42.69511800,42695118,0,-0.0007431380217894912,0.0026445994153618813,0.0008143510203808546,-0.6893010139465332,-0.07651867717504501,-9.879929542541504,0,0,39.0,1,1,269,280
42.75762700,42757627,0,0.00012106412032153457,-0.0001694834209047258,0.0011614123359322548,-0.6893009543418884,-0.07652110606431961,-9.879929542541504,0,0,39.0,1,1,269,280
42.82014100,42820141,0,0.0022517628967761993,-0.0015033710515126586,0.0005836010677739978,-0.6893008351325989,-0.07652358710765839,-9.879929542541504,0,0,38.0,1,1,269,280
42.88283400,42882834,0,0.0018675047904253006,-0.0009304977138526738,0.000814113940577954,-0.6893006563186646,-0.07652611285448074,-9.879929542541504,0,0,38.0,1,1,269,280
42.94533800,42945338,0,0.0010524067329242826,-4.594700294546783e-05,0.0011878892546519637,-0.6893005967140198,-0.0765286535024643,-9.879929542541504,0,0,38.0,1,1,269,280
43.00762000,43007620,0,0.0010825635399669409,-0.0006071573006920516,0.00029758058371953666,-0.6893004775047302,-0.07660356909036636,-9.879929542541504,0,0,38.0,1,1,269,280
43.07007600,43070076,0,-0.000497016473673284,-0.00018592536798678339,0.0006578421453014016,-0.689300537109375,-0.07681677490472794,-9.879929542541504,0,0,38.0,1,1,269,280
43.13317300,43133173,0,-0.00039091514190658927,0.0008719227625988424,0.000839237414766103,-0.6893005967140198,-0.07708334922790527,-9.879929542541504,0,0,38.0,1,1,269,280
43.19563800,43195638,0,0.000332734634866938,-0.0011958364630118012,0.0008220800664275885,-0.6893006563186646,-0.07732538878917694,-9.879929542541504,0,0,38.0,1,1,269,280
43.25808900,43258089,0,0.0005341001087799668,-0.003142938017845154,0.001589666586369276,-0.6893008351325989,-0.07754406332969666,-9.879929542541504,0,0,38.0,1,1,269,280
43.32054600,43320546,0,0.0010002702474594116,-0.00045771506847813725,0.0014326733071357012,-0.6893008947372437,-0.07774054259061813,-9.879929542541504,0,0,38.0,1,1,269,280
43.38333800,43383338,0,0.0010178486118093133,0.0009167976677417755,0.0010337720159441233,-0.6893010139465332,-0.07791595906019211,-9.879929542541504,0,0,38.0,1,1,269,280
43.44582800,43445828,0,0.000181199808139354,-0.00048464341671206057,0.0014684547204524279,-0.6893010139465332,-0.07807145267724991,-9.879929542541504,0,0,38.0,1,1,269,280
43.50813400,43508134,0,-0.0008653633994981647,-0.0008481500553898513,0.0006484909681603312,-0.6893009543418884,-0.07820811867713928,-9.879929542541504,0,0,38.0,1,1,269,280
43.57054700,43570547,0,0.0008260187460109591,5.661422619596124e-06,0.0010936849284917116,-0.6893008351325989,-0.07832703739404678,-9.879929542541504,0,0,38.0,1,1,269,280
43.63372900,43633729,0,-0.0013046833919361234,-0.00026725884526968,0.0016655438812449574,-0.6893006563186646,-0.07842927426099777,-9.879929542541504,0,0,38.0,1,1,269,280
43.69613300,43696133,0,0.0016790400259196758,-0.0022330775391310453,0.0007651596097275615,-0.6893005967140198,-0.07851586490869522,-9.879929542541504,0,0,38.0,1,1,269,280
43.75861500,43758615,0,-0.0014165848260745406,-0.0017316379817202687,0.0011337815085425973,-0.6893004775047302,-0.07858780771493912,-9.879929542541504,0,0,38.0,1,1,269,280
43.82105700,43821057,0,-0.0001974185142898932,-0.0025041992776095867,0.0020094853825867176,-0.689300537109375,-0.07864607870578766,-9.879929542541504,0,0,38.0,1,1,269,280
43.88390400,43883904,0,0.0007823922787792981,-0.0012935997219756246,0.0013219625689089298,-0.6893005967140198,-0.07869162410497665,-9.879929542541504,0,0,38.0,1,1,269,280
43.94626700,43946267,0,-0.0005921326810494065,-0.0013227538438513875,0.0011805567191913724,-0.6893006563186646,-0.07872534543275833,-9.879929542541504,0,0,38.0,1,1,269,280
44.00858400,44008584,0,-0.0004921802319586277,-0.0002046081208391115,0.0009963028132915497,-0.6893008351325989,-0.07874812930822372,-9.879929542541504,0,0,38.0,1,1,269,280
44.07113200,44071132,0,0.0017752686981111765,-0.0029839195776730776,0.0006919107399880886,-0.6893008947372437,-0.07876081019639969,-9.879929542541504,0,0,38.0,1,1,269,280
44.13413100,44134131,0,0.00039214995922520757,0.0009588079992681742,0.0005975362728349864,-0.6893010139465332,-0.07876421511173248,-9.879929542541504,0,0,38.0,1,1,269,280
44.19671800,44196718,0,0.0007436144514940679,0.00047487320262007415,0.0012439590645954013,-0.6893010139465332,-0.0787590965628624,-9.879929542541504,0,0,38.0,1,1,269,280
44.25907800,44259078,0,0.0018219654448330402,-0.0015938758151605725,0.0010584131814539433,-0.6893009543418884,-0.07874621450901031,-9.879929542541504,0,0,38.0,1,1,269,280
44.32155700,44321557,0,0.0013993866741657257,-0.0014157629339024425,0.000933708215598017,-0.6893008351325989,-0.07872628420591354,-9.879929542541504,0,0,38.0,1,1,269,280
44.38448700,44384487,0,0.002827162854373455,-0.0032267053611576557,0.0010937557090073824,-0.6893006563186646,-0.0786999836564064,-9.879929542541504,0,0,38.0,1,1,269,280
44.41833300,44418333,0,0.002749789971858263,-0.0027244731318205595,0.0009356781374663115,-0.6893005967140198,-0.07874029129743576,-9.879929542541504,0,0,38.0,1,1,269,280
44.41875600,44418756,0,0.001706077717244625,-0.0011909200111404061,0.0001638102694414556,-0.6893728375434875,-0.07891375571489334,-9.88000202178955,0,0,38.0,1,1,269,280
44.42142100,44421421,0,0.0015486916527152061,0.008374221622943878,-0.0020031689200550318,-0.6911453008651733,-0.08230344951152802,-9.880264282226562,0,0,38.0,1,1,269,280
44.42402000,44424020,0,-0.010779821313917637,-0.00047240228741429746,-0.0030571669340133667,-0.694166898727417,-0.08524547517299652,-9.881135940551758,0,0,38.0,1,1,269,280
44.42668500,44426685,0,0.0015012766234576702,0.003052451880648732,0.0017790952697396278,-0.6965925097465515,-0.08900556713342667,-9.88217830657959,0,0,38.0,1,1,269,280
44.42910800,44429108,0,0.0031556831672787666,-0.0035825001541525126,-0.0037141432985663414,-0.696821391582489,-0.09064200520515442,-9.884293556213379,0,0,38.0,1,1,269,280
44.43156800,44431568,0,0.0010950759751722217,-0.006699706427752972,-0.0014249891974031925,-0.6980075836181641,-0.09044411778450012,-9.885849952697754,0,0,38.0,1,1,269,280
44.43396400,44433964,0,-0.0036265694070607424,-0.0019584980327636003,-0.005119713023304939,-0.7010341286659241,-0.08938593417406082,-9.89151382446289,0,0,38.0,1,1,269,280
44.43657400,44436574,0,-0.002707716776058078,0.009488342329859734,0.004227533005177975,-0.7013397216796875,-0.0857834741473198,-9.893619537353516,0,0,38.0,1,1,269,280
44.43899400,44438994,0,0.006179822608828545,0.0027649272233247757,-0.001879961579106748,-0.7025395631790161,-0.08429153263568878,-9.89272689819336,0,0,38.0,1,1,269,280
44.44143400,44441434,0,0.005578033626079559,-0.002315688878297806,0.005799567326903343,-0.705424964427948,-0.08309020847082138,-9.89146900177002,0,0,38.0,1,1,269,280
44.44396300,44443963,0,-0.00029985595028847456,-0.006717701442539692,0.000634087307844311,-0.7076863646507263,-0.0825943574309349,-9.89055347442627,0,0,38.0,1,1,269,280
44.44658300,44446583,0,-0.005177187733352184,0.006544267758727074,0.0023584666196256876,-0.7085104584693909,-0.08269203454256058,-9.891514778137207,0,0,38.0,1,1,269,280
44.44896200,44448962,0,0.0046317544765770435,-0.0073935529217123985,7.393836858682334e-05,-0.7077555656433105,-0.08385720103979111,-9.889925003051758,0,0,38.0,1,1,269,280
44.45146100,44451461,0,-0.008427607826888561,0.015223918482661247,-0.00600449601188302,-0.7063326239585876,-0.08517537266016006,-9.888199806213379,0,0,38.0,1,1,269,280
44.45396000,44453960,0,-0.007879627868533134,-0.0006278469809331,-0.0050565642304718494,-0.7034891843795776,-0.08581826835870743,-9.886458396911621,0,0,38.0,1,1,269,280
44.45653200,44456532,0,-0.003344153519719839,-0.005852887406945229,0.009227710776031017,-0.7020806670188904,-0.08195570111274719,-9.883737564086914,0,0,38.0,1,1,269,280
44.45906500,44459065,0,0.003329311031848192,0.0004977859789505601,0.002579042222350836,-0.702748715877533,-0.07589153945446014,-9.884169578552246,0,0,38.0,1,1,269,280
44.46146200,44461462,0,-0.0010746961925178766,-0.010056668892502785,-0.006587723270058632,-0.7051536440849304,-0.07065122574567795,-9.8856840133667,0,0,38.0,1,1,269,280
44.46393100,44463931,0,0.005087540950626135,-0.0110483318567276,0.0032934891059994698,-0.7074100971221924,-0.06732916831970215,-9.888983726501465,0,0,38.0,1,1,269,280
44.46655300,44466553,0,0.0030891629867255688,-0.00027037429390475154,0.0042382050305604935,-0.7088102102279663,-0.07013305276632309,-9.889493942260742,0,0,38.0,1,1,269,280
44.46893000,44468930,0,0.001579951262101531,-0.0009934958070516586,0.006442168261855841,-0.7091732025146484,-0.07722379267215729,-9.887792587280273,0,0,38.0,1,1,269,280
44.47153500,44471535,0,0.006269925273954868,0.001067867036908865,-0.003081943839788437,-0.7072936296463013,-0.0873815268278122,-9.883790969848633,0,0,38.0,1,1,269,280
44.47392800,44473928,0,0.007337889634072781,-0.007685165852308273,-0.009883822873234749,-0.7060366868972778,-0.09419062733650208,-9.881949424743652,0,0,38.0,1,1,269,280
44.47653500,44476535,0,-0.0002786946133710444,0.006994850467890501,0.0038450320716947317,-0.7056664228439331,-0.09696773439645767,-9.880419731140137,0,0,38.0,1,1,269,280
44.47892900,44478929,0,0.009563615545630455,0.010166507214307785,0.004074858035892248,-0.7060873508453369,-0.09831799566745758,-9.882502555847168,0,0,38.0,1,1,269,280
44.48156900,44481569,0,-0.00019813235849142075,0.0066650910302996635,0.0006441737641580403,-0.7049007415771484,-0.10012853145599365,-9.88365650177002,0,0,38.0,1,1,269,280
44.48392800,44483928,0,0.0010196706280112267,-0.0022665755823254585,0.00055608747061342,-0.7055109143257141,-0.10486576706171036,-9.88370418548584,0,0,38.0,1,1,269,280
44.48654700,44486547,0,0.00022533637820743024,0.017474940046668053,-0.0007298809359781444,-0.7033884525299072,-0.10698604583740234,-9.886265754699707,0,0,38.0,1,1,269,280
44.48896100,44488961,0,-0.00208134762942791,0.004716821946203709,-0.003206409513950348,-0.7009744048118591,-0.1099066212773323,-9.892601013183594,0,0,38.0,1,1,269,280
44.49150500,44491505,0,-0.0002978201664518565,-0.010631473734974861,-0.0034601909574121237,-0.7008457779884338,-0.11113227903842926,-9.895785331726074,0,0,38.0,1,1,269,280
44.49392500,44493925,0,-0.014323299750685692,0.004773655906319618,0.008344179019331932,-0.7024237513542175,-0.11137927323579788,-9.897369384765625,0,0,38.0,1,1,269,280
44.49650600,44496506,0,-0.0051622334867715836,-0.001673455466516316,0.00045787531416863203,-0.7017660140991211,-0.11183439940214157,-9.8948974609375,0,0,38.0,1,1,269,280
44.49904200,44499042,0,-0.007404530420899391,-0.0007276168325915933,-0.002301020547747612,-0.7016018033027649,-0.11122781783342361,-9.893245697021484,0,0,38.0,1,1,269,280
44.50153500,44501535,0,-0.005080582108348608,0.008821407333016396,-0.005621057935059071,-0.69879150390625,-0.11178702116012573,-9.887654304504395,0,0,38.0,1,1,269,280
44.50405400,44504054,0,-0.006623100023716688,0.006735983304679394,-0.00015099234587978572,-0.6979771256446838,-0.11245731264352798,-9.885865211486816,0,0,38.0,1,1,269,280
44.50666000,44506660,0,-0.002440565498545766,0.005043363198637962,-0.006700770929455757,-0.6986462473869324,-0.1138734221458435,-9.886292457580566,0,0,38.0,1,1,269,280
44.50924400,44509244,0,-0.013940510340034962,-0.005295497365295887,-0.005461706314235926,-0.6985923647880554,-0.11289691925048828,-9.883012771606445,0,0,38.0,1,1,269,280
44.51151400,44511514,0,0.00618563499301672,-0.010667924769222736,0.0037634368054568768,-0.6994717717170715,-0.10880864411592484,-9.879258155822754,0,0,38.0,1,1,269,280
44.51392800,44513928,0,0.004165656864643097,-0.010990379378199577,-0.0012932156678289175,-0.7004967927932739,-0.10256866365671158,-9.874021530151367,0,0,38.0,1,1,269,280
44.51650100,44516501,0,0.005847014021128416,-0.012511861510574818,0.0050167180597782135,-0.7030331492424011,-0.09525071084499359,-9.869756698608398,0,0,38.0,1,1,269,280
44.51893000,44518930,0,-0.0020919658709317446,0.01360140461474657,-0.006379673723131418,-0.7063552737236023,-0.09003318846225739,-9.867595672607422,0,0,38.0,1,1,269,280
44.52150200,44521502,0,0.008118183352053165,0.010652627795934677,0.003135593608021736,-0.7067439556121826,-0.08616843819618225,-9.866728782653809,0,0,38.0,1,1,269,280
44.52395100,44523951,0,-0.003412006888538599,0.006756904534995556,0.0002543534501455724,-0.7053147554397583,-0.08574677258729935,-9.864191055297852,0,0,38.0,1,1,269,280
44.52658900,44526589,0,-0.010359889827668667,0.014240687713027,-0.006412140559405088,-0.7022858262062073,-0.08767497539520264,-9.863347053527832,0,0,38.0,1,1,269,280
44.52893100,44528931,0,0.005892990157008171,0.005269312299787998,0.0009231145959347486,-0.7004967331886292,-0.0929851084947586,-9.867517471313477,0,0,38.0,1,1,269,280
44.53145900,44531459,0,0.004364666994661093,0.005896712653338909,0.004031831864267588,-0.7016018033027649,-0.09824876487255096,-9.873093605041504,0,0,38.0,1,1,269,280
44.53393400,44533934,0,-0.012386901304125786,0.001029391773045063,0.0002122008299920708,-0.7025774717330933,-0.10091647505760193,-9.878300666809082,0,0,38.0,1,1,269,280
44.53643500,44536435,0,-0.001861482742242515,0.005614410154521465,0.005196199286729097,-0.7076510190963745,-0.10054897516965866,-9.883298873901367,0,0,38.0,1,1,269,280
44.53894800,44538948,0,-0.0002281225024489686,0.007071573752909899,-0.002473230240866542,-0.713500440120697,-0.10173600912094116,-9.88721752166748,0,0,38.0,1,1,269,280
44.54146100,44541461,0,0.0007537780911661685,-0.0054292501881718636,0.0016081600915640593,-0.7155500054359436,-0.10265565663576126,-9.890352249145508,0,0,38.0,1,1,269,280
44.54393400,44543934,0,-0.0036389853339642286,-0.01156200747936964,-0.00486935256049037,-0.7146672606468201,-0.10115759819746017,-9.891647338867188,0,0,38.0,1,1,269,280
44.54655200,44546552,0,-0.0005006412975490093,0.0021949370857328176,0.003937181551009417,-0.7171790599822998,-0.09630811959505081,-9.897945404052734,0,0,38.0,1,1,269,280
44.54906300,44549063,0,0.004183665849268436,0.005769696086645126,0.0008119911071844399,-0.7196478247642517,-0.09299415349960327,-9.900545120239258,0,0,38.0,1,1,269,280
44.55156500,44551565,0,-0.007303483784198761,0.010059034451842308,0.001169369206763804,-0.7198464870452881,-0.09282682090997696,-9.8991060256958,0,0,38.0,1,1,269,280
44.55393500,44553935,0,-0.007128996774554253,0.011120428331196308,-0.0062405080534517765,-0.7189725041389465,-0.0944715291261673,-9.896681785583496,0,0,38.0,1,1,269,280
44.55656700,44556567,0,0.009959486313164234,-0.007056078873574734,-0.0003852812515106052,-0.718650758266449,-0.09909622371196747,-9.892145156860352,0,0,38.0,1,1,269,280
44.55904100,44559041,0,0.0004512081213761121,0.010586007498204708,-0.001385857118293643,-0.7149345874786377,-0.10511346906423569,-9.887028694152832,0,0,38.0,1,1,269,280
44.56143300,44561433,0,-0.008693058043718338,-2.5226907382602803e-05,0.00331110623665154,-0.7102273106575012,-0.10810617357492447,-9.883309364318848,0,0,38.0,1,1,269,280
44.56403700,44564037,0,0.006783317308872938,0.0052284253761172295,-0.003443807130679488,-0.7054751515388489,-0.10805762559175491,-9.880411148071289,0,0,38.0,1,1,269,280
44.56653700,44566537,0,-0.0033061783760786057,-0.007320352829992771,0.0025757132098078728,-0.7030794620513916,-0.10825030505657196,-9.877908706665039,0,0,38.0,1,1,269,280
44.56900500,44569005,0,-0.004411933943629265,-0.00020380424393806607,0.008301212452352047,-0.7030317187309265,-0.10931899398565292,-9.88117790222168,0,0,38.0,1,1,269,280
44.57156300,44571563,0,-0.006657795049250126,0.004528820980340242,-0.005988322198390961,-0.7032917141914368,-0.11007826030254364,-9.885307312011719,0,0,38.0,1,1,269,280
44.57396000,44573960,0,-0.0071809254586696625,0.007258199155330658,0.001060232287272811,-0.7049619555473328,-0.11133554577827454,-9.887092590332031,0,0,38.0,1,1,269,280
44.57646000,44576460,0,-0.01765107549726963,0.002084621461108327,0.003452528966590762,-0.707011878490448,-0.11308510601520538,-9.888861656188965,0,0,38.0,1,1,269,280
44.57895900,44578959,0,0.0068236058577895164,-0.001102933892980218,0.0014197289710864425,-0.7081190347671509,-0.11405894160270691,-9.887846946716309,0,0,38.0,1,1,269,280
44.58143400,44581434,0,-0.004526297561824322,6.131113332230598e-05,-0.00014666009519714862,-0.7103206515312195,-0.11161176860332489,-9.89199161529541,0,0,38.0,1,1,269,280
44.58404300,44584043,0,-0.007042981218546629,0.0005114261293783784,0.007359019014984369,-0.7103800177574158,-0.10772289335727692,-9.895219802856445,0,0,38.0,1,1,269,280
44.58653600,44586536,0,-0.006737168878316879,0.0009876274270936847,-0.010014573112130165,-0.7073695063591003,-0.10575303435325623,-9.891242027282715,0,0,38.0,1,1,269,280
44.58894900,44588949,0,0.009372139349579811,-0.005283321253955364,0.011495457962155342,-0.7078701257705688,-0.10507593303918839,-9.887418746948242,0,0,38.0,1,1,269,280
44.59150800,44591508,0,0.005376030225306749,0.004664074629545212,-0.0006289943703450263,-0.7088590264320374,-0.10308951139450073,-9.880436897277832,0,0,38.0,1,1,269,280
44.59407300,44594073,0,0.007301324978470802,-0.012783627025783062,-0.003061965573579073,-0.7094208002090454,-0.09847334027290344,-9.876537322998047,0,0,38.0,1,1,269,280
44.59646700,44596467,0,-0.003752245334908366,0.002827485091984272,-0.004900135099887848,-0.7089013457298279,-0.09510677307844162,-9.87463092803955,0,0,38.0,1,1,269,280
44.59895900,44598959,0,-0.010407799854874611,0.0016925056697800756,0.0026055290363729,-0.708684504032135,-0.09210467338562012,-9.873466491699219,0,0,38.0,1,1,269,280
44.60153700,44601537,0,0.006693398579955101,0.003979932516813278,-0.003995268605649471,-0.7089851498603821,-0.0895775854587555,-9.872880935668945,0,0,38.0,1,1,269,280
44.60404200,44604042,0,0.0036226343363523483,0.0020226724445819855,0.001154980855062604,-0.7068548798561096,-0.0874720886349678,-9.871479988098145,0,0,38.0,1,1,269,280
44.60663800,44606638,0,0.003838669741526246,-0.002547935349866748,-0.0001772963150870055,-0.7045450210571289,-0.08475487679243088,-9.869904518127441,0,0,38.0,1,1,269,280
44.60926800,44609268,0,0.0010640271939337254,-0.01908286288380623,0.0012996739242225885,-0.7020699381828308,-0.08352099359035492,-9.871566772460938,0,0,38.0,1,1,269,280
44.61156900,44611569,0,0.009342659264802933,0.0001974741753656417,0.0032992649357765913,-0.7009274363517761,-0.08097528666257858,-9.872823715209961,0,0,38.0,1,1,269,280
44.61392300,44613923,0,-0.0010059872874990106,0.007860803045332432,-0.005525168962776661,-0.7020187377929688,-0.07853762805461884,-9.871171951293945,0,0,38.0,1,1,269,280
44.61657100,44616571,0,0.008258477784693241,0.0010959909996017814,0.003693727310746908,-0.7024393081665039,-0.07748348265886307,-9.868249893188477,0,0,38.0,1,1,269,280
44.61892600,44618926,0,0.00885685533285141,-0.008758995682001114,-0.00453158700838685,-0.7044815421104431,-0.07655937224626541,-9.86872673034668,0,0,38.0,1,1,269,280
44.62150500,44621505,0,0.007535665761679411,-0.00826606061309576,0.003286966821178794,-0.7048987150192261,-0.07711666077375412,-9.872842788696289,0,0,38.0,1,1,269,280
44.62392400,44623924,0,0.001680386601947248,-0.002441761316731572,0.0018452832009643316,-0.705721914768219,-0.07586277276277542,-9.880643844604492,0,0,38.0,1,1,269,280
44.62664300,44626643,0,-0.0034684869460761547,0.002868970623239875,0.003979828674346209,-0.7069202661514282,-0.07606622576713562,-9.886116981506348,0,0,38.0,1,1,269,280
44.62892900,44628929,0,-0.0032930655870586634,0.005122274626046419,-0.003909972030669451,-0.7071280479431152,-0.07419002056121826,-9.887889862060547,0,0,38.0,1,1,269,280
44.63150700,44631507,0,0.0009717657812871039,0.009927290491759777,0.001075788284651935,-0.7079615592956543,-0.07380906492471695,-9.890865325927734,0,0,38.0,1,1,269,280
44.63394800,44633948,0,0.00010921994544332847,0.0026801535859704018,-0.00059009890537709,-0.7113772630691528,-0.07362030446529388,-9.88913345336914,0,0,38.0,1,1,269,280
44.63651000,44636510,0,-0.00792564358562231,-0.004253759048879147,0.00570762250572443,-0.7109175324440002,-0.0721563994884491,-9.88718318939209,0,0,38.0,1,1,269,280
44.63900600,44639006,0,-0.0031773531809449196,-0.0015793911879882216,0.0001795002754079178,-0.7103981375694275,-0.07140802592039108,-9.886123657226562,0,0,38.0,1,1,269,280
44.64142000,44641420,0,-0.005972542334347963,0.0032080430537462234,-0.001672526472248137,-0.7097312808036804,-0.07383561134338379,-9.88723087310791,0,0,38.0,1,1,269,280
44.64396400,44643964,0,-0.0021276965271681547,0.002373401541262865,0.006192303262650967,-0.707233726978302,-0.07823111861944199,-9.887556076049805,0,0,38.0,1,1,269,280
