timestamp,TimeUS,DesRoll,Roll,DesPitch,Pitch,DesYaw,Yaw,ErrRP,ErrYaw,AEKF
34.09548600,34095486,0.0,1.12,0.0,-13.31,351.51,351.52,0.11,0.06,3
34.11107400,34111074,0.0,1.11,0.0,-13.3,351.5,351.51,0.11,0.06,3
34.12653900,34126539,0.0,1.11,0.0,-13.3,351.48,351.49,0.11,0.06,3
34.14249700,34142497,0.0,1.1,0.0,-13.3,351.46,351.47,0.1,0.06,3
34.15790800,34157908,0.0,1.09,0.0,-13.3,351.44,351.45,0.1,0.06,3
34.17340100,34173401,0.0,1.08,0.0,-13.3,351.42,351.43,0.1,0.06,3
34.18901600,34189016,0.0,1.07,0.0,-13.290000000000001,351.40000000000003,351.41,0.1,0.06,3
34.20489900,34204899,0.0,1.06,0.0,-13.290000000000001,351.38,351.39,0.1,0.06,3
34.22049600,34220496,0.0,1.04,0.0,-13.280000000000001,351.35,351.36,0.1,0.06,3
34.23592900,34235929,0.0,1.04,0.0,-13.280000000000001,351.33,351.34000000000003,0.1,0.06,3
34.25141500,34251415,0.0,1.03,0.0,-13.27,351.31,351.32,0.1,0.06,3
34.26747800,34267478,0.0,1.02,0.0,-13.27,351.29,351.3,0.1,0.06,3
34.28300200,34283002,0.0,1.01,0.0,-13.26,351.27,351.28000000000003,0.1,0.06,3
34.29851400,34298514,0.0,1.0,0.0,-13.26,351.25,351.26,0.1,0.06,3
34.31441600,34314416,0.0,0.99,0.0,-13.25,351.23,351.24,0.1,0.06,3
34.32992900,34329929,0.0,0.98,0.0,-13.25,351.22,351.23,0.1,0.06,3
34.34553300,34345533,0.0,0.97,0.0,-13.25,351.2,351.21,0.1,0.06,3
34.36112300,34361123,0.0,0.96,0.0,-13.24,351.17,351.18,0.1,0.06,3
34.37722100,34377221,0.0,0.9500000000000001,0.0,-13.24,351.15000000000003,351.16,0.1,0.06,3
34.39273500,34392735,0.0,0.9400000000000001,0.0,-13.24,351.13,351.14,0.1,0.06,3
34.40803700,34408037,0.0,0.92,0.0,-13.23,351.11,351.12,0.1,0.06,3
34.43977500,34439775,0.0,6.92,0.0,-6.390000000000001,359.03000000000003,359.04,0.1,0.06,3
34.47057600,34470576,0.0,6.91,0.0,-6.390000000000001,359.01,359.02,0.1,0.06,3
34.50201400,34502014,0.0,6.9,0.0,-6.38,358.99,359.0,0.1,0.06,3
34.53300200,34533002,0.0,6.88,0.0,-6.37,358.97,358.98,0.1,0.06,3
34.56450100,34564501,0.0,6.87,0.0,-6.37,358.95,358.96,0.1,0.06,3
34.59558000,34595580,0.0,6.86,0.0,-6.36,358.93,358.94,0.1,0.06,3
34.62705600,34627056,0.0,6.8500000000000005,0.0,-6.3500000000000005,358.91,358.92,0.1,0.06,3
34.65800700,34658007,0.0,6.84,0.0,-6.3500000000000005,358.89,358.90000000000003,0.1,0.06,3
34.68939600,34689396,0.0,6.83,0.0,-6.34,358.88,358.89,0.1,0.06,3
34.72047600,34720476,0.0,6.82,0.0,-6.33,358.86,358.87,0.1,0.06,3
34.75208100,34752081,0.0,6.8100000000000005,0.0,-6.33,358.83,358.84000000000003,0.1,0.06,3
34.78299700,34782997,0.0,6.79,0.0,-6.32,358.82,358.83,0.1,0.06,3
34.81451400,34814514,0.0,6.78,0.0,-6.32,358.8,358.81,0.1,0.06,3
34.84548500,34845485,0.0,6.7700000000000005,0.0,-6.3100000000000005,358.78000000000003,358.79,0.1,0.06,3
34.87733400,34877334,0.0,6.76,0.0,-6.3,358.76,358.77,0.11,0.06,3
34.90871400,34908714,0.0,6.75,0.0,-6.3,358.74,358.75,0.11,0.06,3
34.93953300,34939533,0.0,6.74,0.0,-6.29,358.72,358.73,0.11,0.06,3
34.97102300,34971023,0.0,6.73,0.0,-6.29,358.7,358.71,0.11,0.06,3
35.00206300,35002063,0.0,6.72,0.0,-6.28,358.69,358.7,0.11,0.06,3
35.03355100,35033551,0.0,6.71,0.0,-6.2700000000000005,358.66,358.67,0.11,0.06,3
35.06454600,35064546,0.0,6.7,0.0,-6.2700000000000005,358.64,358.65000000000003,0.11,0.06,3
35.09602800,35096028,0.0,6.69,0.0,-6.26,358.62,358.63,0.11,0.06,3
35.12713800,35127138,0.0,6.68,0.0,-6.26,358.61,358.62,0.11,0.06,3
35.15839400,35158394,0.0,6.67,0.0,-6.25,358.59000000000003,358.6,0.11,0.06,3
35.18942200,35189422,0.0,6.66,0.0,-6.25,358.57,358.58,0.11,0.06,3
35.22105100,35221051,0.0,6.640000000000001,0.0,-6.24,358.55,358.56,0.11,0.06,3
35.25189800,35251898,0.0,6.63,0.0,-6.23,358.53000000000003,358.54,0.11,0.06,3
35.28354400,35283544,0.0,6.62,0.0,-6.22,358.51,358.52,0.11,0.06,3
35.31454700,35314547,0.0,6.61,0.0,-6.22,358.49,358.5,0.11,0.06,3
35.34604400,35346044,0.0,6.6000000000000005,0.0,-6.21,358.47,358.48,0.11,0.06,3
35.37729500,35377295,0.0,6.59,0.0,-6.2,358.45,358.46,0.11,0.06,3
35.40861300,35408613,0.0,6.58,0.0,-6.2,358.44,358.45,0.11,0.06,3
35.43960100,35439601,0.0,6.57,0.0,-6.19,358.42,358.43,0.11,0.06,3
35.47098000,35470980,0.0,6.5600000000000005,0.0,-6.19,358.40000000000003,358.41,0.11,0.06,3
35.50192600,35501926,0.0,6.55,0.0,-6.18,358.38,358.39,0.11,0.06,3
35.53350900,35533509,0.0,6.54,0.0,-6.18,358.36,358.37,0.11,0.06,3
35.56466200,35564662,0.0,6.53,0.0,-6.17,358.34000000000003,358.35,0.11,0.06,3
35.59602900,35596029,0.0,6.5200000000000005,0.0,-6.17,358.32,358.33,0.11,0.07,3
35.62759500,35627595,0.0,6.51,0.0,-6.16,358.3,358.31,0.11,0.07,3
35.65852000,35658520,0.0,6.5,0.0,-6.16,358.28000000000003,358.29,0.11,0.07,3
35.68989000,35689890,0.0,6.49,0.0,-6.15,358.27,358.28000000000003,0.11,0.07,3
35.72097600,35720976,0.0,6.48,0.0,-6.15,358.25,358.26,0.11,0.07,3
35.75261900,35752619,0.0,6.47,0.0,-6.140000000000001,358.23,358.24,0.11,0.07,3
35.78355200,35783552,0.0,6.46,0.0,-6.140000000000001,358.21,358.22,0.11,0.07,3
35.81507600,35815076,0.0,6.44,0.0,-6.13,358.18,358.19,0.11,0.07,3
35.84603500,35846035,0.0,6.43,0.0,-6.12,358.16,358.17,0.11,0.07,3
35.87773800,35877738,0.0,6.42,0.0,-6.11,358.14,358.15000000000003,0.11,0.07,3
35.90869900,35908699,0.0,6.41,0.0,-6.1000000000000005,358.12,358.13,0.11,0.07,3
35.93993200,35939932,0.0,6.4,0.0,-6.1000000000000005,358.1,358.11,0.11,0.07,3
35.97103000,35971030,0.0,6.390000000000001,0.0,-6.09,358.08,358.09000000000003,0.11,0.07,3
36.00258600,36002586,0.0,6.38,0.0,-6.08,358.06,358.07,0.12,0.07,3
36.03353600,36033536,0.0,6.37,0.0,-6.08,358.04,358.05,0.12,0.07,3
36.06501000,36065010,0.0,6.36,0.0,-6.07,358.02,358.03000000000003,0.12,0.07,3
36.09601100,36096011,0.0,6.3500000000000005,0.0,-6.0600000000000005,357.99,358.0,0.12,0.07,3
36.12764000,36127640,0.0,6.34,0.0,-6.05,357.97,357.98,0.12,0.07,3
36.15891100,36158911,0.0,6.33,0.0,-6.05,357.95,357.96,0.12,0.07,3
36.18991000,36189910,0.0,6.32,0.0,-6.04,357.93,357.94,0.12,0.07,3
36.22141100,36221411,0.0,6.3100000000000005,0.0,-6.04,357.91,357.92,0.12,0.07,3
36.25238700,36252387,0.0,6.3,0.0,-6.03,357.89,357.90000000000003,0.12,0.07,3
36.28392900,36283929,0.0,6.29,0.0,-6.03,357.87,357.88,0.12,0.07,3
36.31507000,36315070,0.0,6.28,0.0,-6.0200000000000005,357.85,357.86,0.12,0.07,3
36.34647900,36346479,0.0,6.2700000000000005,0.0,-6.01,357.82,357.83,0.12,0.07,3
36.37783200,36377832,0.0,6.26,0.0,-6.01,357.8,357.81,0.12,0.07,3
36.40914900,36409149,0.0,6.25,0.0,-6.0,357.78000000000003,357.79,0.12,0.07,3
36.44008500,36440085,0.0,6.24,0.0,-6.0,357.76,357.77,0.12,0.07,3
36.47150200,36471502,0.0,6.23,0.0,-5.99,357.74,357.75,0.12,0.07,3
36.50255600,36502556,0.0,6.22,0.0,-5.99,357.72,357.73,0.12,0.07,3
36.53401600,36534016,0.0,6.21,0.0,-5.98,357.7,357.71,0.12,0.07,3
36.56491800,36564918,0.0,6.2,0.0,-5.97,357.68,357.69,0.12,0.07,3
36.59651800,36596518,0.0,6.19,0.0,-5.97,357.66,357.67,0.12,0.07,3
36.62758500,36627585,0.0,6.17,0.0,-5.96,357.63,357.64,0.12,0.07,3
36.65892400,36658924,0.0,6.16,0.0,-5.95,357.61,357.62,0.12,0.07,3
36.69039200,36690392,0.0,6.15,0.0,-5.95,357.59000000000003,357.6,0.12,0.07,3
36.72150900,36721509,0.0,6.140000000000001,0.0,-5.94,357.57,357.58,0.12,0.07,3
36.75304800,36753048,0.0,6.13,0.0,-5.94,357.55,357.56,0.12,0.07,3
36.78399700,36783997,0.0,6.12,0.0,-5.93,357.53000000000003,357.54,0.12,0.07,3
36.81563800,36815638,0.0,6.11,0.0,-5.92,357.51,357.52,0.12,0.07,3
36.84655900,36846559,0.0,6.1000000000000005,0.0,-5.92,357.49,357.5,0.11,0.08,3
36.87830600,36878306,0.0,6.09,0.0,-5.91,357.46,357.47,0.11,0.08,3
36.90921500,36909215,0.0,6.08,0.0,-5.9,357.45,357.46,0.11,0.08,3
36.94050700,36940507,0.0,6.07,0.0,-5.89,357.42,357.43,0.11,0.08,3
36.97141700,36971417,0.0,6.0600000000000005,0.0,-5.89,357.40000000000003,357.41,0.11,0.08,3
37.00320300,37003203,0.0,6.05,0.0,-5.88,357.38,357.39,0.11,0.08,3
37.03404500,37034045,0.0,6.04,0.0,-5.87,357.36,357.37,0.11,0.08,3
37.06543800,37065438,0.0,6.0200000000000005,0.0,-5.87,357.34000000000003,357.35,0.11,0.08,3
37.09654000,37096540,0.0,6.01,0.0,-5.86,357.32,357.33,0.11,0.08,3
37.12806500,37128065,0.0,6.0,0.0,-5.8500000000000005,357.29,357.3,0.11,0.08,3
37.15906700,37159067,0.0,5.99,0.0,-5.84,357.27,357.28000000000003,0.11,0.08,3
37.19039200,37190392,0.0,5.98,0.0,-5.84,357.24,357.25,0.11,0.08,3
37.22207900,37222079,0.0,5.97,0.0,-5.83,357.22,357.23,0.11,0.08,3
37.25302200,37253022,0.0,5.96,0.0,-5.83,357.2,357.21,0.11,0.08,3
37.28450400,37284504,0.0,5.95,0.0,-5.82,357.18,357.19,0.11,0.08,3
37.31555600,37315556,0.0,5.93,0.0,-5.8100000000000005,357.16,357.17,0.11,0.08,3
37.34691900,37346919,0.0,5.92,0.0,-5.8100000000000005,357.13,357.14,0.11,0.08,3
37.37834200,37378342,0.0,5.91,0.0,-5.8,357.11,357.12,0.11,0.08,3
37.40978100,37409781,0.0,5.9,0.0,-5.79,357.08,357.09000000000003,0.11,0.08,3
37.44054600,37440546,0.0,5.89,0.0,-5.79,357.06,357.07,0.11,0.08,3
37.47200300,37472003,0.0,5.88,0.0,-5.78,357.04,357.05,0.11,0.08,3
37.50293000,37502930,0.0,5.87,0.0,-5.7700000000000005,357.02,357.03000000000003,0.11,0.08,3
37.53440800,37534408,0.0,5.8500000000000005,0.0,-5.76,357.0,357.01,0.11,0.08,3
37.56551800,37565518,0.0,5.84,0.0,-5.75,356.97,356.98,0.11,0.08,3
37.59700800,37597008,0.0,5.83,0.0,-5.75,356.95,356.96,0.11,0.08,3
37.62857300,37628573,0.0,5.82,0.0,-5.74,356.93,356.94,0.11,0.08,3
37.65950600,37659506,0.0,5.8100000000000005,0.0,-5.73,356.91,356.92,0.11,0.08,3
37.69101200,37691012,0.0,5.79,0.0,-5.72,356.88,356.89,0.11,0.08,3
37.72202700,37722027,0.0,5.78,0.0,-5.71,356.86,356.87,0.11,0.08,3
37.75343400,37753434,0.0,5.7700000000000005,0.0,-5.71,356.84000000000003,356.85,0.11,0.08,3
37.78451100,37784511,0.0,5.7700000000000005,0.0,-5.7,356.82,356.83,0.11,0.08,3
37.81593000,37815930,0.0,5.76,0.0,-5.69,356.79,356.8,0.11,0.08,3
37.84699200,37846992,0.0,5.75,0.0,-5.69,356.77,356.78000000000003,0.11,0.08,3
37.87873200,37878732,0.0,5.74,0.0,-5.68,356.75,356.76,0.11,0.08,3
37.90976000,37909760,0.0,5.72,0.0,-5.68,356.73,356.74,0.11,0.08,3
37.94109700,37941097,0.0,5.71,0.0,-5.67,356.7,356.71,0.11,0.08,3
37.97199300,37971993,0.0,5.7,0.0,-5.66,356.68,356.69,0.11,0.08,3
38.00351900,38003519,0.0,5.69,0.0,-5.65,356.66,356.67,0.11,0.08,3
38.03498700,38034987,0.0,5.68,0.0,-5.65,356.64,356.65000000000003,0.11,0.08,3
38.06613300,38066133,0.0,5.66,0.0,-5.64,356.61,356.62,0.11,0.08,3
38.09749400,38097494,0.0,5.65,0.0,-5.63,356.59000000000003,356.6,0.11,0.08,3
38.12855800,38128558,0.0,5.64,0.0,-5.63,356.57,356.58,0.11,0.08,3
38.15993200,38159932,0.0,5.63,0.0,-5.62,356.55,356.56,0.11,0.08,3
38.19101900,38191019,0.0,5.62,0.0,-5.62,356.53000000000003,356.54,0.11,0.08,3
38.22248800,38222488,0.0,5.61,0.0,-5.61,356.5,356.51,0.11,0.08,3
38.25362200,38253622,0.0,5.6000000000000005,0.0,-5.6000000000000005,356.48,356.49,0.11,0.08,3
38.28511800,38285118,0.0,5.58,0.0,-5.59,356.46,356.47,0.11,0.08,3
38.31607200,38316072,0.0,5.57,0.0,-5.58,356.44,356.45,0.11,0.08,3
38.34752000,38347520,0.0,5.5600000000000005,0.0,-5.58,356.41,356.42,0.11,0.08,3
38.37922600,38379226,0.0,5.55,0.0,-5.57,356.39,356.40000000000003,0.11,0.08,3
38.41020500,38410205,0.0,5.54,0.0,-5.5600000000000005,356.37,356.38,0.11,0.08,3
38.44156500,38441565,0.0,5.53,0.0,-5.55,356.34000000000003,356.35,0.11,0.08,3
38.47249200,38472492,0.0,5.51,0.0,-5.54,356.32,356.33,0.11,0.08,3
38.50399800,38503998,0.0,5.5,0.0,-5.53,356.29,356.3,0.11,0.08,3
38.53490900,38534909,0.0,5.49,0.0,-5.5200000000000005,356.27,356.28000000000003,0.1,0.08,3
38.56653300,38566533,0.0,5.47,0.0,-5.5200000000000005,356.25,356.26,0.1,0.08,3
38.59741300,38597413,0.0,5.46,0.0,-5.51,356.22,356.23,0.1,0.08,3
38.62901700,38629017,0.0,5.45,0.0,-5.5,356.2,356.21,0.1,0.08,3
38.65999100,38659991,0.0,5.44,0.0,-5.5,356.18,356.19,0.1,0.08,3
38.69149400,38691494,0.0,5.43,0.0,-5.49,356.16,356.17,0.1,0.08,3
38.72295100,38722951,0.0,5.42,0.0,-5.48,356.13,356.14,0.1,0.08,3
38.75398300,38753983,0.0,5.4,0.0,-5.47,356.1,356.11,0.1,0.08,3
38.78543000,38785430,0.0,5.39,0.0,-5.46,356.08,356.09000000000003,0.1,0.08,3
38.81654900,38816549,0.0,5.38,0.0,-5.46,356.06,356.07,0.1,0.08,3
38.84805200,38848052,0.0,5.37,0.0,-5.45,356.04,356.05,0.1,0.08,3
38.87929000,38879290,0.0,5.36,0.0,-5.45,356.01,356.02,0.1,0.08,3
38.91067800,38910678,0.0,5.3500000000000005,0.0,-5.44,355.99,356.0,0.1,0.08,3
38.94147500,38941475,0.0,5.34,0.0,-5.43,355.97,355.98,0.1,0.08,3
38.97302200,38973022,0.0,5.33,0.0,-5.42,355.95,355.96,0.1,0.08,3
39.00402200,39004022,0.0,5.3100000000000005,0.0,-5.42,355.92,355.93,0.1,0.08,3
39.03543600,39035436,0.0,5.3,0.0,-5.41,355.90000000000003,355.91,0.1,0.08,3
39.06652500,39066525,0.0,5.29,0.0,-5.4,355.88,355.89,0.1,0.08,3
39.09805000,39098050,0.0,5.28,0.0,-5.39,355.85,355.86,0.1,0.08,3
39.12950900,39129509,0.0,5.26,0.0,-5.38,355.83,355.84000000000003,0.1,0.08,3
39.16049800,39160498,0.0,5.25,0.0,-5.37,355.81,355.82,0.1,0.08,3
39.19193000,39191930,0.0,5.24,0.0,-5.37,355.79,355.8,0.1,0.08,3
39.22292100,39222921,0.0,5.23,0.0,-5.36,355.76,355.77,0.1,0.08,3
39.25449500,39254495,0.0,5.22,0.0,-5.3500000000000005,355.74,355.75,0.1,0.08,3
39.28554500,39285545,0.0,5.2,0.0,-5.34,355.71,355.72,0.1,0.08,3
39.31711200,39317112,0.0,5.19,0.0,-5.34,355.69,355.7,0.1,0.08,3
39.34804200,39348042,0.0,5.18,0.0,-5.33,355.67,355.68,0.1,0.09,3
39.37969800,39379698,0.0,5.17,0.0,-5.32,355.65000000000003,355.66,0.1,0.09,3
39.41129500,39411295,0.0,5.16,0.0,-5.32,355.63,355.64,0.1,0.09,3
39.44206400,39442064,0.0,5.15,0.0,-5.3100000000000005,355.6,355.61,0.1,0.09,3
39.50448000,39504480,0.0,5.13,0.0,-5.3,355.56,355.57,0.1,0.09,3
39.56713500,39567135,0.0,5.11,0.0,-5.29,355.52,355.53000000000003,0.1,0.09,3
39.62967500,39629675,0.0,5.09,0.0,-5.28,355.49,355.5,0.1,0.09,3
39.69190900,39691909,0.0,5.07,0.0,-5.26,355.45,355.46,0.1,0.09,3
39.75502400,39755024,0.0,5.05,0.0,-5.25,355.42,355.43,0.1,0.09,3
39.81750300,39817503,0.0,5.03,0.0,-5.24,355.38,355.39,0.1,0.09,3
39.88031500,39880315,0.0,5.01,0.0,-5.23,355.34000000000003,355.35,0.1,0.09,3
39.94263400,39942634,0.0,4.99,0.0,-5.22,355.31,355.32,0.1,0.09,3
40.00491100,40004911,0.0,4.97,0.0,-5.21,355.28000000000003,355.29,0.1,0.09,3
40.06748200,40067482,0.0,4.96,0.0,-5.2,355.24,355.25,0.1,0.09,3
40.13014900,40130149,0.0,4.94,0.0,-5.19,355.21,355.22,0.1,0.09,3
40.19243000,40192430,0.0,4.92,0.0,-5.18,355.18,355.19,0.1,0.09,3
40.25491700,40254917,0.0,4.9,0.0,-5.17,355.14,355.15000000000003,0.1,0.09,3
40.31740400,40317404,0.0,4.89,0.0,-5.16,355.11,355.12,0.1,0.09,3
40.38083600,40380836,0.0,4.87,0.0,-5.15,355.08,355.09000000000003,0.1,0.09,3
40.44319700,40443197,0.0,4.86,0.0,-5.14,355.05,355.06,0.09,0.09,3
40.50554600,40505546,0.0,4.84,0.0,-5.13,355.02,355.03000000000003,0.09,0.09,3
40.56790100,40567901,0.0,4.83,0.0,-5.12,354.99,355.0,0.09,0.09,3
40.63054800,40630548,0.0,4.8,0.0,-5.11,354.96,354.97,0.09,0.09,3
40.69300600,40693006,0.0,4.79,0.0,-5.1000000000000005,354.93,354.94,0.09,0.09,3
40.75552200,40755522,0.0,4.78,0.0,-5.1000000000000005,354.90000000000003,354.91,0.09,0.09,3
40.81798600,40817986,0.0,4.76,0.0,-5.08,354.87,354.88,0.09,0.09,3
40.88074900,40880749,0.0,4.74,0.0,-5.07,354.84000000000003,354.85,0.09,0.09,3
40.94378200,40943782,0.0,4.72,0.0,-5.0600000000000005,354.81,354.82,0.09,0.09,3
41.00602300,41006023,0.0,4.71,0.0,-5.05,354.78000000000003,354.79,0.09,0.09,3
41.06844800,41068448,0.0,4.69,0.0,-5.04,354.75,354.76,0.09,0.09,3
41.13100400,41131004,0.0,4.68,0.0,-5.03,354.72,354.73,0.09,0.09,3
41.19351900,41193519,0.0,4.66,0.0,-5.0200000000000005,354.69,354.7,0.09,0.09,3
41.25598200,41255982,0.0,4.65,0.0,-5.01,354.66,354.67,0.09,0.09,3
41.31849800,41318498,0.0,4.63,0.0,-5.0,354.64,354.65000000000003,0.09,0.09,3
41.38134800,41381348,0.0,4.61,0.0,-4.99,354.61,354.62,0.09,0.09,3
41.44383800,41443838,0.0,4.6000000000000005,0.0,-4.98,354.58,354.59000000000003,0.09,0.09,3
41.50602800,41506028,0.0,4.58,0.0,-4.97,354.55,354.56,0.09,0.09,3
41.56892500,41568925,0.0,4.5600000000000005,0.0,-4.96,354.53000000000003,354.54,0.09,0.09,3
41.63165900,41631659,0.0,4.55,0.0,-4.95,354.5,354.51,0.09,0.09,3
41.69414100,41694141,0.0,4.53,0.0,-4.95,354.47,354.48,0.09,0.09,3
41.75649400,41756494,0.0,4.5200000000000005,0.0,-4.94,354.45,354.46,0.09,0.09,3
41.81905100,41819051,0.0,4.5,0.0,-4.92,354.42,354.43,0.09,0.09,3
41.88180600,41881806,0.0,4.48,0.0,-4.91,354.40000000000003,354.41,0.09,0.09,3
41.94414800,41944148,0.0,4.47,0.0,-4.9,354.37,354.38,0.09,0.09,3
42.00650400,42006504,0.0,4.46,0.0,-4.89,354.34000000000003,354.35,0.09,0.09,3
42.06904800,42069048,0.0,4.44,0.0,-4.88,354.32,354.33,0.09,0.09,3
42.13223100,42132231,0.0,4.43,0.0,-4.87,354.29,354.3,0.08,0.09,3
42.19464400,42194644,0.0,4.41,0.0,-4.87,354.26,354.27,0.08,0.09,3
42.25701500,42257015,0.0,4.4,0.0,-4.86,354.24,354.25,0.08,0.09,3
42.31950200,42319502,0.0,4.38,0.0,-4.8500000000000005,354.21,354.22,0.08,0.09,3
42.38230000,42382300,0.0,4.37,0.0,-4.84,354.19,354.2,0.08,0.09,3
42.44474700,42444747,0.0,4.3500000000000005,0.0,-4.83,354.16,354.17,0.08,0.09,3
42.50702700,42507027,0.0,4.34,0.0,-4.82,354.14,354.15000000000003,0.08,0.09,3
42.56950800,42569508,0.0,4.32,0.0,-4.8100000000000005,354.11,354.12,0.08,0.09,3
42.63254700,42632547,0.0,4.3100000000000005,0.0,-4.8,354.09000000000003,354.1,0.08,0.09,3
42.69501800,42695018,0.0,4.29,0.0,-4.79,354.06,354.07,0.08,0.09,3
42.75752100,42757521,0.0,4.28,0.0,-4.78,354.04,354.05,0.08,0.09,3
42.82003400,42820034,0.0,4.2700000000000005,0.0,-4.7700000000000005,354.01,354.02,0.08,0.09,3
42.88272900,42882729,0.0,4.25,0.0,-4.76,353.99,354.0,0.08,0.09,3
42.94523500,42945235,0.0,4.24,0.0,-4.75,353.96,353.97,0.08,0.09,3
43.00752200,43007522,0.0,4.22,0.0,-4.74,353.94,353.95,0.08,0.09,3
43.06993400,43069934,0.0,4.21,0.0,-4.73,353.91,353.92,0.08,0.09,3
43.13307200,43133072,0.0,4.19,0.0,-4.73,353.89,353.90000000000003,0.08,0.09,3
43.19553400,43195534,0.0,4.18,0.0,-4.72,353.86,353.87,0.08,0.09,3
43.25799200,43257992,0.0,4.17,0.0,-4.71,353.84000000000003,353.85,0.08,0.09,3
43.32040800,43320408,0.0,4.15,0.0,-4.7,353.82,353.83,0.08,0.09,3
43.38323700,43383237,0.0,4.14,0.0,-4.69,353.79,353.8,0.08,0.09,3
43.44571700,43445717,0.0,4.13,0.0,-4.69,353.77,353.78000000000003,0.08,0.09,3
43.50803600,43508036,0.0,4.11,0.0,-4.68,353.74,353.75,0.08,0.09,3
43.57040400,43570404,0.0,4.1,0.0,-4.67,353.72,353.73,0.08,0.09,3
43.63363100,43633631,0.0,4.08,0.0,-4.66,353.7,353.71,0.08,0.09,3
43.69603400,43696034,0.0,4.07,0.0,-4.65,353.67,353.68,0.08,0.09,3
43.75851300,43758513,0.0,4.05,0.0,-4.65,353.65000000000003,353.66,0.08,0.09,3
43.82091900,43820919,0.0,4.04,0.0,-4.64,353.63,353.64,0.07,0.09,3
43.88380400,43883804,0.0,4.0200000000000005,0.0,-4.64,353.6,353.61,0.07,0.09,3
43.94613300,43946133,0.0,4.01,0.0,-4.63,353.58,353.59000000000003,0.07,0.09,3
44.00848700,44008487,0.0,3.99,0.0,-4.62,353.56,353.57,0.07,0.09,3
44.07102700,44071027,0.0,3.98,0.0,-4.62,353.53000000000003,353.54,0.07,0.09,3
44.13402400,44134024,0.0,3.97,0.0,-4.61,353.51,353.52,0.07,0.09,3
44.19661800,44196618,0.0,3.96,0.0,-4.6000000000000005,353.49,353.5,0.07,0.09,3
44.25897900,44258979,0.0,3.94,0.0,-4.59,353.46,353.47,0.07,0.1,3
44.32141800,44321418,0.0,3.93,0.0,-4.58,353.44,353.45,0.07,0.1,3
44.38433800,44384338,0.0,3.92,0.0,-4.58,353.42,353.43,0.07,0.1,3
44.41823400,44418234,0.0,3.91,0.0,-4.58,353.40000000000003,353.41,0.07,0.1,3
44.41865600,44418656,0.0,3.91,0.0,-4.57,353.40000000000003,353.41,0.07,0.1,3
44.42132300,44421323,0.0,3.9,0.0,-4.5600000000000005,353.37,353.38,0.07,0.1,3
44.42384300,44423843,0.0,3.87,0.0,-4.55,353.35,353.36,0.07,0.1,3
44.42658500,44426585,0.0,3.87,0.0,-4.54,353.33,353.34000000000003,0.07,0.1,3
44.42892800,44428928,0.0,3.86,0.0,-4.53,353.31,353.32,0.07,0.1,3
44.43138500,44431385,0.0,3.84,0.0,-4.53,353.28000000000003,353.29,0.07,0.1,3
44.43383600,44433836,0.0,3.8200000000000003,0.0,-4.5200000000000005,353.26,353.27,0.07,0.1,3
44.43635900,44436359,0.0,3.81,0.0,-4.49,353.24,353.25,0.07,0.1,3
44.43884000,44438840,0.0,3.79,0.0,-4.47,353.21,353.22,0.07,0.1,3
44.44133400,44441334,0.0,3.74,0.0,-4.42,353.17,353.18,0.07,0.1,3
44.44383800,44443838,0.0,3.68,0.0,-4.38,353.12,353.13,0.07,0.1,3
44.44636900,44446369,0.0,3.62,0.0,-4.32,353.07,353.08,0.07,0.1,3
44.44883700,44448837,0.0,3.5700000000000003,0.0,-4.2700000000000005,353.02,353.03000000000003,0.07,0.1,3
44.45133700,44451337,0.0,3.5100000000000002,0.0,-4.21,352.97,352.98,0.07,0.1,3
44.45382400,44453824,0.0,3.44,0.0,-4.15,352.92,352.93,0.07,0.1,3
44.45634700,44456347,0.0,3.39,0.0,-4.11,352.88,352.89,0.07,0.1,3
44.45884000,44458840,0.0,3.34,0.0,-4.0600000000000005,352.84000000000003,352.85,0.07,0.1,3
44.46133900,44461339,0.0,3.29,0.0,-4.03,352.79,352.8,0.07,0.1,3
44.46382900,44463829,0.0,3.25,0.0,-3.99,352.75,352.76,0.07,0.1,3
44.46637000,44466370,0.0,3.2,0.0,-3.95,352.71,352.72,0.07,0.1,3
44.46883100,44468831,0.0,3.16,0.0,-3.91,352.68,352.69,0.07,0.1,3
44.47135300,44471353,0.0,3.13,0.0,-3.88,352.64,352.65000000000003,0.07,0.1,3
44.47383100,44473831,0.0,3.1,0.0,-3.85,352.59000000000003,352.6,0.07,0.1,3
44.47635200,44476352,0.0,3.0700000000000003,0.0,-3.81,352.57,352.58,0.07,0.1,3
44.47883100,44478831,0.0,3.04,0.0,-3.77,352.54,352.55,0.07,0.1,3
44.48135500,44481355,0.0,3.0100000000000002,0.0,-3.74,352.51,352.52,0.07,0.1,3
44.48382600,44483826,0.0,2.99,0.0,-3.72,352.49,352.5,0.07,0.1,3
44.48636400,44486364,0.0,2.96,0.0,-3.68,352.46,352.47,0.07,0.1,3
44.48883500,44488835,0.0,2.94,0.0,-3.66,352.43,352.44,0.07,0.1,3
44.49134500,44491345,0.0,2.92,0.0,-3.66,352.41,352.42,0.07,0.1,3
44.49382700,44493827,0.0,2.88,0.0,-3.64,352.40000000000003,352.41,0.07,0.1,3
44.49634300,44496343,0.0,2.86,0.0,-3.63,352.38,352.39,0.07,0.1,3
44.49884500,44498845,0.0,2.84,0.0,-3.62,352.36,352.37,0.07,0.1,3
44.50135000,44501350,0.0,2.82,0.0,-3.6,352.33,352.34000000000003,0.07,0.1,3
44.50384200,44503842,0.0,2.81,0.0,-3.59,352.32,352.33,0.07,0.1,3
44.50656400,44506564,0.0,2.79,0.0,-3.58,352.29,352.3,0.07,0.1,3
44.50914500,44509145,0.0,2.77,0.0,-3.58,352.28000000000003,352.29,0.07,0.1,3
44.51135200,44511352,0.0,2.75,0.0,-3.5700000000000003,352.33,352.34000000000003,0.07,0.1,3
44.51382800,44513828,0.0,2.72,0.0,-3.56,352.37,352.38,0.07,0.1,3
44.51633800,44516338,0.0,2.7,0.0,-3.5500000000000003,352.42,352.43,0.07,0.1,3
44.51883100,44518831,0.0,2.67,0.0,-3.5100000000000002,352.46,352.47,0.07,0.1,3
44.52133900,44521339,0.0,2.65,0.0,-3.48,352.52,352.53000000000003,0.07,0.1,3
44.52383700,44523837,0.0,2.61,0.0,-3.46,352.56,352.57,0.07,0.1,3
44.52637000,44526370,0.0,2.58,0.0,-3.42,352.61,352.62,0.07,0.1,3
44.52883400,44528834,0.0,2.56,0.0,-3.4,352.66,352.67,0.07,0.1,3
44.53133600,44531336,0.0,2.5300000000000002,0.0,-3.37,352.71,352.72,0.07,0.1,3
44.53383600,44533836,0.0,2.49,0.0,-3.36,352.75,352.76,0.07,0.1,3
44.53633500,44536335,0.0,2.46,0.0,-3.33,352.8,352.81,0.07,0.1,3
44.53883800,44538838,0.0,2.44,0.0,-3.31,352.83,352.84000000000003,0.07,0.1,3
44.54134100,44541341,0.0,2.42,0.0,-3.3000000000000003,352.87,352.88,0.07,0.1,3
44.54383400,44543834,0.0,2.39,0.0,-3.3000000000000003,352.89,352.90000000000003,0.07,0.1,3
44.54636600,44546366,0.0,2.37,0.0,-3.2800000000000002,352.92,352.93,0.07,0.1,3
44.54884500,44548845,0.0,2.36,0.0,-3.2600000000000002,352.95,352.96,0.07,0.1,3
44.55135100,44551351,0.0,2.33,0.0,-3.24,352.96,352.97,0.07,0.1,3
44.55383400,44553834,0.0,2.3000000000000003,0.0,-3.22,352.97,352.98,0.07,0.1,3
44.55638600,44556386,0.0,2.3000000000000003,0.0,-3.22,352.98,352.99,0.07,0.1,3
44.55884800,44558848,0.0,2.2800000000000002,0.0,-3.2,352.98,352.99,0.07,0.1,3
44.56133400,44561334,0.0,2.2600000000000002,0.0,-3.19,353.0,353.01,0.07,0.1,3
44.56385000,44563850,0.0,2.2600000000000002,0.0,-3.18,352.99,353.0,0.07,0.1,3
44.56635300,44566353,0.0,2.24,0.0,-3.18,352.99,353.0,0.07,0.1,3
44.56884400,44568844,0.0,2.23,0.0,-3.17,353.0,353.01,0.07,0.1,3
44.57134800,44571348,0.0,2.21,0.0,-3.16,352.99,353.0,0.07,0.1,3
44.57383600,44573836,0.0,2.19,0.0,-3.15,352.98,352.99,0.07,0.1,3
44.57633900,44576339,0.0,2.16,0.0,-3.14,352.97,352.98,0.07,0.1,3
44.57883600,44578836,0.0,2.16,0.0,-3.14,352.96,352.97,0.07,0.1,3
44.58133800,44581338,0.0,2.15,0.0,-3.13,352.95,352.96,0.07,0.1,3
44.58386100,44583861,0.0,2.13,0.0,-3.13,352.94,352.95,0.07,0.1,3
44.58635800,44586358,0.0,2.12,0.0,-3.13,352.92,352.93,0.07,0.1,3
44.58883900,44588839,0.0,2.12,0.0,-3.13,352.92,352.93,0.07,0.1,3
44.59134000,44591340,0.0,2.12,0.0,-3.12,352.89,352.90000000000003,0.07,0.1,3
44.59384800,44593848,0.0,2.12,0.0,-3.13,352.88,352.89,0.07,0.1,3
44.59634100,44596341,0.0,2.11,0.0,-3.12,352.85,352.86,0.07,0.1,3
44.59883100,44598831,0.0,2.09,0.0,-3.12,352.84000000000003,352.85,0.07,0.1,3
44.60135100,44601351,0.0,2.09,0.0,-3.11,352.82,352.83,0.07,0.1,3
44.60384600,44603846,0.0,2.09,0.0,-3.11,352.8,352.81,0.07,0.1,3
44.60646400,44606464,0.0,2.09,0.0,-3.11,352.79,352.8,0.07,0.1,3
44.60916800,44609168,0.0,2.08,0.0,-3.12,352.77,352.78000000000003,0.07,0.09,3
44.61135500,44611355,0.0,2.04,0.0,-3.1,352.94,352.95,0.07,0.09,3
44.61382600,44613826,0.0,1.99,0.0,-3.06,353.11,353.12,0.07,0.09,3
44.61635800,44616358,0.0,1.95,0.0,-3.04,353.28000000000003,353.29,0.07,0.09,3
44.61882800,44618828,0.0,1.9000000000000001,0.0,-3.02,353.45,353.46,0.07,0.09,3
44.62134300,44621343,0.0,1.86,0.0,-3.0,353.62,353.63,0.07,0.09,3
44.62382700,44623827,0.0,1.8,0.0,-2.98,353.79,353.8,0.07,0.09,3
44.62654700,44626547,0.0,1.75,0.0,-2.95,353.97,353.98,0.07,0.09,3
44.62883200,44628832,0.0,1.7,0.0,-2.91,354.12,354.13,0.07,0.09,3
44.63134200,44631342,0.0,1.6500000000000001,0.0,-2.88,354.3,354.31,0.07,0.09,3
44.63383700,44633837,0.0,1.6,0.0,-2.85,354.46,354.47,0.07,0.09,3
44.63634300,44636343,0.0,1.54,0.0,-2.83,354.61,354.62,0.07,0.09,3
44.63884200,44638842,0.0,1.49,0.0,-2.81,354.75,354.76,0.07,0.09,3
44.64131500,44641315,0.0,1.45,0.0,-2.7800000000000002,354.87,354.88,0.07,0.09,3
44.64384000,44643840,0.0,1.41,0.0,-2.7600000000000002,354.99,355.0,0.07,0.09,3
44.64635800,44646358,0.0,1.37,0.0,-2.75,355.09000000000003,355.1,0.07,0.09,3
44.64884200,44648842,0.0,1.33,0.0,-2.74,355.2,355.21,0.07,0.09,3
44.65135000,44651350,0.0,1.31,0.0,-2.72,355.27,355.28000000000003,0.07,0.09,3
44.65383000,44653830,0.0,1.27,0.0,-2.69,355.34000000000003,355.35,0.07,0.09,3
44.65635500,44656355,0.0,1.25,0.0,-2.68,355.40000000000003,355.41,0.07,0.09,3
44.65883300,44658833,0.0,1.23,0.0,-2.67,355.44,355.45,0.07,0.09,3
44.66135000,44661350,0.0,1.2,0.0,-2.63,355.48,355.49,0.07,0.09,3
44.66384600,44663846,0.0,1.18,0.0,-2.62,355.52,355.53000000000003,0.07,0.09,3
44.66635700,44666357,0.0,1.17,0.0,-2.6,355.54,355.55,0.07,0.09,3
44.66884000,44668840,0.0,1.1500000000000001,0.0,-2.59,355.55,355.56,0.07,0.09,3
44.67134100,44671341,0.0,1.1400000000000001,0.0,-2.59,355.55,355.56,0.07,0.09,3
44.67384200,44673842,0.0,1.1300000000000001,0.0,-2.59,355.56,355.57,0.07,0.09,3
44.67633400,44676334,0.0,1.12,0.0,-2.59,355.55,355.56,0.07,0.09,3
44.67883600,44678836,0.0,1.12,0.0,-2.6,355.54,355.55,0.07,0.09,3
44.68132900,44681329,0.0,1.12,0.0,-2.6,355.53000000000003,355.54,0.07,0.09,3
44.68386200,44683862,0.0,1.11,0.0,-2.59,355.52,355.53000000000003,0.07,0.09,3
44.68634700,44686347,0.0,1.11,0.0,-2.59,355.5,355.51,0.07,0.09,3
44.68885000,44688850,0.0,1.12,0.0,-2.6,355.49,355.5,0.07,0.09,3
44.69133200,44691332,0.0,1.11,0.0,-2.6,355.46,355.47,0.07,0.09,3
44.69384300,44693843,0.0,1.09,0.0,-2.6,355.44,355.45,0.07,0.09,3
44.69633400,44696334,0.0,1.08,0.0,-2.59,355.42,355.43,0.07,0.09,3
44.69883600,44698836,0.0,1.07,0.0,-2.58,355.39,355.40000000000003,0.07,0.09,3
44.70135300,44701353,0.0,1.07,0.0,-2.59,355.37,355.38,0.07,0.09,3
44.70384200,44703842,0.0,1.07,0.0,-2.59,355.36,355.37,0.07,0.09,3
44.70656900,44706569,0.0,1.07,0.0,-2.59,355.32,355.33,0.07,0.09,3
44.70922500,44709225,0.0,1.06,0.0,-2.58,355.31,355.32,0.07,0.08,3
44.71132100,44711321,0.0,1.0,0.0,-2.57,355.54,355.55,0.07,0.08,3
44.71384400,44713844,0.0,0.96,0.0,-2.54,355.77,355.78000000000003,0.07,0.08,3
44.71634600,44716346,0.0,0.9,0.0,-2.52,356.0,356.01,0.07,0.08,3
44.71884000,44718840,0.0,0.84,0.0,-2.5,356.25,356.26,0.07,0.08,3
44.72133200,44721332,0.0,0.77,0.0,-2.47,356.48,356.49,0.07,0.08,3
44.72384300,44723843,0.0,0.72,0.0,-2.45,356.71,356.72,0.07,0.08,3
44.72635500,44726355,0.0,0.66,0.0,-2.42,356.96,356.97,0.07,0.08,3
44.72885500,44728855,0.0,0.59,0.0,-2.37,357.2,357.21,0.07,0.08,3
44.73133200,44731332,0.0,0.54,0.0,-2.35,357.44,357.45,0.07,0.08,3
44.73386000,44733860,0.0,0.49,0.0,-2.33,357.66,357.67,0.07,0.08,3
44.73633800,44736338,0.0,0.45,0.0,-2.31,357.88,357.89,0.07,0.08,3
44.73885200,44738852,0.0,0.4,0.0,-2.31,358.08,358.09000000000003,0.07,0.08,3
44.74133300,44741333,0.0,0.34,0.0,-2.29,358.25,358.26,0.07,0.08,3
44.74383500,44743835,0.0,0.29,0.0,-2.25,358.41,358.42,0.07,0.08,3
44.74635300,44746353,0.0,0.25,0.0,-2.23,358.56,358.57,0.07,0.08,3
44.74883600,44748836,0.0,0.21,0.0,-2.2,358.68,358.69,0.07,0.08,3
44.75135700,44751357,0.0,0.16,0.0,-2.18,358.79,358.8,0.07,0.08,3
44.75383400,44753834,0.0,0.14,0.0,-2.15,358.89,358.90000000000003,0.07,0.08,3
44.75635200,44756352,0.0,0.11,0.0,-2.14,358.98,358.99,0.07,0.08,3
44.75887400,44758874,0.0,0.08,0.0,-2.12,359.04,359.05,0.07,0.08,3
44.76135300,44761353,0.0,0.06,0.0,-2.12,359.11,359.12,0.07,0.08,3
44.76383200,44763832,0.0,0.05,0.0,-2.1,359.15000000000003,359.16,0.07,0.08,3
44.76635900,44766359,0.0,0.03,0.0,-2.1,359.18,359.19,0.07,0.08,3
44.76884500,44768845,0.0,0.0,0.0,-2.08,359.21,359.22,0.07,0.08,3
44.77133500,44771335,0.0,0.0,0.0,-2.08,359.22,359.23,0.07,0.08,3
44.77384500,44773845,0.0,0.0,0.0,-2.09,359.24,359.25,0.07,0.08,3
44.77633800,44776338,0.0,-0.01,0.0,-2.07,359.24,359.25,0.07,0.08,3
44.77883300,44778833,0.0,-0.01,0.0,-2.07,359.23,359.24,0.07,0.08,3
44.78133700,44781337,0.0,-0.02,0.0,-2.06,359.22,359.23,0.07,0.08,3
44.78383200,44783832,0.0,-0.04,0.0,-2.04,359.2,359.21,0.07,0.08,3
44.78638500,44786385,0.0,-0.06,0.0,-2.0300000000000002,359.18,359.19,0.07,0.08,3
44.78883100,44788831,0.0,-0.07,0.0,-2.02,359.18,359.19,0.07,0.08,3
44.79134100,44791341,0.0,-0.09,0.0,-2.0100000000000002,359.14,359.15000000000003,0.07,0.08,3
44.79382900,44793829,0.0,-0.09,0.0,-2.02,359.13,359.14,0.07,0.08,3
44.79636100,44796361,0.0,-0.1,0.0,-2.0300000000000002,359.1,359.11,0.06,0.08,3
44.79883400,44798834,0.0,-0.09,0.0,-2.02,359.07,359.08,0.06,0.08,3
44.80134700,44801347,0.0,-0.1,0.0,-2.02,359.05,359.06,0.06,0.08,3
44.80383300,44803833,0.0,-0.1,0.0,-2.0100000000000002,359.02,359.03000000000003,0.06,0.08,3
44.80654100,44806541,0.0,-0.12,0.0,-2.02,358.99,359.0,0.06,0.08,3
44.80918500,44809185,0.0,-0.13,0.0,-2.0100000000000002,358.96,358.97,0.06,0.07,3
44.81132400,44811324,0.0,-0.17,0.0,-1.99,359.14,359.15000000000003,0.06,0.07,3
44.81384800,44813848,0.0,-0.21,0.0,-2.0,359.32,359.33,0.06,0.07,3
44.81633300,44816333,0.0,-0.25,0.0,-1.98,359.5,359.51,0.06,0.07,3
44.81885200,44818852,0.0,-0.29,0.0,-1.96,359.68,359.69,0.06,0.07,3
44.82134600,44821346,0.0,-0.32,0.0,-1.95,359.87,359.88,0.06,0.07,3
44.82383100,44823831,0.0,-0.37,0.0,-1.93,0.05,0.05,0.06,0.07,3
44.82636700,44826367,0.0,-0.41000000000000003,0.0,-1.92,0.24,0.24,0.06,0.07,3
44.82883700,44828837,0.0,-0.45,0.0,-1.9100000000000001,0.42,0.42,0.06,0.07,3
44.83133700,44831337,0.0,-0.49,0.0,-1.9000000000000001,0.61,0.61,0.06,0.07,3
44.83383700,44833837,0.0,-0.53,0.0,-1.8900000000000001,0.79,0.79,0.06,0.07,3
44.83633400,44836334,0.0,-0.5700000000000001,0.0,-1.86,0.96,0.96,0.06,0.07,3
44.83883800,44838838,0.0,-0.6,0.0,-1.84,1.11,1.11,0.06,0.07,3
44.84134900,44841349,0.0,-0.65,0.0,-1.83,1.25,1.25,0.06,0.07,3
44.84384100,44843841,0.0,-0.68,0.0,-1.81,1.3800000000000001,1.3800000000000001,0.06,0.07,3
44.84635700,44846357,0.0,-0.71,0.0,-1.79,1.49,1.49,0.06,0.07,3
44.84883300,44848833,0.0,-0.74,0.0,-1.77,1.59,1.59,0.06,0.07,3
44.85133700,44851337,0.0,-0.76,0.0,-1.75,1.68,1.68,0.06,0.07,3
44.85383300,44853833,0.0,-0.77,0.0,-1.74,1.76,1.76,0.06,0.07,3
44.85634100,44856341,0.0,-0.79,0.0,-1.74,1.82,1.82,0.06,0.07,3
44.85883500,44858835,0.0,-0.81,0.0,-1.72,1.87,1.87,0.06,0.07,3
44.86133200,44861332,0.0,-0.8300000000000001,0.0,-1.72,1.9100000000000001,1.9100000000000001,0.06,0.07,3
44.86384900,44863849,0.0,-0.86,0.0,-1.71,1.95,1.95,0.06,0.07,3
44.86637500,44866375,0.0,-0.89,0.0,-1.69,1.99,1.99,0.06,0.07,3
44.86883600,44868836,0.0,-0.91,0.0,-1.69,2.0,2.0,0.06,0.07,3
44.87133800,44871338,0.0,-0.93,0.0,-1.6600000000000001,2.0100000000000002,2.0100000000000002,0.06,0.07,3
44.87385000,44873850,0.0,-0.9500000000000001,0.0,-1.6500000000000001,2.0100000000000002,2.0100000000000002,0.06,0.07,3
44.87664700,44876647,0.0,-0.97,0.0,-1.6600000000000001,2.02,2.02,0.06,0.07,3
44.87912800,44879128,0.0,-0.97,0.0,-1.6600000000000001,2.0100000000000002,2.0100000000000002,0.06,0.07,3
44.88136800,44881368,0.0,-0.98,0.0,-1.6600000000000001,2.0100000000000002,2.0100000000000002,0.06,0.07,3
44.88382800,44883828,0.0,-0.98,0.0,-1.6600000000000001,2.0,2.0,0.06,0.07,3
44.88639200,44886392,0.0,-1.0,0.0,-1.6500000000000001,1.98,1.98,0.06,0.07,3
44.88883300,44888833,0.0,-1.0,0.0,-1.6400000000000001,1.95,1.95,0.06,0.07,3
44.89135400,44891354,0.0,-1.01,0.0,-1.6500000000000001,1.94,1.94,0.06,0.07,3
44.89383000,44893830,0.0,-1.02,0.0,-1.6500000000000001,1.9100000000000001,1.9100000000000001,0.06,0.07,3
44.89635000,44896350,0.0,-1.02,0.0,-1.6400000000000001,1.8900000000000001,1.8900000000000001,0.06,0.07,3
44.89882800,44898828,0.0,-1.02,0.0,-1.6300000000000001,1.86,1.86,0.06,0.07,3
44.90136200,44901362,0.0,-1.04,0.0,-1.6300000000000001,1.84,1.84,0.06,0.07,3
44.90382800,44903828,0.0,-1.04,0.0,-1.62,1.82,1.82,0.06,0.07,3
44.90655100,44906551,0.0,-1.04,0.0,-1.61,1.79,1.79,0.06,0.07,3
44.90923200,44909232,0.0,-1.06,0.0,-1.6,1.77,1.77,0.06,0.07,3
44.91134700,44911347,0.0,-1.08,0.0,-1.61,1.85,1.85,0.06,0.07,3
44.91384800,44913848,0.0,-1.09,0.0,-1.61,1.92,1.92,0.06,0.07,3
44.91636300,44916363,0.0,-1.12,0.0,-1.61,2.0,2.0,0.06,0.07,3
44.91885000,44918850,0.0,-1.1400000000000001,0.0,-1.6,2.09,2.09,0.06,0.07,3
44.92134200,44921342,0.0,-1.16,0.0,-1.62,2.16,2.16,0.06,0.07,3
44.92383400,44923834,0.0,-1.18,0.0,-1.6,2.25,2.25,0.06,0.07,3
44.92638600,44926386,0.0,-1.21,0.0,-1.59,2.33,2.33,0.06,0.07,3
44.92882900,44928829,0.0,-1.23,0.0,-1.59,2.42,2.42,0.06,0.07,3
44.93135600,44931356,0.0,-1.25,0.0,-1.58,2.5100000000000002,2.5100000000000002,0.06,0.07,3
44.93383000,44933830,0.0,-1.29,0.0,-1.57,2.57,2.57,0.06,0.07,3
44.93637300,44936373,0.0,-1.3,0.0,-1.57,2.64,2.64,0.06,0.07,3
44.93882800,44938828,0.0,-1.32,0.0,-1.56,2.7,2.7,0.06,0.07,3
44.94134300,44941343,0.0,-1.34,0.0,-1.56,2.7600000000000002,2.7600000000000002,0.06,0.07,3
44.94382700,44943827,0.0,-1.34,0.0,-1.58,2.82,2.82,0.06,0.07,3
44.94638400,44946384,0.0,-1.37,0.0,-1.56,2.86,2.86,0.06,0.07,3
44.94882900,44948829,0.0,-1.3900000000000001,0.0,-1.55,2.91,2.91,0.06,0.07,3
44.95134600,44951346,0.0,-1.42,0.0,-1.54,2.95,2.95,0.06,0.07,3
44.95383800,44953838,0.0,-1.43,0.0,-1.55,2.97,2.97,0.06,0.07,3
44.95635200,44956352,0.0,-1.46,0.0,-1.54,3.0,3.0,0.06,0.07,3
44.95883400,44958834,0.0,-1.47,0.0,-1.52,3.02,3.02,0.06,0.07,3
44.96137300,44961373,0.0,-1.47,0.0,-1.52,3.0300000000000002,3.0300000000000002,0.06,0.07,3
44.96383400,44963834,0.0,-1.5,0.0,-1.49,3.04,3.04,0.06,0.07,3
44.96637100,44966371,0.0,-1.51,0.0,-1.5,3.0500000000000003,3.0500000000000003,0.06,0.07,3
44.96884100,44968841,0.0,-1.54,0.0,-1.47,3.0500000000000003,3.0500000000000003,0.06,0.07,3
44.97135600,44971356,0.0,-1.55,0.0,-1.46,3.04,3.04,0.06,0.07,3
44.97383300,44973833,0.0,-1.55,0.0,-1.46,3.04,3.04,0.06,0.07,3
44.97636100,44976361,0.0,-1.57,0.0,-1.46,3.04,3.04,0.06,0.07,3
44.97884800,44978848,0.0,-1.58,0.0,-1.45,3.02,3.02,0.06,0.07,3
44.98133800,44981338,0.0,-1.57,0.0,-1.45,3.0100000000000002,3.0100000000000002,0.06,0.07,3
44.98383800,44983838,0.0,-1.59,0.0,-1.45,3.0,3.0,0.06,0.07,3
44.98636300,44986363,0.0,-1.6,0.0,-1.44,2.99,2.99,0.06,0.07,3
44.98883700,44988837,0.0,-1.61,0.0,-1.44,2.97,2.97,0.06,0.07,3
44.99134100,44991341,0.0,-1.61,0.0,-1.44,2.96,2.96,0.06,0.07,3
44.99383900,44993839,0.0,-1.61,0.0,-1.45,2.94,2.94,0.06,0.07,3
44.99634800,44996348,0.0,-1.61,0.0,-1.44,2.93,2.93,0.06,0.07,3
44.99885600,44998856,0.0,-1.6300000000000001,0.0,-1.43,2.9,2.9,0.05,0.07,3
45.00135600,45001356,0.0,-1.6300000000000001,0.0,-1.43,2.88,2.88,0.05,0.07,3
45.00383400,45003834,0.0,-1.6500000000000001,0.0,-1.43,2.86,2.86,0.05,0.07,3
45.00646300,45006463,0.0,-1.67,0.0,-1.43,2.84,2.84,0.05,0.07,3
45.00917500,45009175,0.0,-1.67,0.0,-1.44,2.83,2.83,0.05,0.06,3
45.01133100,45011331,0.0,-1.67,0.0,-1.46,2.82,2.82,0.05,0.06,3
45.01383800,45013838,0.0,-1.69,0.0,-1.44,2.83,2.83,0.05,0.06,3
45.01634600,45016346,0.0,-1.7,0.0,-1.44,2.83,2.83,0.05,0.06,3
45.01883800,45018838,0.0,-1.7,0.0,-1.46,2.84,2.84,0.05,0.06,3
45.02134600,45021346,0.0,-1.71,0.0,-1.46,2.85,2.85,0.05,0.06,3
45.02384500,45023845,0.0,-1.73,0.0,-1.46,2.85,2.85,0.05,0.06,3
45.02638100,45026381,0.0,-1.73,0.0,-1.47,2.86,2.86,0.05,0.06,3
45.02883200,45028832,0.0,-1.75,0.0,-1.49,2.87,2.87,0.05,0.06,3
45.03135300,45031353,0.0,-1.76,0.0,-1.5,2.87,2.87,0.05,0.06,3
45.03383100,45033831,0.0,-1.75,0.0,-1.51,2.88,2.88,0.05,0.06,3
45.03636000,45036360,0.0,-1.76,0.0,-1.5,2.89,2.89,0.05,0.06,3
45.03882700,45038827,0.0,-1.78,0.0,-1.49,2.89,2.89,0.05,0.06,3
45.04138100,45041381,0.0,-1.8,0.0,-1.49,2.9,2.9,0.05,0.06,3
45.04386800,45043868,0.0,-1.81,0.0,-1.49,2.9,2.9,0.05,0.06,3
45.04638400,45046384,0.0,-1.82,0.0,-1.51,2.9,2.9,0.05,0.06,3
45.04886300,45048863,0.0,-1.84,0.0,-1.49,2.89,2.89,0.05,0.06,3
45.05135000,45051350,0.0,-1.84,0.0,-1.5,2.9,2.9,0.05,0.06,3
45.05384500,45053845,0.0,-1.83,0.0,-1.52,2.89,2.89,0.05,0.06,3
45.05636400,45056364,0.0,-1.84,0.0,-1.51,2.89,2.89,0.05,0.06,3
45.05883100,45058831,0.0,-1.86,0.0,-1.5,2.88,2.88,0.05,0.06,3
45.06135600,45061356,0.0,-1.86,0.0,-1.49,2.87,2.87,0.05,0.06,3
45.06383100,45063831,0.0,-1.8800000000000001,0.0,-1.48,2.87,2.87,0.05,0.06,3
45.06637600,45066376,0.0,-1.8900000000000001,0.0,-1.48,2.86,2.86,0.05,0.06,3
45.06883100,45068831,0.0,-1.8900000000000001,0.0,-1.49,2.86,2.86,0.05,0.06,3
45.07136200,45071362,0.0,-1.9000000000000001,0.0,-1.49,2.85,2.85,0.05,0.06,3
45.07383500,45073835,0.0,-1.9100000000000001,0.0,-1.48,2.84,2.84,0.05,0.06,3
45.07635600,45076356,0.0,-1.93,0.0,-1.47,2.81,2.81,0.05,0.06,3
45.07883400,45078834,0.0,-1.93,0.0,-1.48,2.81,2.81,0.05,0.06,3
45.08133600,45081336,0.0,-1.93,0.0,-1.47,2.8000000000000003,2.8000000000000003,0.05,0.06,3
45.08385200,45083852,0.0,-1.94,0.0,-1.48,2.79,2.79,0.05,0.06,3
45.08636500,45086365,0.0,-1.95,0.0,-1.47,2.7800000000000002,2.7800000000000002,0.05,0.06,3
45.08886500,45088865,0.0,-1.96,0.0,-1.46,2.77,2.77,0.05,0.06,3
45.09133400,45091334,0.0,-1.98,0.0,-1.45,2.75,2.75,0.05,0.06,3
45.09383800,45093838,0.0,-1.98,0.0,-1.46,2.73,2.73,0.05,0.06,3
45.09633300,45096333,0.0,-2.0,0.0,-1.44,2.72,2.72,0.05,0.06,3
45.09883500,45098835,0.0,-2.0100000000000002,0.0,-1.44,2.72,2.72,0.05,0.06,3
45.10134200,45101342,0.0,-2.0100000000000002,0.0,-1.43,2.7,2.7,0.05,0.06,3
45.10383900,45103839,0.0,-2.02,0.0,-1.43,2.68,2.68,0.05,0.06,3
45.10643300,45106433,0.0,-2.02,0.0,-1.42,2.67,2.67,0.05,0.06,3
45.10917100,45109171,0.0,-2.0300000000000002,0.0,-1.43,2.66,2.66,0.05,0.05,3
45.11134600,45111346,0.0,-2.04,0.0,-1.42,2.63,2.63,0.05,0.05,3
45.11385500,45113855,0.0,-2.04,0.0,-1.43,2.6,2.6,0.05,0.05,3
45.11633600,45116336,0.0,-2.04,0.0,-1.46,2.58,2.58,0.05,0.05,3
45.11884000,45118840,0.0,-2.04,0.0,-1.47,2.5500000000000003,2.5500000000000003,0.05,0.05,3
45.12133400,45121334,0.0,-2.05,0.0,-1.47,2.52,2.52,0.05,0.05,3
45.12383900,45123839,0.0,-2.05,0.0,-1.5,2.49,2.49,0.05,0.05,3
45.12641300,45126413,0.0,-2.05,0.0,-1.51,2.47,2.47,0.05,0.05,3
45.12885700,45128857,0.0,-2.05,0.0,-1.53,2.45,2.45,0.05,0.05,3
45.13133300,45131333,0.0,-2.05,0.0,-1.55,2.43,2.43,0.05,0.05,3
45.13385500,45133855,0.0,-2.06,0.0,-1.55,2.38,2.38,0.05,0.05,3
45.13634800,45136348,0.0,-2.06,0.0,-1.55,2.36,2.36,0.05,0.05,3
45.13884000,45138840,0.0,-2.07,0.0,-1.55,2.34,2.34,0.05,0.05,3
45.14133300,45141333,0.0,-2.08,0.0,-1.54,2.32,2.32,0.05,0.05,3
45.14384000,45143840,0.0,-2.11,0.0,-1.53,2.29,2.29,0.05,0.05,3
45.14635200,45146352,0.0,-2.12,0.0,-1.52,2.2600000000000002,2.2600000000000002,0.05,0.05,3
45.14884100,45148841,0.0,-2.14,0.0,-1.5,2.24,2.24,0.05,0.05,3
45.15133700,45151337,0.0,-2.14,0.0,-1.52,2.22,2.22,0.05,0.05,3
45.15384100,45153841,0.0,-2.14,0.0,-1.51,2.2,2.2,0.05,0.05,3
45.15635100,45156351,0.0,-2.14,0.0,-1.51,2.18,2.18,0.05,0.05,3
45.15882700,45158827,0.0,-2.16,0.0,-1.51,2.16,2.16,0.05,0.05,3
45.16133400,45161334,0.0,-2.17,0.0,-1.52,2.15,2.15,0.05,0.05,3
45.16383600,45163836,0.0,-2.17,0.0,-1.52,2.14,2.14,0.05,0.05,3
45.16636100,45166361,0.0,-2.18,0.0,-1.53,2.12,2.12,0.05,0.05,3
45.16883100,45168831,0.0,-2.2,0.0,-1.53,2.09,2.09,0.05,0.05,3
45.17134000,45171340,0.0,-2.19,0.0,-1.53,2.09,2.09,0.05,0.05,3
45.17383200,45173832,0.0,-2.2,0.0,-1.53,2.07,2.07,0.05,0.05,3
45.17635200,45176352,0.0,-2.2,0.0,-1.53,2.06,2.06,0.05,0.05,3
45.17884700,45178847,0.0,-2.21,0.0,-1.51,2.05,2.05,0.05,0.05,3
45.18136000,45181360,0.0,-2.22,0.0,-1.5,2.0300000000000002,2.0300000000000002,0.05,0.05,3
45.18383000,45183830,0.0,-2.23,0.0,-1.48,2.0300000000000002,2.0300000000000002,0.05,0.05,3
45.18637100,45186371,0.0,-2.25,0.0,-1.47,2.0100000000000002,2.0100000000000002,0.05,0.05,3
45.18884200,45188842,0.0,-2.27,0.0,-1.46,2.0,2.0,0.05,0.05,3
45.19134200,45191342,0.0,-2.29,0.0,-1.44,1.98,1.98,0.05,0.05,3
45.19382900,45193829,0.0,-2.3000000000000003,0.0,-1.43,1.97,1.97,0.05,0.05,3
45.19634200,45196342,0.0,-2.32,0.0,-1.42,1.96,1.96,0.05,0.05,3
45.19883000,45198830,0.0,-2.33,0.0,-1.41,1.95,1.95,0.05,0.05,3
45.20137200,45201372,0.0,-2.35,0.0,-1.3900000000000001,1.93,1.93,0.04,0.05,3
45.20382900,45203829,0.0,-2.35,0.0,-1.4000000000000001,1.93,1.93,0.04,0.05,3
45.20646500,45206465,0.0,-2.35,0.0,-1.4000000000000001,1.9100000000000001,1.9100000000000001,0.04,0.05,3
45.20917000,45209170,0.0,-2.37,0.0,-1.3900000000000001,1.8900000000000001,1.8900000000000001,0.04,0.05,3
45.21134000,45211340,0.0,-2.37,0.0,-1.4000000000000001,1.87,1.87,0.04,0.05,3
45.21382500,45213825,0.0,-2.38,0.0,-1.42,1.84,1.84,0.04,0.05,3
45.21636200,45216362,0.0,-2.36,0.0,-1.43,1.8,1.8,0.04,0.05,3
45.21880700,45218807,0.0,-2.37,0.0,-1.44,1.78,1.78,0.04,0.05,3
45.22132400,45221324,0.0,-2.38,0.0,-1.45,1.73,1.73,0.04,0.05,3
45.22382400,45223824,0.0,-2.37,0.0,-1.47,1.71,1.71,0.04,0.05,3
45.22633900,45226339,0.0,-2.38,0.0,-1.49,1.69,1.69,0.04,0.05,3
45.22880800,45228808,0.0,-2.38,0.0,-1.5,1.6500000000000001,1.6500000000000001,0.04,0.05,3
45.23132000,45231320,0.0,-2.36,0.0,-1.52,1.62,1.62,0.04,0.05,3
45.23385900,45233859,0.0,-2.36,0.0,-1.52,1.59,1.59,0.04,0.05,3
45.23633700,45236337,0.0,-2.36,0.0,-1.53,1.57,1.57,0.04,0.05,3
45.23883500,45238835,0.0,-2.35,0.0,-1.54,1.53,1.53,0.04,0.05,3
45.24136000,45241360,0.0,-2.35,0.0,-1.55,1.5,1.5,0.04,0.05,3
45.24383700,45243837,0.0,-2.35,0.0,-1.56,1.48,1.48,0.04,0.05,3
45.24636900,45246369,0.0,-2.37,0.0,-1.55,1.46,1.46,0.04,0.05,3
45.24882900,45248829,0.0,-2.37,0.0,-1.56,1.45,1.45,0.04,0.05,3
45.25133200,45251332,0.0,-2.36,0.0,-1.58,1.43,1.43,0.04,0.05,3
45.25383800,45253838,0.0,-2.36,0.0,-1.59,1.4000000000000001,1.4000000000000001,0.04,0.05,3
45.25633800,45256338,0.0,-2.37,0.0,-1.59,1.3800000000000001,1.3800000000000001,0.04,0.05,3
45.25883800,45258838,0.0,-2.4,0.0,-1.58,1.36,1.36,0.04,0.05,3
45.26133400,45261334,0.0,-2.41,0.0,-1.57,1.35,1.35,0.04,0.05,3
45.26383500,45263835,0.0,-2.42,0.0,-1.57,1.33,1.33,0.04,0.05,3
45.26636100,45266361,0.0,-2.43,0.0,-1.59,1.31,1.31,0.04,0.05,3
45.26885000,45268850,0.0,-2.43,0.0,-1.59,1.29,1.29,0.04,0.05,3
45.27133800,45271338,0.0,-2.43,0.0,-1.59,1.28,1.28,0.04,0.05,3
45.27383500,45273835,0.0,-2.44,0.0,-1.59,1.26,1.26,0.04,0.05,3
45.27633700,45276337,0.0,-2.46,0.0,-1.58,1.24,1.24,0.04,0.05,3
45.27883300,45278833,0.0,-2.47,0.0,-1.58,1.23,1.23,0.04,0.05,3
45.28133700,45281337,0.0,-2.48,0.0,-1.57,1.21,1.21,0.04,0.05,3
45.28383600,45283836,0.0,-2.48,0.0,-1.58,1.2,1.2,0.04,0.05,3
45.28637000,45286370,0.0,-2.49,0.0,-1.59,1.18,1.18,0.04,0.05,3
45.28884400,45288844,0.0,-2.5,0.0,-1.58,1.18,1.18,0.04,0.05,3
45.29134800,45291348,0.0,-2.49,0.0,-1.58,1.17,1.17,0.04,0.05,3
45.29384800,45293848,0.0,-2.5100000000000002,0.0,-1.57,1.16,1.16,0.04,0.05,3
45.29633800,45296338,0.0,-2.5100000000000002,0.0,-1.56,1.1400000000000001,1.1400000000000001,0.04,0.05,3
45.29883500,45298835,0.0,-2.5300000000000002,0.0,-1.56,1.1300000000000001,1.1300000000000001,0.04,0.05,3
45.30134800,45301348,0.0,-2.54,0.0,-1.55,1.11,1.11,0.04,0.05,3
45.30382700,45303827,0.0,-2.5500000000000003,0.0,-1.55,1.11,1.11,0.04,0.05,3
45.30643400,45306434,0.0,-2.57,0.0,-1.55,1.09,1.09,0.04,0.05,3
45.30916900,45309169,0.0,-2.59,0.0,-1.55,1.09,1.09,0.04,0.05,3
45.31134700,45311347,0.0,-2.59,0.0,-1.56,1.06,1.06,0.04,0.05,3
45.31384500,45313845,0.0,-2.57,0.0,-1.57,1.03,1.03,0.04,0.05,3
45.31635900,45316359,0.0,-2.56,0.0,-1.58,1.01,1.01,0.04,0.05,3
45.31883100,45318831,0.0,-2.5500000000000003,0.0,-1.6,1.0,1.0,0.04,0.05,3
45.32135900,45321359,0.0,-2.54,0.0,-1.62,0.98,0.98,0.04,0.05,3
45.32383200,45323832,0.0,-2.5300000000000002,0.0,-1.6300000000000001,0.96,0.96,0.04,0.05,3
45.32636100,45326361,0.0,-2.5300000000000002,0.0,-1.6500000000000001,0.9400000000000001,0.9400000000000001,0.04,0.05,3
45.32884200,45328842,0.0,-2.54,0.0,-1.6600000000000001,0.92,0.92,0.04,0.05,3
45.33134200,45331342,0.0,-2.5300000000000002,0.0,-1.6600000000000001,0.9,0.9,0.04,0.05,3
45.33382700,45333827,0.0,-2.54,0.0,-1.68,0.89,0.89,0.04,0.05,3
45.33636800,45336368,0.0,-2.5300000000000002,0.0,-1.7,0.87,0.87,0.04,0.05,3
45.33884100,45338841,0.0,-2.52,0.0,-1.7,0.85,0.85,0.04,0.05,3
45.34134300,45341343,0.0,-2.5,0.0,-1.71,0.8300000000000001,0.8300000000000001,0.04,0.05,3
45.34383100,45343831,0.0,-2.5100000000000002,0.0,-1.71,0.81,0.81,0.04,0.05,3
45.34638500,45346385,0.0,-2.5,0.0,-1.72,0.8,0.8,0.04,0.05,3
45.34883400,45348834,0.0,-2.5,0.0,-1.74,0.78,0.78,0.04,0.05,3
45.35134000,45351340,0.0,-2.5,0.0,-1.75,0.76,0.76,0.04,0.05,3
45.35383200,45353832,0.0,-2.52,0.0,-1.76,0.75,0.75,0.04,0.05,3
45.35634600,45356346,0.0,-2.5100000000000002,0.0,-1.75,0.73,0.73,0.04,0.05,3
45.35884700,45358847,0.0,-2.5100000000000002,0.0,-1.75,0.71,0.71,0.04,0.05,3
45.36133700,45361337,0.0,-2.5100000000000002,0.0,-1.76,0.6900000000000001,0.6900000000000001,0.04,0.05,3
45.36383000,45363830,0.0,-2.52,0.0,-1.76,0.67,0.67,0.04,0.05,3
45.36635800,45366358,0.0,-2.5300000000000002,0.0,-1.77,0.66,0.66,0.04,0.05,3
45.36883500,45368835,0.0,-2.5300000000000002,0.0,-1.76,0.64,0.64,0.04,0.05,3
45.37133400,45371334,0.0,-2.5500000000000003,0.0,-1.74,0.62,0.62,0.04,0.05,3
45.37383600,45373836,0.0,-2.56,0.0,-1.73,0.61,0.61,0.04,0.05,3
45.37662400,45376624,0.0,-2.57,0.0,-1.73,0.59,0.59,0.04,0.05,3
45.37914900,45379149,0.0,-2.58,0.0,-1.73,0.58,0.58,0.04,0.05,3
45.38137700,45381377,0.0,-2.6,0.0,-1.71,0.56,0.56,0.04,0.05,3
45.38383600,45383836,0.0,-2.61,0.0,-1.72,0.56,0.56,0.04,0.05,3
45.38635100,45386351,0.0,-2.61,0.0,-1.72,0.55,0.55,0.04,0.05,3
45.38884800,45388848,0.0,-2.63,0.0,-1.72,0.53,0.53,0.04,0.05,3
45.39135100,45391351,0.0,-2.63,0.0,-1.72,0.51,0.51,0.04,0.05,3
45.39383900,45393839,0.0,-2.64,0.0,-1.71,0.51,0.51,0.04,0.05,3
45.39633300,45396333,0.0,-2.65,0.0,-1.71,0.49,0.49,0.04,0.05,3
45.39885500,45398855,0.0,-2.66,0.0,-1.71,0.48,0.48,0.04,0.05,3
45.40134100,45401341,0.0,-2.67,0.0,-1.71,0.47000000000000003,0.47000000000000003,0.04,0.05,3
45.40386800,45403868,0.0,-2.67,0.0,-1.7,0.45,0.45,0.03,0.05,3
45.40646800,45406468,0.0,-2.68,0.0,-1.7,0.44,0.44,0.03,0.05,3
45.40915200,45409152,0.0,-2.7,0.0,-1.68,0.42,0.42,0.03,0.04,3
45.41133200,45411332,0.0,-2.68,0.0,-1.69,0.43,0.43,0.03,0.04,3
45.41384000,45413840,0.0,-2.67,0.0,-1.71,0.43,0.43,0.03,0.04,3
45.41634200,45416342,0.0,-2.66,0.0,-1.73,0.42,0.42,0.03,0.04,3
45.41884700,45418847,0.0,-2.65,0.0,-1.75,0.42,0.42,0.03,0.04,3
45.42133600,45421336,0.0,-2.64,0.0,-1.75,0.41000000000000003,0.41000000000000003,0.03,0.04,3
45.42383700,45423837,0.0,-2.64,0.0,-1.77,0.41000000000000003,0.41000000000000003,0.03,0.04,3
45.42637000,45426370,0.0,-2.63,0.0,-1.76,0.4,0.4,0.03,0.04,3
45.42884100,45428841,0.0,-2.64,0.0,-1.78,0.4,0.4,0.03,0.04,3
45.43138100,45431381,0.0,-2.63,0.0,-1.78,0.4,0.4,0.03,0.04,3
45.43383800,45433838,0.0,-2.61,0.0,-1.79,0.4,0.4,0.03,0.04,3
45.43633800,45436338,0.0,-2.59,0.0,-1.81,0.4,0.4,0.03,0.04,3
45.43884500,45438845,0.0,-2.57,0.0,-1.81,0.4,0.4,0.03,0.04,3
45.44133200,45441332,0.0,-2.57,0.0,-1.82,0.39,0.39,0.03,0.04,3
45.44385300,45443853,0.0,-2.5500000000000003,0.0,-1.83,0.39,0.39,0.03,0.04,3
45.44635100,45446351,0.0,-2.57,0.0,-1.84,0.38,0.38,0.03,0.04,3
45.44886200,45448862,0.0,-2.56,0.0,-1.86,0.37,0.37,0.03,0.04,3
45.45134800,45451348,0.0,-2.56,0.0,-1.86,0.36,0.36,0.03,0.04,3
45.45383100,45453831,0.0,-2.56,0.0,-1.8800000000000001,0.35000000000000003,0.35000000000000003,0.03,0.04,3
45.45634800,45456348,0.0,-2.5500000000000003,0.0,-1.8800000000000001,0.35000000000000003,0.35000000000000003,0.03,0.04,3
45.45883200,45458832,0.0,-2.56,0.0,-1.8800000000000001,0.33,0.33,0.03,0.04,3
45.46133900,45461339,0.0,-2.56,0.0,-1.8900000000000001,0.32,0.32,0.03,0.04,3
45.46383100,45463831,0.0,-2.56,0.0,-1.9000000000000001,0.3,0.3,0.03,0.04,3
45.46635700,45466357,0.0,-2.57,0.0,-1.8900000000000001,0.29,0.29,0.03,0.04,3
45.46883200,45468832,0.0,-2.58,0.0,-1.8800000000000001,0.28,0.28,0.03,0.04,3
45.47135900,45471359,0.0,-2.59,0.0,-1.87,0.27,0.27,0.03,0.04,3
45.47383200,45473832,0.0,-2.59,0.0,-1.8800000000000001,0.26,0.26,0.03,0.04,3
45.47633800,45476338,0.0,-2.58,0.0,-1.87,0.23,0.23,0.03,0.04,3
45.47883400,45478834,0.0,-2.59,0.0,-1.8900000000000001,0.23,0.23,0.03,0.04,3
45.48135200,45481352,0.0,-2.61,0.0,-1.8800000000000001,0.22,0.22,0.03,0.04,3
45.48383500,45483835,0.0,-2.62,0.0,-1.87,0.2,0.2,0.03,0.04,3
45.48635700,45486357,0.0,-2.63,0.0,-1.8800000000000001,0.19,0.19,0.03,0.04,3
45.48883100,45488831,0.0,-2.63,0.0,-1.8800000000000001,0.17,0.17,0.03,0.04,3
45.49135500,45491355,0.0,-2.63,0.0,-1.8800000000000001,0.15,0.15,0.03,0.04,3
45.49384700,45493847,0.0,-2.66,0.0,-1.87,0.14,0.14,0.03,0.04,3
45.49635300,45496353,0.0,-2.67,0.0,-1.87,0.12,0.12,0.03,0.04,3
45.49883000,45498830,0.0,-2.68,0.0,-1.85,0.11,0.11,0.03,0.04,3
45.50134800,45501348,0.0,-2.69,0.0,-1.86,0.1,0.1,0.03,0.04,3
45.50385000,45503850,0.0,-2.69,0.0,-1.86,0.08,0.08,0.03,0.04,3
45.50646200,45506462,0.0,-2.7,0.0,-1.86,0.08,0.08,0.03,0.04,3
45.50916500,45509165,0.0,-2.71,0.0,-1.87,0.06,0.06,0.03,0.04,3
45.51133700,45511337,0.0,-2.71,0.0,-1.86,0.06,0.06,0.03,0.04,3
45.51383100,45513831,0.0,-2.69,0.0,-1.87,0.09,0.09,0.03,0.04,3
45.51634600,45516346,0.0,-2.67,0.0,-1.9000000000000001,0.1,0.1,0.03,0.04,3
45.51883400,45518834,0.0,-2.66,0.0,-1.92,0.12,0.12,0.03,0.04,3
45.52133300,45521333,0.0,-2.65,0.0,-1.94,0.12,0.12,0.03,0.04,3
45.52383100,45523831,0.0,-2.65,0.0,-1.96,0.15,0.15,0.03,0.04,3
45.52635200,45526352,0.0,-2.64,0.0,-1.97,0.16,0.16,0.03,0.04,3
45.52884100,45528841,0.0,-2.62,0.0,-2.0100000000000002,0.18,0.18,0.03,0.04,3
45.53133300,45531333,0.0,-2.62,0.0,-2.02,0.19,0.19,0.03,0.04,3
45.53383500,45533835,0.0,-2.6,0.0,-2.02,0.2,0.2,0.03,0.04,3
45.53633500,45536335,0.0,-2.6,0.0,-2.04,0.21,0.21,0.03,0.04,3
45.53884600,45538846,0.0,-2.58,0.0,-2.07,0.22,0.22,0.03,0.04,3
45.54133500,45541335,0.0,-2.57,0.0,-2.08,0.22,0.22,0.03,0.04,3
45.54383300,45543833,0.0,-2.56,0.0,-2.08,0.23,0.23,0.03,0.04,3
45.54635900,45546359,0.0,-2.54,0.0,-2.09,0.24,0.24,0.03,0.04,3
45.54884500,45548845,0.0,-2.54,0.0,-2.09,0.24,0.24,0.03,0.04,3
45.55134300,45551343,0.0,-2.54,0.0,-2.1,0.25,0.25,0.03,0.04,3
45.55383500,45553835,0.0,-2.54,0.0,-2.11,0.24,0.24,0.03,0.04,3
45.55635800,45556358,0.0,-2.54,0.0,-2.1,0.24,0.24,0.03,0.04,3
45.55883600,45558836,0.0,-2.54,0.0,-2.11,0.24,0.24,0.03,0.04,3
45.56134500,45561345,0.0,-2.54,0.0,-2.11,0.24,0.24,0.03,0.04,3
45.56384300,45563843,0.0,-2.5500000000000003,0.0,-2.11,0.22,0.22,0.03,0.04,3
45.56635500,45566355,0.0,-2.5500000000000003,0.0,-2.11,0.22,0.22,0.03,0.04,3
45.56888700,45568887,0.0,-2.5500000000000003,0.0,-2.12,0.2,0.2,0.03,0.04,3
45.57133700,45571337,0.0,-2.54,0.0,-2.12,0.19,0.19,0.03,0.04,3
45.57383500,45573835,0.0,-2.54,0.0,-2.12,0.18,0.18,0.03,0.04,3
45.57633800,45576338,0.0,-2.56,0.0,-2.12,0.16,0.16,0.03,0.04,3
45.57883500,45578835,0.0,-2.56,0.0,-2.11,0.15,0.15,0.03,0.04,3
45.58133700,45581337,0.0,-2.56,0.0,-2.12,0.13,0.13,0.03,0.04,3
45.58384800,45583848,0.0,-2.58,0.0,-2.11,0.12,0.12,0.03,0.04,3
45.58636800,45586368,0.0,-2.59,0.0,-2.11,0.1,0.1,0.03,0.04,3
45.58885200,45588852,0.0,-2.6,0.0,-2.12,0.09,0.09,0.03,0.04,3
45.59134800,45591348,0.0,-2.61,0.0,-2.14,0.08,0.08,0.03,0.04,3
45.59382900,45593829,0.0,-2.62,0.0,-2.12,0.07,0.07,0.03,0.04,3
45.59634100,45596341,0.0,-2.63,0.0,-2.12,0.05,0.05,0.03,0.04,3
45.59883200,45598832,0.0,-2.64,0.0,-2.12,0.02,0.02,0.03,0.04,3
45.60137200,45601372,0.0,-2.64,0.0,-2.13,0.01,0.01,0.03,0.04,3
45.60382500,45603825,0.0,-2.64,0.0,-2.13,0.0,0.0,0.03,0.04,3
45.60657400,45606574,0.0,-2.65,0.0,-2.12,359.98,359.99,0.03,0.04,3
45.60922000,45609220,0.0,-2.66,0.0,-2.12,359.97,359.98,0.03,0.03,3
45.61134200,45611342,0.0,-2.65,0.0,-2.14,359.99,0.0,0.03,0.03,3
45.61382600,45613826,0.0,-2.65,0.0,-2.15,0.03,0.03,0.03,0.03,3
45.61634500,45616345,0.0,-2.65,0.0,-2.16,0.07,0.07,0.03,0.03,3
45.61882800,45618828,0.0,-2.62,0.0,-2.17,0.11,0.11,0.03,0.03,3
45.62135200,45621352,0.0,-2.61,0.0,-2.19,0.14,0.14,0.03,0.03,3
45.62383000,45623830,0.0,-2.59,0.0,-2.2,0.18,0.18,0.03,0.03,3
45.62642700,45626427,0.0,-2.57,0.0,-2.22,0.21,0.21,0.03,0.03,3
45.62884300,45628843,0.0,-2.54,0.0,-2.22,0.24,0.24,0.03,0.03,3
45.63136000,45631360,0.0,-2.54,0.0,-2.23,0.28,0.28,0.03,0.03,3
45.63384000,45633840,0.0,-2.52,0.0,-2.2600000000000002,0.31,0.31,0.03,0.03,3
45.63634500,45636345,0.0,-2.5,0.0,-2.2600000000000002,0.34,0.34,0.03,0.03,3
45.63882600,45638826,0.0,-2.49,0.0,-2.27,0.37,0.37,0.03,0.03,3
45.64135200,45641352,0.0,-2.48,0.0,-2.2800000000000002,0.38,0.38,0.03,0.03,3
45.64382900,45643829,0.0,-2.48,0.0,-2.2800000000000002,0.41000000000000003,0.41000000000000003,0.03,0.03,3
45.64636100,45646361,0.0,-2.47,0.0,-2.29,0.42,0.42,0.03,0.03,3
45.64882800,45648828,0.0,-2.47,0.0,-2.31,0.44,0.44,0.03,0.03,3
45.65136600,45651366,0.0,-2.47,0.0,-2.31,0.46,0.46,0.03,0.03,3
45.65384100,45653841,0.0,-2.45,0.0,-2.32,0.46,0.46,0.03,0.03,3
45.65634600,45656346,0.0,-2.45,0.0,-2.32,0.47000000000000003,0.47000000000000003,0.03,0.03,3
45.65883700,45658837,0.0,-2.46,0.0,-2.32,0.47000000000000003,0.47000000000000003,0.03,0.03,3
45.66135400,45661354,0.0,-2.47,0.0,-2.31,0.46,0.46,0.03,0.03,3
45.66383600,45663836,0.0,-2.47,0.0,-2.3000000000000003,0.46,0.46,0.03,0.03,3
45.66635600,45666356,0.0,-2.49,0.0,-2.3000000000000003,0.45,0.45,0.03,0.03,3
45.66883600,45668836,0.0,-2.49,0.0,-2.3000000000000003,0.45,0.45,0.03,0.03,3
45.67134000,45671340,0.0,-2.49,0.0,-2.3000000000000003,0.44,0.44,0.03,0.03,3
45.67385400,45673854,0.0,-2.49,0.0,-2.29,0.43,0.43,0.03,0.03,3
45.67633300,45676333,0.0,-2.5100000000000002,0.0,-2.29,0.4,0.4,0.03,0.03,3
45.67884100,45678841,0.0,-2.5100000000000002,0.0,-2.2800000000000002,0.4,0.4,0.03,0.03,3
45.68134000,45681340,0.0,-2.52,0.0,-2.27,0.38,0.38,0.03,0.03,3
45.68384000,45683840,0.0,-2.52,0.0,-2.2800000000000002,0.37,0.37,0.03,0.03,3
45.68634800,45686348,0.0,-2.54,0.0,-2.2600000000000002,0.36,0.36,0.03,0.03,3
45.68884300,45688843,0.0,-2.54,0.0,-2.27,0.33,0.33,0.03,0.03,3
45.69134500,45691345,0.0,-2.5500000000000003,0.0,-2.27,0.33,0.33,0.03,0.03,3
45.69384000,45693840,0.0,-2.5500000000000003,0.0,-2.25,0.31,0.31,0.03,0.03,3
45.69634900,45696349,0.0,-2.5500000000000003,0.0,-2.2600000000000002,0.3,0.3,0.03,0.03,3
45.69883700,45698837,0.0,-2.56,0.0,-2.24,0.28,0.28,0.03,0.03,3
45.70135200,45701352,0.0,-2.57,0.0,-2.23,0.26,0.26,0.03,0.03,3
45.70384000,45703840,0.0,-2.58,0.0,-2.22,0.24,0.24,0.03,0.03,3
45.70648900,45706489,0.0,-2.58,0.0,-2.22,0.22,0.22,0.03,0.03,3
45.70917000,45709170,0.0,-2.6,0.0,-2.21,0.2,0.2,0.03,0.03,3
45.71134700,45711347,0.0,-2.57,0.0,-2.22,0.25,0.25,0.03,0.03,3
45.71385600,45713856,0.0,-2.56,0.0,-2.21,0.3,0.3,0.03,0.03,3
45.71632800,45716328,0.0,-2.54,0.0,-2.22,0.34,0.34,0.03,0.03,3
45.71885300,45718853,0.0,-2.5300000000000002,0.0,-2.24,0.39,0.39,0.03,0.03,3
45.72135300,45721353,0.0,-2.52,0.0,-2.24,0.45,0.45,0.03,0.03,3
45.72384300,45723843,0.0,-2.5,0.0,-2.24,0.5,0.5,0.03,0.03,3
45.72635200,45726352,0.0,-2.48,0.0,-2.25,0.55,0.55,0.03,0.03,3
45.72883100,45728831,0.0,-2.47,0.0,-2.27,0.6,0.6,0.03,0.03,3
45.73135200,45731352,0.0,-2.46,0.0,-2.3000000000000003,0.65,0.65,0.03,0.03,3
45.73383300,45733833,0.0,-2.44,0.0,-2.3000000000000003,0.6900000000000001,0.6900000000000001,0.03,0.03,3
45.73634000,45736340,0.0,-2.43,0.0,-2.3000000000000003,0.73,0.73,0.03,0.03,3
45.73883600,45738836,0.0,-2.42,0.0,-2.31,0.76,0.76,0.03,0.03,3
45.74136600,45741366,0.0,-2.41,0.0,-2.32,0.81,0.81,0.03,0.03,3
45.74383300,45743833,0.0,-2.4,0.0,-2.34,0.84,0.84,0.03,0.03,3
45.74636300,45746363,0.0,-2.39,0.0,-2.35,0.87,0.87,0.03,0.03,3
45.74883500,45748835,0.0,-2.38,0.0,-2.35,0.9,0.9,0.03,0.03,3
45.75134000,45751340,0.0,-2.39,0.0,-2.34,0.92,0.92,0.03,0.03,3
45.75383900,45753839,0.0,-2.39,0.0,-2.34,0.92,0.92,0.03,0.03,3
45.75634600,45756346,0.0,-2.38,0.0,-2.34,0.9400000000000001,0.9400000000000001,0.03,0.03,3
45.75884400,45758844,0.0,-2.38,0.0,-2.35,0.9400000000000001,0.9400000000000001,0.03,0.03,3
45.76134200,45761342,0.0,-2.38,0.0,-2.36,0.9500000000000001,0.9500000000000001,0.03,0.03,3
45.76384400,45763844,0.0,-2.39,0.0,-2.36,0.96,0.96,0.03,0.03,3
45.76637100,45766371,0.0,-2.38,0.0,-2.36,0.96,0.96,0.03,0.03,3
45.76883800,45768838,0.0,-2.38,0.0,-2.36,0.9500000000000001,0.9500000000000001,0.03,0.03,3
45.77138300,45771383,0.0,-2.38,0.0,-2.36,0.9500000000000001,0.9500000000000001,0.03,0.03,3
45.77383600,45773836,0.0,-2.37,0.0,-2.36,0.93,0.93,0.03,0.03,3
45.77634000,45776340,0.0,-2.37,0.0,-2.37,0.92,0.92,0.03,0.03,3
45.77883300,45778833,0.0,-2.38,0.0,-2.37,0.91,0.91,0.03,0.03,3
45.78134400,45781344,0.0,-2.39,0.0,-2.36,0.88,0.88,0.03,0.03,3
45.78383500,45783835,0.0,-2.41,0.0,-2.35,0.87,0.87,0.03,0.03,3
45.78638300,45786383,0.0,-2.4,0.0,-2.35,0.86,0.86,0.03,0.03,3
45.78883100,45788831,0.0,-2.42,0.0,-2.35,0.84,0.84,0.03,0.03,3
45.79135000,45791350,0.0,-2.42,0.0,-2.34,0.8200000000000001,0.8200000000000001,0.03,0.03,3
45.79383000,45793830,0.0,-2.44,0.0,-2.34,0.8,0.8,0.03,0.03,3
45.79633400,45796334,0.0,-2.47,0.0,-2.32,0.79,0.79,0.03,0.03,3
45.79885300,45798853,0.0,-2.49,0.0,-2.3000000000000003,0.77,0.77,0.03,0.03,3
45.80134500,45801345,0.0,-2.49,0.0,-2.3000000000000003,0.74,0.74,0.03,0.03,3
45.80384200,45803842,0.0,-2.5100000000000002,0.0,-2.2800000000000002,0.73,0.73,0.03,0.03,3
45.80654100,45806541,0.0,-2.52,0.0,-2.27,0.71,0.71,0.03,0.03,3
45.80923600,45809236,0.0,-2.54,0.0,-2.2600000000000002,0.6900000000000001,0.6900000000000001,0.02,0.03,3
45.81133700,45811337,0.0,-2.5300000000000002,0.0,-2.2600000000000002,0.75,0.75,0.02,0.03,3
45.81383800,45813838,0.0,-2.5100000000000002,0.0,-2.2800000000000002,0.8200000000000001,0.8200000000000001,0.02,0.03,3
45.81633300,45816333,0.0,-2.49,0.0,-2.2800000000000002,0.89,0.89,0.02,0.03,3
45.81886000,45818860,0.0,-2.47,0.0,-2.3000000000000003,0.9400000000000001,0.9400000000000001,0.02,0.03,3
45.82133400,45821334,0.0,-2.45,0.0,-2.33,1.03,1.03,0.02,0.03,3
45.82384100,45823841,0.0,-2.42,0.0,-2.34,1.08,1.08,0.02,0.03,3
45.82635800,45826358,0.0,-2.4,0.0,-2.37,1.1500000000000001,1.1500000000000001,0.02,0.03,3
45.82885200,45828852,0.0,-2.38,0.0,-2.37,1.22,1.22,0.02,0.03,3
45.83134500,45831345,0.0,-2.36,0.0,-2.37,1.28,1.28,0.02,0.03,3
45.83383300,45833833,0.0,-2.35,0.0,-2.39,1.34,1.34,0.02,0.03,3
45.83633200,45836332,0.0,-2.34,0.0,-2.38,1.4000000000000001,1.4000000000000001,0.02,0.03,3
45.83884900,45838849,0.0,-2.32,0.0,-2.4,1.45,1.45,0.02,0.03,3
45.84133300,45841333,0.0,-2.3000000000000003,0.0,-2.41,1.49,1.49,0.02,0.03,3
45.84383700,45843837,0.0,-2.31,0.0,-2.42,1.53,1.53,0.02,0.03,3
45.84635400,45846354,0.0,-2.29,0.0,-2.42,1.58,1.58,0.02,0.03,3
45.84884800,45848848,0.0,-2.2800000000000002,0.0,-2.42,1.6,1.6,0.02,0.03,3
45.85133800,45851338,0.0,-2.2800000000000002,0.0,-2.43,1.62,1.62,0.02,0.03,3
45.85384900,45853849,0.0,-2.27,0.0,-2.43,1.6500000000000001,1.6500000000000001,0.02,0.03,3
45.85633900,45856339,0.0,-2.27,0.0,-2.43,1.6600000000000001,1.6600000000000001,0.02,0.03,3
45.85884500,45858845,0.0,-2.27,0.0,-2.44,1.68,1.68,0.02,0.03,3
45.86133900,45861339,0.0,-2.2800000000000002,0.0,-2.43,1.68,1.68,0.02,0.03,3
45.86385000,45863850,0.0,-2.27,0.0,-2.44,1.68,1.68,0.02,0.03,3
45.86635500,45866355,0.0,-2.27,0.0,-2.43,1.69,1.69,0.02,0.03,3
45.86883900,45868839,0.0,-2.2800000000000002,0.0,-2.43,1.69,1.69,0.02,0.03,3
45.87135800,45871358,0.0,-2.2800000000000002,0.0,-2.42,1.68,1.68,0.02,0.03,3
45.87384200,45873842,0.0,-2.29,0.0,-2.41,1.67,1.67,0.02,0.03,3
45.87665400,45876654,0.0,-2.3000000000000003,0.0,-2.41,1.67,1.67,0.02,0.03,3
