timestamp,TimeUS,DesRoll,Roll,DesPitch,Pitch,DesYaw,Yaw,ErrRP,ErrYaw,AEKF
136.20098600,136200986,0.0,140.92000000000002,0.0,2.57,65.47,65.47,0.46,1.0,3
136.20343000,136203430,0.0,140.91,0.0,2.54,65.55,65.55,0.46,1.0,3
136.20583500,136205835,0.0,140.9,0.0,2.5,65.63,65.63,0.46,1.0,3
136.20836100,136208361,0.0,140.9,0.0,2.47,65.72,65.72,0.46,1.0,3
136.21087700,136210877,0.0,140.9,0.0,2.44,65.8,65.8,0.46,1.0,3
136.21354300,136213543,0.0,140.88,0.0,2.41,65.88,65.88,0.46,1.0,3
136.21593500,136215935,0.0,140.88,0.0,2.38,65.96000000000001,65.96000000000001,0.46,1.0,3
136.21838100,136218381,0.0,140.86,0.0,2.34,66.04,66.04,0.46,1.0,3
136.22093400,136220934,0.0,140.86,0.0,2.32,66.11,66.11,0.46,1.0,3
136.22347700,136223477,0.0,140.84,0.0,2.2800000000000002,66.19,66.19,0.46,1.0,3
136.22586100,136225861,0.0,140.85,0.0,2.25,66.27,66.27,0.46,1.0,3
136.22851100,136228511,0.0,140.83,0.0,2.21,66.35,66.35,0.46,1.0,3
136.23084200,136230842,0.0,140.82,0.0,2.19,66.42,66.42,0.46,1.0,3
136.23338800,136233388,0.0,140.81,0.0,2.16,66.49,66.49,0.46,1.0,3
136.23582900,136235829,0.0,140.8,0.0,2.13,66.56,66.56,0.46,1.0,3
136.23852300,136238523,0.0,140.79,0.0,2.1,66.64,66.64,0.46,1.0,3
136.24098900,136240989,0.0,140.77,0.0,2.06,66.71000000000001,66.71000000000001,0.46,1.0,3
136.24342600,136243426,0.0,140.76,0.0,2.0300000000000002,66.78,66.78,0.46,1.0,3
136.24582700,136245827,0.0,140.74,0.0,2.0,66.85,66.85,0.46,1.0,3
136.24841700,136248417,0.0,140.74,0.0,1.97,66.92,66.92,0.46,1.0,3
136.25086300,136250863,0.0,140.72,0.0,1.94,66.99,66.99,0.46,1.0,3
136.25333600,136253336,0.0,140.71,0.0,1.9100000000000001,67.06,67.06,0.46,1.0,3
136.25606600,136256066,0.0,140.71,0.0,1.8900000000000001,67.12,67.12,0.46,1.0,3
136.25836500,136258365,0.0,140.68,0.0,1.85,67.19,67.19,0.46,1.0,3
136.26093200,136260932,0.0,140.68,0.0,1.83,67.26,67.26,0.46,1.0,3
136.26333900,136263339,0.0,140.65,0.0,1.8,67.33,67.33,0.46,1.0,3
136.26592200,136265922,0.0,140.63,0.0,1.77,67.39,67.39,0.46,1.0,3
136.26850000,136268500,0.0,140.62,0.0,1.74,67.46000000000001,67.46000000000001,0.46,1.0,3
136.27086100,136270861,0.0,140.6,0.0,1.71,67.52,67.52,0.46,1.0,3
136.27333400,136273334,0.0,140.58,0.0,1.68,67.58,67.58,0.46,1.0,3
136.27599000,136275990,0.0,140.57,0.0,1.6500000000000001,67.65,67.65,0.46,1.0,3
136.27841300,136278413,0.0,140.56,0.0,1.6300000000000001,67.7,67.7,0.46,1.0,3
136.28117000,136281170,0.0,140.53,0.0,1.6,67.77,67.77,0.46,1.0,3
136.28341100,136283411,0.0,140.52,0.0,1.57,67.83,67.83,0.46,1.0,3
136.28583400,136285834,0.0,140.49,0.0,1.54,67.89,67.89,0.44,1.0,3
136.28842000,136288420,0.0,140.49,0.0,1.52,67.95,67.95,0.44,1.0,3
136.29082600,136290826,0.0,140.46,0.0,1.48,68.01,68.01,0.44,1.0,3
136.29341300,136293413,0.0,140.45000000000002,0.0,1.46,68.07000000000001,68.07000000000001,0.44,1.0,3
136.29599000,136295990,0.0,140.42000000000002,0.0,1.43,68.13,68.13,0.44,1.0,3
136.29840600,136298406,0.0,140.41,0.0,1.41,68.18,68.18,0.44,1.0,3
136.30087800,136300878,0.0,140.39000000000001,0.0,1.3800000000000001,68.24,68.24,0.44,1.0,3
136.30334500,136303345,0.0,140.37,0.0,1.35,68.3,68.3,0.44,1.0,3
136.30590400,136305904,0.0,140.35,0.0,1.33,68.35000000000001,68.35000000000001,0.44,1.0,3
136.30834500,136308345,0.0,140.33,0.0,1.3,68.41,68.41,0.44,1.0,3
136.31119600,136311196,0.0,140.31,0.0,1.27,68.47,68.47,0.44,1.0,3
136.31333200,136313332,0.0,140.31,0.0,1.25,68.57000000000001,68.57000000000001,0.44,1.0,3
136.31590800,136315908,0.0,140.31,0.0,1.22,68.66,68.66,0.44,1.0,3
136.31836700,136318367,0.0,140.31,0.0,1.19,68.76,68.76,0.44,1.0,3
136.32084400,136320844,0.0,140.31,0.0,1.17,68.86,68.86,0.44,1.0,3
136.32351100,136323511,0.0,140.32,0.0,1.1500000000000001,68.95,68.95,0.44,1.0,3
136.32607400,136326074,0.0,140.32,0.0,1.12,69.05,69.05,0.44,1.0,3
136.32840200,136328402,0.0,140.33,0.0,1.1,69.14,69.14,0.44,1.0,3
136.33082900,136330829,0.0,140.31,0.0,1.07,69.24,69.24,0.44,1.0,3
136.33341200,136333412,0.0,140.32,0.0,1.05,69.33,69.33,0.44,1.0,3
136.33587100,136335871,0.0,140.31,0.0,1.02,69.43,69.43,0.44,1.0,3
136.33871100,136338711,0.0,143.75,0.0,-3.81,68.92,68.92,0.44,1.0,3
136.34087300,136340873,0.0,150.89000000000001,0.0,-13.34,66.93,66.93,0.44,1.0,3
136.34333800,136343338,0.0,158.77,0.0,-22.53,85.43,63.57,0.44,1.0,3
136.34610100,136346101,0.0,166.5,0.0,-29.97,104.36,59.36,0.44,1.0,3
136.34839000,136348390,0.0,177.22,0.0,-37.83,113.10000000000001,52.44,0.44,1.0,3
136.35083800,136350838,0.0,-169.6,0.0,-44.33,127.4,42.82,0.44,1.0,3
136.35359200,136353592,0.0,-156.03,0.0,-48.33,126.14,32.2,0.44,1.0,3
136.35619600,136356196,0.0,-140.72,0.0,-50.370000000000005,129.78,19.77,0.44,1.0,3
136.35835100,136358351,0.0,-119.63,0.0,-49.54,120.19,2.5,0.44,1.0,3
136.36110200,136361102,0.0,-105.16,0.0,-46.42,129.69,350.94,0.44,1.0,3
136.36340000,136363400,0.0,-92.7,0.0,-41.58,117.49000000000001,341.48,0.44,1.0,3
136.36583400,136365834,0.0,-79.22,0.0,-33.24,179.41,332.19,0.44,1.0,3
136.36871400,136368714,0.0,-70.92,0.0,-26.07,65.62,327.28000000000003,0.44,1.0,3
136.37089100,136370891,0.0,-63.68,0.0,-18.42,233.3,323.72,0.44,1.0,3
136.37333800,136373338,0.0,-55.160000000000004,0.0,-7.7,12.96,320.73,0.44,1.0,3
136.37608800,136376088,0.0,-49.2,0.0,0.54,289.93,319.55,0.44,1.0,3
136.37843400,136378434,0.0,-43.33,0.0,8.86,322.38,319.21,0.44,1.0,3
136.38083000,136380830,0.0,-35.25,0.0,19.93,320.17,320.18,0.44,1.0,3
136.38359400,136383594,0.0,-28.580000000000002,0.0,28.080000000000002,322.07,322.08,0.44,1.0,3
136.38592600,136385926,0.0,-20.98,0.0,35.95,325.28000000000003,325.29,0.44,1.0,3
136.38834900,136388349,0.0,-8.4,0.0,45.64,332.48,332.49,0.44,1.0,3
136.39109600,136391096,0.0,3.81,0.0,51.88,340.87,340.88,0.44,1.0,3
136.39344300,136393443,0.0,19.27,0.0,56.64,352.62,352.63,0.44,1.0,3
136.39583200,136395832,0.0,44.49,0.0,59.370000000000005,13.040000000000001,13.040000000000001,0.44,1.0,3
136.39855200,136398552,0.0,64.05,0.0,58.18,28.98,28.98,0.44,1.0,3
136.40093300,136400933,0.0,81.18,0.0,54.45,30.71,42.43,0.44,1.0,3
136.40341400,136403414,0.0,94.94,0.0,48.86,43.22,52.410000000000004,0.44,1.0,3
136.40598900,136405989,0.0,108.87,0.0,39.64,44.22,61.07,0.44,1.0,3
136.40837700,136408377,0.0,117.14,0.0,31.98,54.99,64.99,0.44,1.0,3
136.41090300,136410903,0.0,124.23,0.0,23.97,53.82,67.41,0.44,1.0,3
136.41350200,136413502,0.0,132.6,0.0,12.99,65.36,68.85000000000001,0.44,1.0,3
136.41583500,136415835,0.0,138.55,0.0,4.71,68.76,68.76,0.44,1.0,3
136.41847100,136418471,0.0,144.5,0.0,-3.5100000000000002,67.81,67.81,0.44,1.0,3
136.42100200,136421002,0.0,152.82,0.0,-14.27,65.17,65.17,0.44,1.0,3
136.42351100,136423511,0.0,159.76,0.0,-21.98,90.02,61.92,0.44,1.0,3
136.42593200,136425932,0.0,167.63,0.0,-29.240000000000002,97.51,57.410000000000004,0.44,1.0,3
136.42861400,136428614,0.0,-179.81,0.0,-37.84,117.15,48.99,0.44,1.0,3
136.43082700,136430827,0.0,-168.35,0.0,-43.03,126.08,40.36,0.44,1.0,3
136.43344000,136433440,0.0,-154.99,0.0,-46.68,126.36,29.740000000000002,0.44,1.0,3
136.43586900,136435869,0.0,-137.63,0.0,-48.49,126.61,15.51,0.44,1.0,3
136.43865800,136438658,0.0,-120.05,0.0,-47.32,124.69,1.05,0.44,1.0,3
136.44093400,136440934,0.0,-106.29,0.0,-44.09,125.15,349.93,0.44,1.0,3
136.44339400,136443394,0.0,-94.4,0.0,-39.21,122.07000000000001,340.75,0.44,1.0,3
136.44621100,136446211,0.0,-81.35000000000001,0.0,-30.93,121.44,331.53000000000003,0.44,1.0,3
136.44843300,136448433,0.0,-73.35000000000001,0.0,-23.72,176.48,326.5,0.44,1.0,3
136.45090100,136450901,0.0,-66.4,0.0,-15.99,68.33,322.78000000000003,0.44,1.0,3
136.45348500,136453485,0.0,-58.15,0.0,-5.21,230.04,319.45,0.44,1.0,3
136.45587500,136455875,0.0,-52.47,0.0,3.13,17.7,317.88,0.44,1.0,3
136.45843500,136458435,0.0,-46.910000000000004,0.0,11.6,285.51,317.14,0.44,1.0,3
136.46100400,136461004,0.0,-39.2,0.0,22.87,327.46,317.48,0.44,1.0,3
136.46333700,136463337,0.0,-32.92,0.0,31.27,318.76,318.77,0.44,1.0,3
136.46593300,136465933,0.0,-25.72,0.0,39.47,321.37,321.38,0.44,1.0,3
136.46849900,136468499,0.0,-13.46,0.0,49.730000000000004,327.93,327.94,0.44,1.0,3
136.47082700,136470827,0.0,-1.07,0.0,56.54,336.2,336.21,0.44,1.0,3
136.47343000,136473430,0.0,15.66,0.0,61.910000000000004,348.94,348.95,0.44,1.0,3
136.47601200,136476012,0.0,45.15,0.0,65.03,13.19,13.19,0.44,1.0,3
136.47836100,136478361,0.0,68.2,0.0,63.57,29.2,32.230000000000004,0.44,1.0,3
136.48092700,136480927,0.0,87.25,0.0,59.25,31.38,47.22,0.44,1.0,3
136.48337400,136483374,0.0,103.47,0.0,51.88,44.14,58.56,0.44,1.0,3
136.48603100,136486031,0.0,115.19,0.0,43.21,42.89,65.15,0.44,1.0,3
136.48844600,136488446,0.0,123.14,0.0,35.300000000000004,53.29,68.3,0.55,1.0,3
136.49087800,136490878,0.0,130.97,0.0,25.75,50.86,70.08,0.55,1.0,3
136.49352200,136493522,0.0,138.0,0.0,16.080000000000002,63.02,70.39,0.55,1.0,3
136.49592500,136495925,0.0,143.84,0.0,7.88,63.22,69.62,0.55,1.0,3
136.49842000,136498420,0.0,149.74,0.0,-0.2,68.03,68.03,0.55,1.0,3
136.50100500,136501005,0.0,158.02,0.0,-10.66,64.56,64.56,0.55,1.0,3
136.50337900,136503379,0.0,164.97,0.0,-18.01,85.41,60.71,0.55,1.0,3
136.50590800,136505908,0.0,172.8,0.0,-24.82,104.88,55.730000000000004,0.55,1.0,3
136.50850100,136508501,0.0,-175.01,0.0,-32.75,119.28,46.99,0.55,1.0,3
136.51082900,136510829,0.0,-164.23,0.0,-37.34,136.44,38.56,0.55,1.0,3
136.51344000,136513440,0.0,-152.08,0.0,-40.480000000000004,128.7,28.7,0.55,1.0,3
136.51598600,136515986,0.0,-134.54,0.0,-41.95,135.38,14.1,0.55,1.0,3
136.51837100,136518371,0.0,-121.4,0.0,-40.74,130.19,3.08,0.55,1.0,3
136.52092700,136520927,0.0,-109.17,0.0,-37.74,132.24,353.02,0.55,1.0,3
136.52364700,136523647,0.0,-94.96000000000001,0.0,-31.52,124.53,341.79,0.55,1.0,3
136.52581600,136525816,0.0,-86.01,0.0,-25.5,184.78,335.1,0.55,1.0,3
136.52843200,136528432,0.0,-78.24,0.0,-18.7,69.55,329.76,0.55,1.0,3
136.53087400,136530874,0.0,-70.31,0.0,-10.07,236.57,324.96,0.55,1.0,3
136.53354500,136533545,0.0,-63.25,0.0,-0.91,16.07,321.46,0.55,1.0,3
136.53592700,136535927,0.0,-57.68,0.0,7.25,290.77,319.29,0.55,1.0,3
136.53851200,136538512,0.0,-51.35,0.0,16.97,323.54,317.7,0.55,1.0,3
136.54120800,136541208,0.0,-44.87,0.0,26.8,317.2,317.21,0.55,1.0,3
136.54344600,136543446,0.0,-38.54,0.0,35.14,317.87,317.88,0.55,1.0,3
136.54589400,136545894,0.0,-31.28,0.0,43.35,319.86,319.87,0.55,1.0,3
136.54849500,136548495,0.0,-18.94,0.0,53.800000000000004,325.69,325.7,0.55,1.0,3
136.55086400,136550864,0.0,-5.73,0.0,60.83,334.38,334.39,0.55,1.0,3
136.55341100,136553411,0.0,13.17,0.0,66.31,348.89,348.90000000000003,0.55,1.0,3
136.55598800,136555988,0.0,47.88,0.0,69.04,17.84,17.84,0.55,1.0,3
136.55836900,136558369,0.0,73.75,0.0,66.54,32.19,39.49,0.55,1.0,3
136.56093600,136560936,0.0,92.98,0.0,61.11,35.980000000000004,54.43,0.55,1.0,3
136.56350400,136563504,0.0,109.95,0.0,51.59,46.84,65.48,0.55,1.0,3
136.56583900,136565839,0.0,118.91,0.0,43.56,45.980000000000004,69.86,0.55,1.0,3
136.56844000,136568440,0.0,126.11,0.0,35.2,54.53,72.2,0.55,1.0,3
136.57110700,136571107,0.0,134.29,0.0,23.900000000000002,53.63,73.24,0.55,1.0,3
136.57332800,136573328,0.0,139.91,0.0,15.34,65.93,73.01,0.55,1.0,3
136.57593400,136575934,0.0,145.4,0.0,6.84,65.14,71.94,0.55,1.0,3
136.57839800,136578398,0.0,151.99,0.0,-2.84,69.68,69.68,0.55,1.0,3
136.58103200,136581032,0.0,159.11,0.0,-12.200000000000001,66.25,66.25,0.55,1.0,3
136.58344600,136583446,0.0,165.95000000000002,0.0,-19.85,95.93,62.35,0.55,1.0,3
136.58589800,136585898,0.0,173.74,0.0,-26.97,106.72,57.24,0.55,1.0,3
136.58853700,136588537,0.0,-173.81,0.0,-35.14,126.3,48.11,0.55,1.0,3
136.59093600,136590936,0.0,-162.62,0.0,-40.0,133.91,39.39,0.55,1.0,3
136.59340000,136593400,0.0,-149.82,0.0,-43.33,133.35,28.990000000000002,0.55,1.0,3
136.59599400,136595994,0.0,-131.19,0.0,-44.7,130.75,13.47,0.55,1.0,3
136.59839900,136598399,0.0,-117.18,0.0,-43.37,133.68,2.0100000000000002,0.55,1.0,3
136.60092000,136600920,0.0,-104.26,0.0,-40.160000000000004,127.2,351.7,0.55,1.0,3
136.60350900,136603509,0.0,-89.59,0.0,-33.480000000000004,128.03,340.58,0.55,1.0,3
136.60583000,136605830,0.0,-80.31,0.0,-27.2,126.92,334.33,0.55,1.0,3
136.60874700,136608747,0.0,-72.28,0.0,-20.18,180.5,329.53000000000003,0.55,1.0,3
136.61111200,136611112,0.0,-63.03,0.0,-10.01,72.54,325.01,0.55,1.0,3
136.61332900,136613329,0.0,-56.72,0.0,-2.0,235.89000000000001,322.92,0.55,1.0,3
136.61593300,136615933,0.0,-50.660000000000004,0.0,6.18,20.990000000000002,321.72,0.55,1.0,3
136.61854700,136618547,0.0,-42.660000000000004,0.0,17.23,291.74,321.44,0.55,1.0,3
136.62082600,136620826,0.0,-36.26,0.0,25.490000000000002,332.26,322.48,0.55,1.0,3
136.62356600,136623566,0.0,-29.14,0.0,33.59,324.7,324.71,0.55,1.0,3
136.62586400,136625864,0.0,-19.31,0.0,42.61,329.27,329.28000000000003,0.55,1.0,3
136.62853300,136628533,0.0,-6.69,0.0,50.78,336.98,336.99,0.55,1.0,3
136.63092400,136630924,0.0,7.57,0.0,56.53,347.33,347.34000000000003,0.55,1.0,3
136.63340600,136633406,0.0,29.03,0.0,60.77,4.36,4.36,0.55,1.0,3
136.63600400,136636004,0.0,53.65,0.0,61.18,24.59,24.59,0.55,1.0,3
136.63858200,136638582,0.0,73.15,0.0,58.29,33.81,40.44,0.55,1.0,3
136.64089100,136640891,0.0,88.84,0.0,53.13,40.72,52.4,0.55,1.0,3
136.64373200,136643732,0.0,104.37,0.0,44.17,48.86,62.74,0.55,1.0,3
136.64585600,136645856,0.0,113.14,0.0,36.42,52.88,67.55,0.55,1.0,3
136.64842800,136648428,0.0,120.4,0.0,28.23,58.92,70.57000000000001,0.55,1.0,3
136.65098100,136650981,0.0,128.8,0.0,17.05,63.54,72.65,0.55,1.0,3
136.65333300,136653333,0.0,134.52,0.0,8.48,73.2,73.2,0.55,1.0,3
136.65592400,136655924,0.0,140.1,0.0,-0.1,72.89,72.89,0.55,1.0,3
136.65853600,136658536,0.0,147.83,0.0,-11.34,71.16,71.16,0.55,1.0,3
136.66083200,136660832,0.0,154.08,0.0,-19.61,80.27,68.92,0.55,1.0,3
136.66343900,136663439,0.0,161.08,0.0,-27.580000000000002,101.36,65.54,0.55,1.0,3
136.66586700,136665867,0.0,170.78,0.0,-36.22,108.93,59.730000000000004,0.55,1.0,3
136.66853200,136668532,0.0,-177.14000000000001,0.0,-43.78,127.73,51.28,0.55,1.0,3
136.67092400,136670924,0.0,-164.35,0.0,-48.980000000000004,125.55,41.57,0.55,1.0,3
136.67339600,136673396,0.0,-146.36,0.0,-52.72,129.99,27.07,0.55,1.0,3
136.67602000,136676020,0.0,-126.51,0.0,-53.28,123.85000000000001,10.67,0.55,1.0,3
136.67845800,136678458,0.0,-110.13,0.0,-51.18,127.83,357.42,0.55,1.0,3
136.68089300,136680893,0.0,-95.85000000000001,0.0,-47.0,120.34,346.31,0.55,1.0,3
136.68350700,136683507,0.0,-80.63,0.0,-39.08,123.36,335.52,0.55,1.0,3
136.68587500,136685875,0.0,-71.42,0.0,-32.12,121.93,329.99,0.55,1.0,3
136.68870600,136688706,0.0,-63.58,0.0,-24.57,177.42000000000002,326.1,0.64,1.0,3
136.69099400,136690994,0.0,-54.6,0.0,-13.91,69.58,322.96,0.64,1.0,3
136.69336700,136693367,0.0,-48.34,0.0,-5.7700000000000005,234.74,321.92,0.64,1.0,3
136.69591700,136695917,0.0,-42.25,0.0,2.42,19.68,321.78000000000003,0.64,1.0,3
136.69852100,136698521,0.0,-34.04,0.0,13.34,292.67,322.98,0.64,1.0,3
136.70084000,136700840,0.0,-27.32,0.0,21.28,332.90000000000003,325.16,0.64,1.0,3
136.70344800,136703448,0.0,-19.81,0.0,28.89,328.52,328.53000000000003,0.64,1.0,3
136.70599800,136705998,0.0,-7.98,0.0,38.29,335.38,335.39,0.64,1.0,3
136.70833400,136708334,0.0,3.04,0.0,44.24,342.99,343.0,0.64,1.0,3
136.71093600,136710936,0.0,16.28,0.0,48.870000000000005,352.95,352.96,0.64,1.0,3
136.71359500,136713595,0.0,37.09,0.0,52.18,9.55,9.55,0.64,1.0,3
136.71582100,136715821,0.0,53.660000000000004,0.0,51.870000000000005,23.1,23.1,0.64,1.0,3
136.71845700,136718457,0.0,69.19,0.0,49.25,34.59,35.57,0.64,1.0,3
136.72086200,136720862,0.0,84.63,0.0,43.87,39.93,47.37,0.64,1.0,3
136.72372100,136723721,0.0,97.08,0.0,36.7,49.84,56.0,0.64,1.0,3
136.72596700,136725967,0.0,105.74000000000001,0.0,29.55,52.980000000000004,61.32,0.64,1.0,3
136.72840000,136728400,0.0,113.13,0.0,21.86,61.67,65.1,0.64,1.0,3
136.73102300,136731023,0.0,121.77,0.0,11.120000000000001,65.86,68.38,0.64,1.0,3
136.73343900,136733439,0.0,127.55,0.0,2.74,69.8,69.8,0.64,1.0,3
136.73589000,136735890,0.0,133.14000000000001,0.0,-5.73,70.37,70.37,0.64,1.0,3
136.73863900,136738639,0.0,140.81,0.0,-16.990000000000002,69.86,69.86,0.64,1.0,3
136.74085600,136740856,0.0,146.88,0.0,-25.41,87.36,68.49,0.64,1.0,3
136.74342600,136743426,0.0,153.72,0.0,-33.62,94.75,65.94,0.64,1.0,3
136.74606800,136746068,0.0,164.98,0.0,-43.94,109.18,60.02,0.64,1.0,3
136.74833400,136748334,0.0,175.65,0.0,-50.79,121.0,53.01,0.64,1.0,3
136.75093400,136750934,0.0,-170.53,0.0,-56.49,118.95,42.72,0.64,1.0,3
136.75349600,136753496,0.0,-146.19,0.0,-61.050000000000004,117.69,23.05,0.64,1.0,3
136.75583600,136755836,0.0,-125.47,0.0,-61.370000000000005,119.01,5.78,0.64,1.0,3
136.75846800,136758468,0.0,-106.12,0.0,-58.81,111.94,349.91,0.64,1.0,3
136.76099800,136760998,0.0,-85.89,0.0,-51.94,112.06,334.49,0.64,1.0,3
136.76334200,136763342,0.0,-74.58,0.0,-45.37,113.92,326.96,0.64,1.0,3
136.76593100,136765931,0.0,-65.6,0.0,-38.03,112.97,321.94,0.64,1.0,3
136.76852500,136768525,0.0,-55.9,0.0,-27.51,168.63,318.06,0.64,1.0,3
136.77083300,136770833,0.0,-49.54,0.0,-19.47,64.49,316.55,0.64,1.0,3
136.77343800,136773438,0.0,-43.65,0.0,-11.33,225.66,316.01,0.64,1.0,3
136.77587600,136775876,0.0,-36.980000000000004,0.0,-1.79,15.610000000000001,316.49,0.64,1.0,3
136.77855800,136778558,0.0,-30.18,0.0,7.61,285.02,318.09000000000003,0.64,1.0,3
136.78092900,136780929,0.0,-23.86,0.0,15.38,328.85,320.41,0.64,1.0,3
136.78340000,136783400,0.0,-16.91,0.0,22.830000000000002,323.74,323.75,0.64,1.0,3
136.78598700,136785987,0.0,-6.09,0.0,32.03,330.27,330.28000000000003,0.64,1.0,3
136.78837300,136788373,0.0,3.67,0.0,37.88,336.97,336.98,0.64,1.0,3
136.79091000,136790910,0.0,15.1,0.0,42.62,345.45,345.46,0.64,1.0,3
136.79348300,136793483,0.0,32.93,0.0,46.6,359.58,359.59000000000003,0.64,1.0,3
136.79583900,136795839,0.0,47.43,0.0,47.21,11.31,11.31,0.64,1.0,3
136.79845700,136798457,0.0,61.7,0.0,45.800000000000004,22.8,22.8,0.64,1.0,3
136.80100500,136801005,0.0,78.84,0.0,41.11,34.59,36.25,0.64,1.0,3
136.80334100,136803341,0.0,89.57000000000001,0.0,35.85,38.14,44.08,0.64,1.0,3
136.80594800,136805948,0.0,98.72,0.0,29.61,47.19,50.18,0.64,1.0,3
136.80849500,136808495,0.0,109.06,0.0,20.21,51.61,56.18,0.64,1.0,3
136.81084600,136810846,0.0,115.65,0.0,12.59,59.21,59.21,0.64,1.0,3
136.81343300,136813433,0.0,121.7,0.0,4.69,61.28,61.28,0.64,1.0,3
136.81603400,136816034,0.0,129.36,0.0,-6.12,62.84,62.84,0.64,1.0,3
136.81836600,136818366,0.0,134.94,0.0,-14.370000000000001,63.02,63.02,0.64,1.0,3
136.82093600,136820936,0.0,140.77,0.0,-22.59,69.49,62.34,0.64,1.0,3
136.82351600,136823516,0.0,147.14000000000001,0.0,-30.7,85.38,60.64,0.64,1.0,3
136.82603600,136826036,0.0,157.23,0.0,-41.18,90.88,56.36,0.64,1.0,3
136.82843800,136828438,0.0,166.64000000000001,0.0,-48.550000000000004,113.31,50.88,0.64,1.0,3
136.83089600,136830896,0.0,178.79,0.0,-55.07,104.26,42.47,0.64,1.0,3
136.83349100,136833491,0.0,-158.83,0.0,-61.410000000000004,114.26,25.03,0.64,1.0,3
136.83586200,136835862,0.0,-137.70000000000002,0.0,-63.36,106.44,7.42,0.64,1.0,3
136.83849900,136838499,0.0,-116.04,0.0,-62.17,107.73,349.28000000000003,0.64,1.0,3
136.84110900,136841109,0.0,-92.36,0.0,-56.410000000000004,97.32000000000001,330.46,0.64,1.0,3
136.84336900,136843369,0.0,-79.55,0.0,-50.33,109.09,321.04,0.64,1.0,3
136.84590900,136845909,0.0,-69.71000000000001,0.0,-43.27,97.28,314.74,0.64,1.0,3
136.84849800,136848498,0.0,-59.410000000000004,0.0,-32.95,162.93,309.71,0.64,1.0,3
136.85084200,136850842,0.0,-52.88,0.0,-25.02,48.34,307.41,0.64,1.0,3
136.85343800,136853438,0.0,-47.04,0.0,-16.93,219.28,306.17,0.64,1.0,3
136.85609800,136856098,0.0,-39.65,0.0,-5.98,358.81,306.02,0.64,1.0,3
136.85836100,136858361,0.0,-34.06,0.0,2.02,278.34000000000003,306.64,0.64,1.0,3
136.86092700,136860927,0.0,-28.3,0.0,9.94,310.29,308.05,0.64,1.0,3
136.86338400,136863384,0.0,-21.0,0.0,18.94,310.91,310.92,0.64,1.0,3
136.86602600,136866026,0.0,-12.700000000000001,0.0,27.490000000000002,315.23,315.24,0.64,1.0,3
136.86844000,136868440,0.0,-4.2700000000000005,0.0,34.1,320.31,320.32,0.64,1.0,3
136.87088700,136870887,0.0,5.59,0.0,39.93,327.02,327.03000000000003,0.64,1.0,3
136.87349900,136873499,0.0,21.67,0.0,45.89,339.17,339.18,0.64,1.0,3
136.87586000,136875860,0.0,35.660000000000004,0.0,48.32,350.11,350.12,0.64,1.0,3
136.87844300,136878443,0.0,50.5,0.0,48.81,1.92,1.92,0.64,1.0,3
136.88098800,136880988,0.0,69.71000000000001,0.0,46.26,17.19,17.19,0.64,1.0,3
136.88333700,136883337,0.0,82.23,0.0,42.21,20.05,26.52,0.64,1.0,3
136.88592800,136885928,0.0,92.97,0.0,36.9,29.85,33.95,0.64,1.0,3
136.88851400,136888514,0.0,104.92,0.0,28.330000000000002,33.37,41.33,0.64,1.0,3
136.89083300,136890833,0.0,112.29,0.0,21.12,43.14,44.88,0.71,1.0,3
136.89343000,136893430,0.0,118.91,0.0,13.58,44.65,47.31,0.71,1.0,3
136.89600300,136896003,0.0,127.03,0.0,3.08,49.26,49.26,0.71,1.0,3
136.89836200,136898362,0.0,132.72,0.0,-4.93,49.550000000000004,49.550000000000004,0.71,1.0,3
136.90093400,136900934,0.0,138.5,0.0,-12.950000000000001,49.03,49.03,0.71,1.0,3
136.90339500,136903395,0.0,145.67000000000002,0.0,-22.240000000000002,54.07,47.37,0.71,1.0,3
136.90602100,136906021,0.0,153.76,0.0,-31.23,75.83,44.230000000000004,0.71,1.0,3
136.90843800,136908438,0.0,161.73,0.0,-38.63,82.07000000000001,39.95,0.71,1.0,3
136.91089400,136910894,0.0,171.4,0.0,-45.410000000000004,95.69,33.75,0.71,1.0,3
136.91353400,136913534,0.0,-171.85,0.0,-52.97,92.55,21.53,0.71,1.0,3
136.91593500,136915935,0.0,-155.96,0.0,-56.79,107.26,8.69,0.71,1.0,3
136.91843300,136918433,0.0,-137.70000000000002,0.0,-58.27,91.19,353.45,0.71,1.0,3
136.92100000,136921000,0.0,-113.34,0.0,-56.19,98.35000000000001,333.26,0.71,1.0,3
136.92356900,136923569,0.0,-97.95,0.0,-52.050000000000004,90.91,320.84000000000003,0.71,1.0,3
136.92591000,136925910,0.0,-85.60000000000001,0.0,-46.28,96.19,311.55,0.71,1.0,3
136.92849800,136928498,0.0,-72.76,0.0,-37.04,88.69,303.2,0.71,1.0,3
136.93083500,136930835,0.0,-65.03,0.0,-29.51,152.32,298.89,0.71,1.0,3
136.93343600,136933436,0.0,-58.410000000000004,0.0,-21.59,36.78,295.96,0.71,1.0,3
136.93599100,136935991,0.0,-50.5,0.0,-10.66,207.45000000000002,293.79,0.71,1.0,3
136.93847900,136938479,0.0,-44.910000000000004,0.0,-2.43,347.6,292.99,0.71,1.0,3
136.94093800,136940938,0.0,-39.42,0.0,5.83,264.01,292.98,0.71,1.0,3
136.94354800,136943548,0.0,-31.69,0.0,16.79,298.78000000000003,294.40000000000003,0.71,1.0,3
136.94582800,136945828,0.0,-25.3,0.0,24.73,296.40000000000003,296.41,0.71,1.0,3
136.94843200,136948432,0.0,-18.080000000000002,0.0,32.4,299.59000000000003,299.6,0.71,1.0,3
136.95086900,136950869,0.0,-7.96,0.0,40.75,305.39,305.40000000000003,0.71,1.0,3
136.95353200,136953532,0.0,4.8,0.0,48.01,314.1,314.11,0.71,1.0,3
136.95592600,136955926,0.0,18.56,0.0,52.78,324.33,324.34000000000003,0.71,1.0,3
136.95842500,136958425,0.0,34.9,0.0,55.68,337.23,337.24,0.71,1.0,3
136.96099100,136960991,0.0,58.72,0.0,55.74,356.54,356.55,0.71,1.0,3
136.96337500,136963375,0.0,75.19,0.0,52.96,2.94,9.41,0.71,1.0,3
136.96590400,136965904,0.0,89.13,0.0,48.31,10.84,19.67,0.71,1.0,3
136.96850200,136968502,0.0,103.8,0.0,40.02,17.13,29.29,0.71,1.0,3
136.97082900,136970829,0.0,112.5,0.0,32.910000000000004,22.73,33.74,0.71,1.0,3
136.97344100,136973441,0.0,119.97,0.0,25.36,26.61,36.64,0.71,1.0,3
136.97599100,136975991,0.0,128.7,0.0,14.81,32.87,38.75,0.71,1.0,3
136.97837900,136978379,0.0,134.74,0.0,6.8,38.99,38.99,0.71,1.0,3
136.98093200,136980932,0.0,140.70000000000002,0.0,-1.19,38.39,38.39,0.71,1.0,3
136.98353100,136983531,0.0,148.88,0.0,-11.790000000000001,36.34,36.34,0.71,1.0,3
136.98582900,136985829,0.0,155.5,0.0,-19.45,47.550000000000004,33.5,0.71,1.0,3
136.98845300,136988453,0.0,162.92000000000002,0.0,-26.73,65.45,29.54,0.71,1.0,3
136.99086600,136990866,0.0,173.0,0.0,-34.54,76.06,23.2,0.71,1.0,3
136.99353800,136993538,0.0,-174.81,0.0,-41.160000000000004,92.73,14.51,0.71,1.0,3
136.99592700,136995927,0.0,-162.43,0.0,-45.45,93.65,4.78,0.71,1.0,3
136.99843400,136998434,0.0,-145.86,0.0,-48.300000000000004,96.23,351.27,0.71,1.0,3
137.00107200,137001072,0.0,-128.31,0.0,-48.300000000000004,93.88,336.74,0.71,1.0,3
137.00344500,137003445,0.0,-114.03,0.0,-46.02,95.43,324.86,0.71,1.0,3
137.00589400,137005894,0.0,-101.41,0.0,-41.92,91.02,314.69,0.71,1.0,3
137.00853500,137008535,0.0,-87.36,0.0,-34.43,90.94,304.13,0.71,1.0,3
137.01086400,137010864,0.0,-78.82000000000001,0.0,-27.69,145.02,298.15000000000003,0.71,1.0,3
137.01340400,137013404,0.0,-71.51,0.0,-20.32,37.160000000000004,293.61,0.71,1.0,3
137.01598200,137015982,0.0,-62.99,0.0,-9.870000000000001,197.71,289.31,0.71,1.0,3
137.01839300,137018393,0.0,-57.32,0.0,-1.72,345.79,286.93,0.71,1.0,3
137.02092900,137020929,0.0,-51.96,0.0,6.6000000000000005,252.20000000000002,285.36,0.71,1.0,3
137.02386400,137023864,0.0,-44.76,0.0,17.84,294.21,284.52,0.71,1.0,3
137.02601900,137026019,0.0,-39.18,0.0,26.26,284.62,284.63,0.71,1.0,3
137.02844000,137028440,0.0,-33.08,0.0,34.63,285.74,285.75,0.71,1.0,3
137.03101400,137031014,0.0,-23.13,0.0,45.45,289.56,289.57,0.71,1.0,3
137.03334000,137033340,0.0,-13.55,0.0,53.09,294.67,294.68,0.71,1.0,3
137.03593400,137035934,0.0,-0.64,0.0,59.94,303.3,303.31,0.71,1.0,3
137.03847300,137038473,0.0,21.21,0.0,65.9,320.32,320.33,0.71,1.0,3
137.04106100,137041061,0.0,50.39,0.0,67.93,344.74,344.75,0.71,1.0,3
137.04344100,137043441,0.0,74.97,0.0,65.8,356.53000000000003,5.04,0.71,1.0,3
137.04589700,137045897,0.0,96.57000000000001,0.0,59.79,3.97,21.580000000000002,0.71,1.0,3
137.04853700,137048537,0.0,111.25,0.0,51.77,9.65,31.03,0.71,1.0,3
137.05093400,137050934,0.0,120.54,0.0,44.2,12.74,35.410000000000004,0.71,1.0,3
137.05339700,137053397,0.0,128.08,0.0,36.28,16.27,37.77,0.71,1.0,3
137.05599700,137055997,0.0,136.55,0.0,25.42,19.0,38.730000000000004,0.71,1.0,3
137.05884400,137058844,0.0,-135.0,0.0,35.26,347.36,0.0,0.71,1.0,3
137.06090100,137060901,0.0,-135.0,0.0,35.26,50.77,349.81,0.71,1.0,3
137.06334100,137063341,0.0,-135.0,0.0,35.26,336.21,336.22,0.71,1.0,3
137.06617300,137066173,0.0,-135.0,0.0,35.26,14.36,326.03000000000003,0.71,1.0,3
137.06843100,137068431,0.0,-135.0,0.0,35.26,315.83,315.84000000000003,0.71,1.0,3
137.07083400,137070834,0.0,-135.0,0.0,35.26,350.57,302.25,0.71,1.0,3
137.07359500,137073595,0.0,-135.0,0.0,35.26,292.04,292.05,0.71,1.0,3
137.07592500,137075925,0.0,-135.0,0.0,35.26,330.19,281.86,0.71,1.0,3
137.07837200,137078372,0.0,-135.0,0.0,35.26,268.26,268.27,0.71,1.0,3
137.08101800,137081018,0.0,-135.0,0.0,35.25,306.41,258.08,0.71,1.0,3
137.08343800,137083438,0.0,-135.0,0.0,35.25,247.88,247.89000000000001,0.71,1.0,3
137.08585400,137085854,0.0,-135.0,0.0,35.25,282.62,234.3,0.71,1.0,3
137.08854000,137088540,0.0,-135.0,0.0,35.25,224.1,224.11,0.71,1.0,3
137.09092200,137090922,0.0,-135.0,0.0,35.25,262.23,213.91,0.71,1.0,3
137.09339000,137093390,0.0,-135.0,0.0,35.25,202.01,202.02,0.77,1.0,3
137.09602300,137096023,0.0,-135.0,0.0,35.25,238.45000000000002,190.13,0.77,1.0,3
137.09847000,137098470,0.0,-135.0,0.0,35.25,179.93,179.93,0.77,1.0,3
137.10093400,137100934,0.0,-135.0,0.0,35.25,218.06,169.74,0.77,1.0,3
137.10351300,137103513,0.0,-134.99,0.0,35.25,156.15,156.15,0.77,1.0,3
137.10590200,137105902,0.0,-134.99,0.0,35.25,194.28,145.96,0.77,1.0,3
137.10873300,137108733,0.0,-134.99,0.0,35.25,135.77,135.77,0.77,1.0,3
137.11111400,137111114,0.0,-134.99,0.0,35.25,170.5,122.18,0.77,1.0,3
137.11332700,137113327,0.0,-134.99,0.0,35.25,111.99000000000001,111.99000000000001,0.77,1.0,3
137.11592900,137115929,0.0,-134.99,0.0,35.25,150.11,101.8,0.77,1.0,3
137.11853500,137118535,0.0,-134.99,0.0,35.25,88.21000000000001,88.21000000000001,0.77,1.0,3
137.12083400,137120834,0.0,-134.99,0.0,35.25,126.33,78.01,0.77,1.0,3
137.12357100,137123571,0.0,-134.99,0.0,35.26,67.82000000000001,67.82000000000001,0.77,1.0,3
137.12586400,137125864,0.0,-134.99,0.0,35.26,104.25,55.93,0.77,1.0,3
137.12879500,137128795,0.0,-134.99,0.0,35.26,44.04,44.04,0.77,1.0,3
137.13092300,137130923,0.0,-134.99,0.0,35.26,81.77,33.44,0.77,1.0,3
137.13338800,137133388,0.0,-134.99,0.0,35.26,21.16,21.150000000000002,0.77,1.0,3
137.13602300,137136023,0.0,-134.99,0.0,35.26,57.18,8.86,0.77,1.0,3
137.13853200,137138532,0.0,-135.0,0.0,35.26,358.26,358.27,0.77,1.0,3
137.14089600,137140896,0.0,-135.0,0.0,35.26,35.980000000000004,347.66,0.77,1.0,3
137.14379500,137143795,0.0,-135.0,0.0,35.26,333.67,333.66,0.77,1.0,3
137.14586600,137145866,0.0,-135.0,0.0,35.26,11.39,323.07,0.77,1.0,3
137.14839900,137148399,0.0,-135.0,0.0,35.26,312.48,312.47,0.77,1.0,3
137.15100100,137151001,0.0,-135.0,0.0,35.26,346.8,298.48,0.77,1.0,3
137.15342900,137153429,0.0,-135.0,0.0,35.26,287.88,287.88,0.77,1.0,3
137.15593900,137155939,0.0,-135.0,0.0,35.26,325.6,277.28000000000003,0.77,1.0,3
137.15852300,137158523,0.0,-135.0,0.0,35.26,263.28000000000003,263.28000000000003,0.77,1.0,3
137.16083400,137160834,0.0,-135.0,0.0,35.25,301.0,252.69,0.77,1.0,3
137.16343500,137163435,0.0,-135.0,0.0,35.25,242.09,242.09,0.77,1.0,3
137.16599700,137165997,0.0,-135.0,0.0,35.25,276.41,228.1,0.77,1.0,3
137.16833800,137168338,0.0,-135.0,0.0,35.25,217.5,217.5,0.77,1.0,3
137.17094200,137170942,0.0,-135.0,0.0,35.25,255.21,206.9,0.77,1.0,3
137.17350800,137173508,0.0,-135.0,0.0,35.25,192.9,192.9,0.77,1.0,3
137.17583600,137175836,0.0,-135.0,0.0,35.25,230.62,182.31,0.77,1.0,3
137.17845900,137178459,0.0,-135.0,0.0,35.25,171.71,171.70000000000002,0.77,1.0,3
137.18086900,137180869,0.0,-135.0,0.0,35.25,207.73000000000002,159.41,0.77,1.0,3
137.18353000,137183530,0.0,-134.99,0.0,35.25,147.12,147.12,0.77,1.0,3
137.18592600,137185926,0.0,-134.99,0.0,35.25,184.85,136.54,0.77,1.0,3
137.18839600,137188396,0.0,-134.99,0.0,35.25,124.26,124.26,0.77,1.0,3
137.19102900,137191029,0.0,-134.99,0.0,35.25,160.29,111.98,0.77,1.0,3
137.19343000,137193430,0.0,-134.99,0.0,35.25,101.38,101.38,0.77,1.0,3
137.19590000,137195900,0.0,-134.99,0.0,35.25,139.09,90.78,0.77,1.0,3
137.19854300,137198543,0.0,-134.99,0.0,35.25,76.78,76.78,0.77,1.0,3
137.20086900,137200869,0.0,-134.99,0.0,35.26,114.52,66.21000000000001,0.77,1.0,3
137.20342000,137203420,0.0,-134.99,0.0,35.26,55.64,55.64,0.77,1.0,3
137.20599300,137205993,0.0,-134.99,0.0,35.26,89.99,41.67,0.77,1.0,3
137.20834300,137208343,0.0,-134.99,0.0,35.26,31.12,31.11,0.77,1.0,3
137.21093000,137210930,0.0,-134.99,0.0,35.26,68.88,20.56,0.77,1.0,3
137.21358800,137213588,0.0,-134.99,0.0,35.26,6.62,6.61,0.77,1.0,3
137.21581900,137215819,0.0,-135.0,0.0,35.26,44.410000000000004,356.1,0.77,1.0,3
137.21847400,137218474,0.0,-135.0,0.0,35.26,345.57,345.57,0.77,1.0,3
137.22085700,137220857,0.0,-135.0,0.0,35.26,21.67,333.35,0.77,1.0,3
137.22372800,137223728,0.0,-135.0,0.0,35.26,321.13,321.13,0.77,1.0,3
137.22592400,137225924,0.0,-135.0,0.0,35.26,358.96,310.64,0.77,1.0,3
137.22838500,137228385,0.0,-135.0,0.0,35.26,298.45,298.45,0.77,1.0,3
137.23102900,137231029,0.0,-135.0,0.0,35.26,334.58,286.26,0.77,1.0,3
137.23343600,137233436,0.0,-135.0,0.0,35.26,275.79,275.79,0.77,1.0,3
137.23589400,137235894,0.0,-135.0,0.0,35.26,313.64,265.33,0.77,1.0,3
137.23864200,137238642,0.0,-135.0,0.0,35.25,251.46,251.46,0.77,1.0,3
137.24085800,137240858,0.0,-135.0,0.0,35.25,289.33,241.02,0.77,1.0,3
137.24341700,137243417,0.0,-135.0,0.0,35.25,230.57,230.58,0.77,1.0,3
137.24622700,137246227,0.0,-135.0,0.0,35.25,265.05,216.74,0.77,1.0,3
137.24841600,137248416,0.0,-134.99,0.0,35.25,206.36,206.36,0.77,1.0,3
137.25093500,137250935,0.0,-134.98,0.0,35.25,244.28,195.99,0.77,1.0,3
137.25349600,137253496,0.0,-134.97,0.0,35.26,182.20000000000002,182.21,0.77,1.0,3
137.25583800,137255838,0.0,-134.96,0.0,35.26,220.15,171.85,0.77,1.0,3
137.25846000,137258460,0.0,-134.96,0.0,35.27,161.51,161.5,0.77,1.0,3
137.26100400,137261004,0.0,-134.96,0.0,35.28,196.05,147.75,0.77,1.0,3
137.26333700,137263337,0.0,-134.96,0.0,35.300000000000004,137.44,137.42000000000002,0.77,1.0,3
137.26593500,137265935,0.0,-134.97,0.0,35.31,175.41,127.08,0.77,1.0,3
137.26851700,137268517,0.0,-134.98,0.0,35.32,113.39,113.34,0.77,1.0,3
137.27083200,137270832,0.0,-135.0,0.0,35.33,151.39000000000001,103.03,0.77,1.0,3
137.27343500,137273435,0.0,-135.02,0.0,35.33,92.8,92.71000000000001,0.77,1.0,3
137.27586900,137275869,0.0,-135.04,0.0,35.33,129.09,80.69,0.77,1.0,3
137.27855600,137278556,0.0,-135.06,0.0,35.33,68.79,68.67,0.77,1.0,3
137.28092400,137280924,0.0,-135.08,0.0,35.33,106.8,58.370000000000005,0.77,1.0,3
137.28339900,137283399,0.0,-135.11,0.0,35.31,46.52,46.38,0.77,1.0,3
137.28602900,137286029,0.0,-135.13,0.0,35.300000000000004,82.82000000000001,34.39,0.77,1.0,3
137.28844400,137288444,0.0,-135.14000000000001,0.0,35.28,24.26,24.11,0.77,1.0,3
137.29089100,137290891,0.0,-135.16,0.0,35.26,62.27,13.85,0.77,1.0,3
137.29350100,137293501,0.0,-135.16,0.0,35.22,0.31,0.19,0.77,1.0,3
137.29586600,137295866,0.0,-135.16,0.0,35.2,38.33,349.95,0.81,1.0,3
137.29845100,137298451,0.0,-135.15,0.0,35.17,339.78000000000003,339.72,0.81,1.0,3
137.30099400,137300994,0.0,-135.13,0.0,35.14,14.41,326.09000000000003,0.81,1.0,3
137.30335000,137303350,0.0,-135.1,0.0,35.11,315.87,315.88,0.81,1.0,3
137.30591900,137305919,0.0,-135.07,0.0,35.09,353.90000000000003,305.67,0.81,1.0,3
137.30852200,137308522,0.0,-135.03,0.0,35.07,292.06,292.07,0.81,1.0,3
137.31084100,137310841,0.0,-134.98,0.0,35.06,329.94,281.89,0.81,1.0,3
137.31344500,137313445,0.0,-134.94,0.0,35.06,271.69,271.7,0.81,1.0,3
137.31600400,137316004,0.0,-134.88,0.0,35.07,306.04,258.13,0.81,1.0,3
137.31837600,137318376,0.0,-134.84,0.0,35.08,247.94,247.95000000000002,0.81,1.0,3
137.32099400,137320994,0.0,-134.8,0.0,35.11,285.59000000000003,237.78,0.81,1.0,3
137.32354000,137323540,0.0,-134.76,0.0,35.13,227.59,227.6,0.81,1.0,3
137.32599500,137325995,0.0,-134.73,0.0,35.18,261.81,214.02,0.81,1.0,3
137.32838300,137328383,0.0,-134.7,0.0,35.21,203.86,203.84,0.81,1.0,3
137.33090300,137330903,0.0,-134.69,0.0,35.26,241.49,193.66,0.81,1.0,3
137.33351700,137333517,0.0,-134.69,0.0,35.31,180.14000000000001,180.07,0.81,1.0,3
137.33582800,137335828,0.0,-134.7,0.0,35.36,217.81,169.88,0.81,1.0,3
137.33854500,137338545,0.0,-134.72,0.0,35.4,159.85,159.68,0.81,1.0,3
137.34121400,137341214,0.0,-134.76,0.0,35.45,194.11,146.08,0.81,1.0,3
137.34333400,137343334,0.0,-134.74,0.0,35.730000000000004,136.97,136.66,0.81,1.0,3
137.34592500,137345925,0.0,-134.78,0.0,36.01,175.68,127.21000000000001,0.81,1.0,3
137.34851300,137348513,0.0,-134.94,0.0,36.28,115.10000000000001,114.28,0.81,1.0,3
137.35082900,137350829,0.0,-135.28,0.0,36.51,153.79,104.65,0.81,1.0,3
137.35343400,137353434,0.0,-135.65,0.0,36.69,96.64,94.99,0.81,1.0,3
137.35615600,137356156,0.0,-136.11,0.0,36.79,133.54,83.58,0.81,1.0,3
137.35871900,137358719,0.0,-136.59,0.0,36.81,74.62,72.16,0.81,1.0,3
137.36093500,137360935,0.0,-137.14000000000001,0.0,36.7,113.05,62.38,0.81,1.0,3
137.36340700,137363407,0.0,-137.66,0.0,36.53,55.7,52.620000000000005,0.81,1.0,3
137.36599800,137365998,0.0,-138.20000000000002,0.0,36.13,90.59,39.46,0.81,1.0,3
137.36837100,137368371,0.0,-138.62,0.0,35.68,32.980000000000004,29.77,0.81,1.0,3
137.37091400,137370914,0.0,-138.94,0.0,35.17,71.14,20.14,0.81,1.0,3
137.37349900,137373499,0.0,-139.1,0.0,34.44,10.06,7.22,0.81,1.0,3
137.37583300,137375833,0.0,-139.11,0.0,33.76,47.76,357.79,0.81,1.0,3
137.37846400,137378464,0.0,-138.98,0.0,33.08,350.07,348.43,0.81,1.0,3
137.38100100,137381001,0.0,-138.52,0.0,32.26,24.43,335.86,0.81,1.0,3
137.38334000,137383340,0.0,-137.98,0.0,31.6,326.71,326.72,0.81,1.0,3
137.38593500,137385935,0.0,-137.33,0.0,31.02,3.74,317.64,0.81,1.0,3
137.38852600,137388526,0.0,-136.27,0.0,30.46,305.36,305.37,0.81,1.0,3
137.39082800,137390828,0.0,-135.23,0.0,30.13,338.17,296.51,0.81,1.0,3
137.39343300,137393433,0.0,-134.14000000000001,0.0,29.93,287.66,287.67,0.81,1.0,3
137.39602600,137396026,0.0,-132.68,0.0,29.98,313.55,275.64,0.81,1.0,3
137.39836300,137398363,0.0,-131.47,0.0,30.21,266.88,266.89,0.81,1.0,3
137.40093300,137400933,0.0,-130.31,0.0,30.6,293.28000000000003,258.12,0.81,1.0,3
137.40338700,137403387,0.0,-129.08,0.0,31.27,247.69,247.70000000000002,0.81,1.0,3
137.40602300,137406023,0.0,-128.01,0.0,32.13,271.45,237.22,0.81,1.0,3
137.40843400,137408434,0.0,-127.16,0.0,33.09,228.5,228.29,0.81,1.0,3
137.41089200,137410892,0.0,-126.5,0.0,34.15,254.15,219.28,0.81,1.0,3
137.41350800,137413508,0.0,-126.03,0.0,35.71,207.97,206.8,0.81,1.0,3
137.41586300,137415863,0.0,-125.92,0.0,37.01,234.25,197.46,0.81,1.0,3
137.41845700,137418457,0.0,-126.07000000000001,0.0,38.31,191.0,187.96,0.81,1.0,3
137.42099000,137420990,0.0,-126.83,0.0,39.97,213.64000000000001,174.70000000000002,0.81,1.0,3
137.42357700,137423577,0.0,-127.79,0.0,41.21,171.08,164.67000000000002,0.81,1.0,3
137.42592800,137425928,0.0,-129.04,0.0,42.300000000000004,196.35,154.42000000000002,0.81,1.0,3
137.42851700,137428517,0.0,-131.2,0.0,43.410000000000004,149.75,140.18,0.81,1.0,3
137.43082800,137430828,0.0,-133.17000000000002,0.0,44.01,175.70000000000002,129.39000000000001,0.81,1.0,3
137.43344800,137433448,0.0,-135.27,0.0,44.33,131.54,118.48,0.81,1.0,3
137.43599400,137435994,0.0,-138.15,0.0,44.230000000000004,153.37,103.66,0.81,1.0,3
137.43848300,137438483,0.0,-140.35,0.0,43.81,109.8,92.68,0.81,1.0,3
137.44093600,137440936,0.0,-142.38,0.0,43.1,134.29,81.82000000000001,0.81,1.0,3
137.44337300,137443373,0.0,-144.42000000000002,0.0,41.9,88.64,69.31,0.81,1.0,3
137.44628000,137446280,0.0,-146.03,0.0,40.42,111.21000000000001,57.120000000000005,0.81,1.0,3
137.44842700,137448427,0.0,-147.56,0.0,39.13,67.81,47.93,0.81,1.0,3
137.45087700,137450877,0.0,-148.85,0.0,37.35,92.14,37.26,0.81,1.0,3
137.45353100,137453531,0.0,-149.67000000000002,0.0,35.42,46.34,26.900000000000002,0.81,1.0,3
137.45593000,137455930,0.0,-150.05,0.0,33.42,71.78,18.53,0.81,1.0,3
137.45842400,137458424,0.0,-150.06,0.0,31.39,27.03,10.36,0.81,1.0,3
137.46099600,137460996,0.0,-149.29,0.0,28.71,48.81,359.28000000000003,0.81,1.0,3
137.46337400,137463374,0.0,-148.32,0.0,26.580000000000002,1.4000000000000001,351.63,0.81,1.0,3
137.46591000,137465910,0.0,-147.07,0.0,24.59,27.19,344.06,0.81,1.0,3
137.46849500,137468495,0.0,-144.74,0.0,22.28,336.61,333.6,0.81,1.0,3
137.47083900,137470839,0.0,-142.54,0.0,20.66,0.33,326.43,0.81,1.0,3
137.47343300,137473433,0.0,-140.15,0.0,19.31,319.26,319.27,0.81,1.0,3
137.47600600,137476006,0.0,-136.59,0.0,18.150000000000002,332.81,309.18,0.81,1.0,3
137.47836500,137478365,0.0,-133.65,0.0,17.63,302.19,302.2,0.81,1.0,3
137.48093700,137480937,0.0,-130.66,0.0,17.45,308.37,295.21,0.81,1.0,3
137.48352000,137483520,0.0,-126.62,0.0,18.0,285.31,285.32,0.81,1.0,3
137.48584300,137485843,0.0,-123.51,0.0,18.89,286.77,278.46,0.81,1.0,3
137.48843900,137488439,0.0,-120.51,0.0,20.13,271.6,271.61,0.81,1.0,3
137.49088300,137490883,0.0,-117.23,0.0,22.11,271.2,263.34000000000003,0.81,1.0,3
137.49352600,137493526,0.0,-114.23,0.0,24.51,256.07,255.08,0.81,1.0,3
137.49593200,137495932,0.0,-111.84,0.0,27.05,257.77,248.29,0.81,1.0,3
137.49842100,137498421,0.0,-109.51,0.0,30.41,243.0,240.01,0.85,1.0,3
137.50119300,137501193,0.0,-107.68,0.0,34.04,243.98000000000002,231.57,0.85,1.0,3
137.50343600,137503436,0.0,-106.60000000000001,0.0,37.480000000000004,230.83,224.45000000000002,0.85,1.0,3
137.50589600,137505896,0.0,-106.03,0.0,41.0,232.96,217.06,0.85,1.0,3
137.50849600,137508496,0.0,-106.55,0.0,45.87,216.07,205.83,0.85,1.0,3
137.51086300,137510863,0.0,-108.03,0.0,49.550000000000004,219.36,197.14000000000001,0.85,1.0,3
137.51341400,137513414,0.0,-110.53,0.0,53.02,203.58,187.59,0.85,1.0,3
137.51599800,137515998,0.0,-116.21000000000001,0.0,57.1,201.06,172.25,0.85,1.0,3
137.51836000,137518360,0.0,-122.27,0.0,59.480000000000004,186.42000000000002,159.56,0.85,1.0,3
137.52092900,137520929,0.0,-129.61,0.0,61.06,184.17000000000002,145.64000000000001,0.85,1.0,3
137.52363700,137523637,0.0,-140.93,0.0,61.49,162.78,125.12,0.85,1.0,3
137.52582300,137525823,0.0,-149.23,0.0,60.49,164.36,110.31,0.85,1.0,3
137.52844200,137528442,0.0,-156.44,0.0,58.54,145.33,96.55,0.85,1.0,3
137.53100300,137531003,0.0,-163.75,0.0,54.52,143.63,79.88,0.85,1.0,3
137.53335500,137533355,0.0,-167.43,0.0,50.85,128.07,69.44,0.85,1.0,3
137.53593300,137535933,0.0,-169.81,0.0,46.85,128.77,60.14,0.85,1.0,3
137.53862900,137538629,0.0,-171.17000000000002,0.0,41.03,110.15,48.7,0.85,1.0,3
137.54081700,137540817,0.0,-171.15,0.0,36.57,109.76,41.18,0.85,1.0,3
137.54344200,137543442,0.0,-170.45000000000002,0.0,32.15,92.48,34.05,0.85,1.0,3
137.54587500,137545875,0.0,-168.79,0.0,27.07,88.48,25.87,0.85,1.0,3
137.54878900,137548789,0.0,-166.42000000000002,0.0,22.23,64.24,17.86,0.85,1.0,3
137.55092200,137550922,0.0,-164.03,0.0,18.53,56.160000000000004,11.59,0.85,1.0,3
137.55339500,137553395,0.0,-161.28,0.0,15.1,32.72,5.29,0.85,1.0,3
137.55598300,137555983,0.0,-156.77,0.0,10.92,19.830000000000002,356.3,0.85,1.0,3
137.55839500,137558395,0.0,-153.11,0.0,8.28,349.92,349.93,0.85,1.0,3
137.56090700,137560907,0.0,-149.20000000000002,0.0,6.0600000000000005,350.48,343.44,0.85,1.0,3
137.56350600,137563506,0.0,-143.32,0.0,3.86,334.08,334.09000000000003,0.85,1.0,3
137.56582700,137565827,0.0,-138.81,0.0,2.84,327.35,327.36,0.85,1.0,3
137.56843500,137568435,0.0,-134.22,0.0,2.35,320.58,320.59000000000003,0.85,1.0,3
137.57099200,137570992,0.0,-127.77,0.0,2.72,311.02,311.03000000000003,0.85,1.0,3
137.57333200,137573332,0.0,-123.13000000000001,0.0,3.61,304.33,304.34000000000003,0.85,1.0,3
137.57593000,137575930,0.0,-118.61,0.0,5.04,297.73,297.74,0.85,1.0,3
137.57838400,137578384,0.0,-113.46000000000001,0.0,7.47,289.93,289.94,0.85,1.0,3
137.58103400,137581034,0.0,-108.66,0.0,10.57,282.33,282.34000000000003,0.85,1.0,3
137.58343200,137583432,0.0,-104.83,0.0,13.71,276.14,276.15000000000003,0.85,1.0,3
137.58588700,137585887,0.0,-100.69,0.0,18.0,268.87,268.88,0.85,1.0,3
137.58853800,137588538,0.0,-97.06,0.0,22.76,261.73,261.74,0.85,1.0,3
137.59093600,137590936,0.0,-94.34,0.0,27.12,255.89000000000001,255.9,0.85,1.0,3
137.59339700,137593397,0.0,-92.03,0.0,31.71,252.54,250.04,0.85,1.0,3
137.59600200,137596002,0.0,-89.73,0.0,38.44,245.23000000000002,241.61,0.85,1.0,3
137.59839400,137598394,0.0,-88.67,0.0,43.5,243.3,235.33,0.85,1.0,3
137.60091200,137600912,0.0,-88.34,0.0,48.63,236.52,228.59,0.85,1.0,3
137.60350100,137603501,0.0,-89.77,0.0,55.71,230.51,217.73000000000002,0.85,1.0,3
137.60582900,137605829,0.0,-92.58,0.0,60.75,224.45000000000002,208.38,0.85,1.0,3
137.60874300,137608743,0.0,-97.82000000000001,0.0,65.44,217.01,196.73000000000002,0.85,1.0,3
137.61111900,137611119,0.0,-111.59,0.0,70.67,200.07,174.25,0.85,1.0,3
137.61332200,137613322,0.0,-127.32000000000001,0.0,72.88,192.33,152.41,0.85,1.0,3
137.61592900,137615929,0.0,-145.69,0.0,72.97,173.66,127.94,0.85,1.0,3
137.61854800,137618548,0.0,-166.53,0.0,69.55,160.91,98.60000000000001,0.85,1.0,3
137.62082700,137620827,0.0,-176.07,0.0,65.39,154.59,82.86,0.85,1.0,3
137.62356600,137623566,0.0,178.3,0.0,60.49,146.44,70.94,0.85,1.0,3
137.62586100,137625861,0.0,175.0,0.0,54.15,140.68,59.93,0.85,1.0,3
137.62853500,137628535,0.0,173.98,0.0,47.59,133.23,50.9,0.85,1.0,3
137.63092800,137630928,0.0,174.21,0.0,41.9,128.71,44.12,0.85,1.0,3
137.63341100,137633411,0.0,175.26,0.0,36.27,121.60000000000001,37.84,0.85,1.0,3
137.63598700,137635987,0.0,177.84,0.0,28.72,113.63,29.67,0.85,1.0,3
137.63858100,137638581,0.0,-179.70000000000002,0.0,23.330000000000002,101.57000000000001,23.8,0.85,1.0,3
137.64091400,137640914,0.0,-176.78,0.0,18.19,92.05,17.900000000000002,0.85,1.0,3
137.64388300,137643883,0.0,-171.92000000000002,0.0,11.67,68.89,9.620000000000001,0.85,1.0,3
137.64581500,137645815,0.0,-167.86,0.0,7.1000000000000005,27.78,2.96,0.85,1.0,3
137.64844500,137648445,0.0,-163.33,0.0,3.04,5.15,356.04,0.85,1.0,3
137.65098400,137650984,0.0,-156.34,0.0,-1.47,346.25,346.26,0.85,1.0,3
137.65333700,137653337,0.0,-150.75,0.0,-4.22,338.67,338.68,0.85,1.0,3
137.65592300,137655923,0.0,-144.81,0.0,-6.21,330.83,330.84000000000003,0.85,1.0,3
137.65854100,137658541,0.0,-136.33,0.0,-7.46,320.0,320.01,0.85,1.0,3
137.66082700,137660827,0.0,-129.86,0.0,-7.57,311.88,311.89,0.85,1.0,3
137.66343400,137663434,0.0,-123.45,0.0,-6.7700000000000005,303.8,303.81,0.85,1.0,3
137.66586000,137665860,0.0,-116.14,0.0,-4.66,294.56,294.57,0.85,1.0,3
137.66853600,137668536,0.0,-109.28,0.0,-1.42,285.68,285.69,0.85,1.0,3
137.67092200,137670922,0.0,-103.68,0.0,2.0,278.44,278.45,0.85,1.0,3
137.67339000,137673390,0.0,-97.68,0.0,6.94,270.42,270.43,0.85,1.0,3
137.67602300,137676023,0.0,-92.35000000000001,0.0,12.63,262.85,262.86,0.85,1.0,3
137.67845900,137678459,0.0,-88.10000000000001,0.0,17.94,256.72,256.73,0.85,1.0,3
137.68088900,137680889,0.0,-84.33,0.0,23.650000000000002,250.81,250.82,0.85,1.0,3
137.68350100,137683501,0.0,-80.08,0.0,31.94,243.14000000000001,243.15,0.85,1.0,3
137.68587000,137685870,0.0,-77.24,0.0,38.37,237.93,237.56,0.85,1.0,3
137.68872100,137688721,0.0,-75.0,0.0,45.0,235.84,231.82,0.85,1.0,3
137.69100400,137691004,0.0,-73.34,0.0,54.21,228.04,223.47,0.85,1.0,3
137.69333800,137693338,0.0,-72.98,0.0,61.22,227.07,216.59,0.85,1.0,3
137.69593500,137695935,0.0,-74.76,0.0,68.19,217.89000000000001,207.78,0.85,1.0,3
137.69852500,137698525,0.0,-86.41,0.0,77.04,204.98000000000002,187.08,0.88,1.0,3
137.70084400,137700844,0.0,-116.0,0.0,81.99,179.79,150.79,0.88,1.0,3
137.70344000,137703440,0.0,-166.81,0.0,81.31,146.23,93.31,0.88,1.0,3
137.70602100,137706021,0.0,165.88,0.0,73.45,142.23,57.14,0.88,1.0,3
137.70834500,137708345,0.0,160.19,0.0,66.41,131.78,44.69,0.88,1.0,3
137.71093400,137710934,0.0,158.77,0.0,59.14,132.45,36.33,0.88,1.0,3
137.71336800,137713368,0.0,159.58,0.0,50.59,122.54,28.77,0.88,1.0,3
137.71603200,137716032,0.0,161.79,0.0,42.160000000000004,123.42,22.150000000000002,0.88,1.0,3
137.71846200,137718462,0.0,164.15,0.0,34.99,113.8,16.59,0.88,1.0,3
137.72087600,137720876,0.0,167.71,0.0,26.87,114.04,10.27,0.88,1.0,3
137.72376800,137723768,0.0,172.0,0.0,19.13,101.85000000000001,3.79,0.88,1.0,3
137.72592000,137725920,0.0,176.04,0.0,12.75,98.23,357.92,0.88,1.0,3
137.72840600,137728406,0.0,-179.35,0.0,6.8100000000000005,79.05,351.7,0.88,1.0,3
137.73099000,137730990,0.0,-172.21,0.0,-0.28,38.01,342.90000000000003,0.88,1.0,3
137.73337300,137733373,0.0,-166.35,0.0,-5.08,303.01,335.68,0.88,1.0,3
137.73589200,137735892,0.0,-159.88,0.0,-9.07,327.92,327.93,0.88,1.0,3
137.73864400,137738644,0.0,-150.28,0.0,-12.91,295.40000000000003,316.96,0.88,1.0,3
137.74084200,137740842,0.0,-142.64000000000001,0.0,-14.790000000000001,308.24,308.25,0.88,1.0,3
137.74343300,137743433,0.0,-134.75,0.0,-15.51,283.94,299.3,0.88,1.0,3
137.74612300,137746123,0.0,-124.15,0.0,-14.56,287.5,287.51,0.88,1.0,3
137.74833300,137748333,0.0,-116.2,0.0,-12.73,278.17,278.63,0.88,1.0,3
137.75092900,137750929,0.0,-108.68,0.0,-9.75,270.15,270.16,0.88,1.0,3
137.75351100,137753511,0.0,-99.61,0.0,-4.18,259.91,259.92,0.88,1.0,3
137.75582900,137755829,0.0,-93.32000000000001,0.0,0.79,252.8,252.81,0.88,1.0,3
137.75848200,137758482,0.0,-87.66,0.0,6.48,246.24,246.25,0.88,1.0,3
137.76087800,137760878,0.0,-82.59,0.0,12.76,240.17000000000002,240.18,0.88,1.0,3
137.76350900,137763509,0.0,-76.71000000000001,0.0,21.86,232.92000000000002,232.93,0.88,1.0,3
137.76586000,137765860,0.0,-72.61,0.0,29.01,227.82,227.83,0.88,1.0,3
137.76841800,137768418,0.0,-68.97,0.0,36.46,222.92000000000002,222.93,0.88,1.0,3
137.77098200,137770982,0.0,-64.83,0.0,46.74,216.73000000000002,216.74,0.88,1.0,3
137.77333300,137773333,0.0,-61.92,0.0,54.59,216.17000000000002,212.15,0.88,1.0,3
137.77592900,137775929,0.0,-59.64,0.0,62.56,210.97,207.26,0.88,1.0,3
137.77853300,137778533,0.0,-58.620000000000005,0.0,73.31,207.3,199.29,0.88,1.0,3
137.78083000,137780830,0.0,-61.4,0.0,81.38,200.4,189.74,0.88,1.0,3
137.78343700,137783437,0.0,-129.26,0.0,88.11,131.96,115.19,0.88,1.0,3
137.78609000,137786090,0.0,148.79,0.0,79.10000000000001,108.88,24.53,0.88,1.0,3
137.78833800,137788338,0.0,146.99,0.0,71.0,122.36,16.01,0.88,1.0,3
137.79093100,137790931,0.0,148.35,0.0,62.9,102.56,10.47,0.88,1.0,3
137.79352500,137793525,0.0,151.71,0.0,52.22,115.45,4.48,0.88,1.0,3
137.79583100,137795831,0.0,154.47,0.0,44.29,96.57000000000001,359.81,0.88,1.0,3
137.79845200,137798452,0.0,157.71,0.0,36.54,109.91,355.17,0.88,1.0,3
137.80087800,137800878,0.0,162.05,0.0,27.79,89.92,349.72,0.88,1.0,3
137.80354000,137803540,0.0,166.97,0.0,19.43,102.15,343.94,0.88,1.0,3
137.80594400,137805944,0.0,171.46,0.0,12.57,80.92,338.44,0.88,1.0,3
137.80840400,137808404,0.0,176.51,0.0,6.17,91.56,332.52,0.88,1.0,3
137.81099900,137810999,0.0,-175.84,0.0,-1.48,57.15,324.04,0.88,1.0,3
137.81336600,137813366,0.0,-169.54,0.0,-6.54,210.93,316.83,0.88,1.0,3
137.81591500,137815915,0.0,-162.56,0.0,-10.74,324.19,309.01,0.88,1.0,3
137.81853000,137818530,0.0,-152.33,0.0,-14.790000000000001,246.34,297.91,0.88,1.0,3
137.82084500,137820845,0.0,-144.24,0.0,-16.67,288.92,288.93,0.88,1.0,3
137.82356100,137823561,0.0,-135.88,0.0,-17.3,257.47,279.69,0.88,1.0,3
137.82600600,137826006,0.0,-124.77,0.0,-16.18,267.6,267.61,0.88,1.0,3
137.82833700,137828337,0.0,-116.79,0.0,-14.22,254.92000000000002,258.68,0.88,1.0,3
137.83093600,137830936,0.0,-109.3,0.0,-11.120000000000001,250.19,250.20000000000002,0.88,1.0,3
137.83351800,137833518,0.0,-100.21000000000001,0.0,-5.45,239.96,239.97,0.88,1.0,3
137.83583000,137835830,0.0,-94.08,0.0,-0.46,232.81,232.82,0.88,1.0,3
137.83852800,137838528,0.0,-88.58,0.0,5.22,226.21,226.22,0.88,1.0,3
137.84086900,137840869,0.0,-82.91,0.0,12.57,219.22,219.23000000000002,0.88,1.0,3
137.84372100,137843721,0.0,-78.01,0.0,20.52,212.74,212.75,0.88,1.0,3
137.84593900,137845939,0.0,-74.23,0.0,27.5,207.48000000000002,207.49,0.88,1.0,3
137.84839300,137848393,0.0,-70.95,0.0,34.77,202.37,202.38,0.88,1.0,3
137.85102400,137851024,0.0,-67.27,0.0,44.82,195.8,195.81,0.88,1.0,3
137.85343300,137853433,0.0,-65.03,0.0,52.370000000000005,194.65,190.64000000000001,0.88,1.0,3
137.85589400,137855894,0.0,-63.67,0.0,60.03,189.03,184.92000000000002,0.88,1.0,3
137.85856000,137858560,0.0,-64.34,0.0,70.35000000000001,183.96,175.28,0.88,1.0,3
137.86086700,137860867,0.0,-69.73,0.0,77.82000000000001,175.65,163.17000000000002,0.88,1.0,3
137.86340700,137863407,0.0,-97.75,0.0,84.27,148.08,128.51,0.88,1.0,3
137.86599500,137865995,0.0,172.03,0.0,81.55,75.43,29.62,0.88,1.0,3
137.86838300,137868383,0.0,158.77,0.0,74.54,126.37,9.620000000000001,0.88,1.0,3
137.87090900,137870909,0.0,156.11,0.0,67.11,64.33,0.09,0.88,1.0,3
137.87350500,137873505,0.0,156.83,0.0,57.050000000000004,115.99000000000001,351.53000000000003,0.88,1.0,3
137.87583200,137875832,0.0,158.47,0.0,49.7,55.99,345.81,0.88,1.0,3
137.87846400,137878464,0.0,160.88,0.0,42.480000000000004,108.29,340.52,0.88,1.0,3
137.88100000,137881000,0.0,164.93,0.0,33.03,46.11,333.74,0.88,1.0,3
137.88333900,137883339,0.0,168.27,0.0,26.3,97.33,328.31,0.88,1.0,3
137.88593200,137885932,0.0,172.12,0.0,19.88,34.46,322.74,0.88,1.0,3
137.88851800,137888518,0.0,178.02,0.0,11.790000000000001,79.47,315.01,0.88,1.0,3
137.89082700,137890827,0.0,-177.18,0.0,6.29,356.46,308.64,0.88,1.0,3
137.89343100,137893431,0.0,-171.84,0.0,1.37,359.23,301.87,0.88,1.0,3
137.89601400,137896014,0.0,-163.83,0.0,-4.23,280.7,292.27,0.88,1.0,3
137.89836300,137898363,0.0,-157.44,0.0,-7.54,284.42,284.43,0.88,1.0,3
137.90094500,137900945,0.0,-150.61,0.0,-9.93,266.26,276.2,0.9,1.0,3
137.90338300,137903383,0.0,-142.20000000000002,0.0,-11.5,266.2,266.3,0.9,1.0,3
137.90602400,137906024,0.0,-133.62,0.0,-11.61,250.19,256.24,0.9,1.0,3
137.90843200,137908432,0.0,-126.5,0.0,-10.790000000000001,247.57,247.58,0.9,1.0,3
137.91088200,137910882,0.0,-119.62,0.0,-8.950000000000001,239.11,239.12,0.9,1.0,3
137.91353100,137913531,0.0,-110.92,0.0,-5.04,228.41,228.42000000000002,0.9,1.0,3
137.91593400,137915934,0.0,-105.04,0.0,-1.34,220.75,220.76,0.9,1.0,3
137.91841800,137918418,0.0,-99.69,0.0,3.08,213.49,213.5,0.9,1.0,3
137.92099900,137920999,0.0,-93.29,0.0,9.96,204.5,204.51,0.9,1.0,3
137.92356100,137923561,0.0,-89.15,0.0,15.49,198.01,198.02,0.9,1.0,3
137.92591600,137925916,0.0,-85.56,0.0,21.43,191.74,191.75,0.9,1.0,3
137.92858500,137928585,0.0,-81.52,0.0,29.93,183.68,183.69,0.9,1.0,3
137.93082600,137930826,0.0,-79.13,0.0,36.38,177.52,177.52,0.9,1.0,3
137.93344200,137933442,0.0,-77.45,0.0,43.02,174.83,171.11,0.9,1.0,3
137.93600000,137936000,0.0,-76.57000000000001,0.0,52.120000000000005,166.56,161.86,0.9,1.0,3
137.93844200,137938442,0.0,-77.38,0.0,58.76,164.49,153.63,0.9,1.0,3
137.94093600,137940936,0.0,-80.65,0.0,65.24,154.22,143.19,0.9,1.0,3
137.94340400,137943404,0.0,-88.51,0.0,71.23,147.66,128.33,0.9,1.0,3
137.94622600,137946226,0.0,-113.89,0.0,77.16,117.65,93.81,0.9,1.0,3
137.94836000,137948360,0.0,-144.32,0.0,77.74,107.52,56.43,0.9,1.0,3
137.95090200,137950902,0.0,-168.33,0.0,74.46000000000001,84.19,25.46,0.9,1.0,3
137.95349300,137953493,0.0,176.68,0.0,67.06,80.41,1.12,0.9,1.0,3
137.95582600,137955826,0.0,172.53,0.0,60.88,68.68,349.66,0.9,1.0,3
137.95845900,137958459,0.0,171.22,0.0,54.480000000000004,67.76,340.81,0.9,1.0,3
137.96099300,137960993,0.0,171.76,0.0,45.81,54.25,330.93,0.9,1.0,3
137.96334600,137963346,0.0,173.29,0.0,39.6,53.46,324.13,0.9,1.0,3
137.96592800,137965928,0.0,175.57,0.0,33.56,40.13,317.66,0.9,1.0,3
137.96851600,137968516,0.0,179.47,0.0,25.76,34.61,309.16,0.9,1.0,3
137.97083400,137970834,0.0,-177.16,0.0,20.46,12.69,302.52,0.9,1.0,3
137.97344500,137973445,0.0,-173.28,0.0,15.56,3.29,295.76,0.9,1.0,3
137.97601300,137976013,0.0,-167.36,0.0,9.61,325.76,286.45,0.9,1.0,3
137.97837200,137978372,0.0,-162.59,0.0,5.91,287.54,279.04,0.9,1.0,3
137.98092300,137980923,0.0,-157.39000000000001,0.0,2.87,273.52,271.38,0.9,1.0,3
137.98339900,137983399,0.0,-150.87,0.0,0.16,262.16,262.17,0.9,1.0,3
137.98601900,137986019,0.0,-144.0,0.0,-1.44,252.69,252.70000000000002,0.9,1.0,3
137.98845200,137988452,0.0,-138.15,0.0,-1.95,244.35,244.36,0.9,1.0,3
137.99088500,137990885,0.0,-132.28,0.0,-1.61,236.01,236.02,0.9,1.0,3
137.99354000,137993540,0.0,-124.56,0.0,0.03,225.02,225.03,0.9,1.0,3
137.99592000,137995920,0.0,-119.23,0.0,2.14,216.85,216.86,0.9,1.0,3
137.99844700,137998447,0.0,-114.25,0.0,4.97,208.89000000000001,208.9,0.9,1.0,3
138.00098900,138000989,0.0,-108.11,0.0,9.69,198.65,198.66,0.9,1.0,3
138.00337700,138003377,0.0,-104.21000000000001,0.0,13.74,191.06,191.07,0.9,1.0,3
138.00588800,138005888,0.0,-100.83,0.0,18.26,183.62,183.63,0.9,1.0,3
138.00851300,138008513,0.0,-97.02,0.0,24.86,173.85,173.85,0.9,1.0,3
138.01086200,138010862,0.0,-94.98,0.0,29.900000000000002,167.61,166.28,0.9,1.0,3
138.01341900,138013419,0.0,-93.64,0.0,35.14,162.98,158.49,0.9,1.0,3
138.01598800,138015988,0.0,-93.02,0.0,42.34,153.68,147.53,0.9,1.0,3
138.01839500,138018395,0.0,-93.81,0.0,47.51,149.99,138.37,0.9,1.0,3
138.02123200,138021232,0.0,-96.01,0.0,52.51,140.17000000000002,128.07,0.9,1.0,3
138.02365500,138023655,0.0,-101.83,0.0,58.7,130.46,111.78,0.9,1.0,3
138.02582600,138025826,0.0,-108.88,0.0,62.370000000000005,120.99000000000001,96.93,0.9,1.0,3
138.02843300,138028433,0.0,-118.69,0.0,64.93,109.22,79.43,0.9,1.0,3
138.03087300,138030873,0.0,-132.72,0.0,66.05,94.09,56.49,0.9,1.0,3
138.03354000,138033540,0.0,-146.66,0.0,64.81,81.47,33.64,0.9,1.0,3
138.03593400,138035934,0.0,-155.96,0.0,62.230000000000004,71.51,16.51,0.9,1.0,3
138.03850800,138038508,0.0,-162.6,0.0,58.620000000000005,61.39,1.92,0.9,1.0,3
138.04122400,138041224,0.0,-168.08,0.0,52.85,49.01,345.64,0.9,1.0,3
138.04336800,138043368,0.0,-169.88,0.0,48.300000000000004,41.56,335.35,0.9,1.0,3
138.04590300,138045903,0.0,-170.4,0.0,43.62,30.86,326.09000000000003,0.9,1.0,3
138.04849900,138048499,0.0,-169.73,0.0,37.35,19.490000000000002,314.64,0.9,1.0,3
138.05086800,138050868,0.0,-168.33,0.0,33.04,5.14,306.44,0.9,1.0,3
138.05342200,138053422,0.0,-166.29,0.0,28.94,355.07,298.47,0.9,1.0,3
138.05600200,138056002,0.0,-162.87,0.0,23.79,334.76,287.96,0.9,1.0,3
138.05836500,138058365,0.0,-159.86,0.0,20.55,315.41,280.0,0.9,1.0,3
138.06093800,138060938,0.0,-156.47,0.0,17.72,301.12,272.01,0.9,1.0,3
138.06351000,138063510,0.0,-151.48,0.0,14.55,279.1,261.24,0.9,1.0,3
138.06583000,138065830,0.0,-147.61,0.0,12.92,261.8,252.98000000000002,0.9,1.0,3
138.06844100,138068441,0.0,-143.56,0.0,11.85,251.77,244.66,0.9,1.0,3
138.07111100,138071111,0.0,-137.99,0.0,11.19,234.72,233.5,0.9,1.0,3
138.07332800,138073328,0.0,-134.01,0.0,11.44,225.74,225.01,0.9,1.0,3
138.07592000,138075920,0.0,-130.1,0.0,12.27,216.54,216.55,0.9,1.0,3
138.07841800,138078418,0.0,-126.35000000000001,0.0,13.65,208.12,208.13,0.9,1.0,3
138.08099700,138080997,0.0,-121.61,0.0,16.17,196.94,196.95000000000002,0.9,1.0,3
138.08338000,138083380,0.0,-118.61,0.0,18.56,190.36,188.5,0.9,1.0,3
138.08589200,138085892,0.0,-115.98,0.0,21.35,182.29,180.05,0.9,1.0,3
138.08851700,138088517,0.0,-113.0,0.0,25.5,173.36,168.71,0.9,1.0,3
138.09086200,138090862,0.0,-111.53,0.0,28.8,166.4,159.96,0.9,1.0,3
138.09342400,138093424,0.0,-110.62,0.0,32.26,159.24,151.0,0.9,1.0,3
138.09599100,138095991,0.0,-110.25,0.0,36.97,149.06,138.6,0.9,1.0,3
138.09840100,138098401,0.0,-110.94,0.0,40.22,142.79,128.66,0.9,1.0,3
138.10096800,138100968,0.0,-112.43,0.0,43.32,133.4,118.15,0.9,1.0,3
138.10352400,138103524,0.0,-115.60000000000001,0.0,47.1,122.66,103.18,0.92,1.0,3
138.10586100,138105861,0.0,-118.94,0.0,49.27,114.35000000000001,91.11,0.92,1.0,3
138.10876400,138108764,0.0,-123.05,0.0,50.9,104.2,78.37,0.92,1.0,3
138.11097800,138110978,0.0,-128.54,0.0,52.07,92.92,62.870000000000005,0.92,1.0,3
138.11354700,138113547,0.0,-134.43,0.0,52.27,81.10000000000001,47.02,0.92,1.0,3
138.11593200,138115932,0.0,-139.04,0.0,51.6,71.88,33.74,0.92,1.0,3
138.11841000,138118410,0.0,-143.87,0.0,50.11,58.57,18.72,0.92,1.0,3
138.12121400,138121214,0.0,-147.79,0.0,47.89,48.18,4.49,0.92,1.0,3
138.12344100,138123441,0.0,-150.03,0.0,45.61,36.75,353.17,0.92,1.0,3
138.12589000,138125890,0.0,-151.53,0.0,43.09,27.21,342.42,0.92,1.0,3
138.12853000,138128530,0.0,-152.59,0.0,39.57,11.82,328.74,0.92,1.0,3
138.13086200,138130862,0.0,-152.45000000000002,0.0,37.0,1.05,319.08,0.92,1.0,3
138.13340400,138133404,0.0,-151.79,0.0,34.480000000000004,348.6,309.71,0.92,1.0,3
138.13599900,138135999,0.0,-150.36,0.0,31.330000000000002,333.89,297.44,0.92,1.0,3
138.13853800,138138538,0.0,-148.74,0.0,29.37,318.69,288.47,0.92,1.0,3
138.14091600,138140916,0.0,-146.82,0.0,27.66,308.96,279.59000000000003,0.92,1.0,3
138.14367300,138143673,0.0,-144.03,0.0,25.76,290.82,267.73,0.92,1.0,3
138.14582600,138145826,0.0,-141.78,0.0,24.96,279.45,258.9,0.92,1.0,3
138.14843100,138148431,0.0,-139.45000000000002,0.0,24.48,268.01,250.09,0.92,1.0,3
138.15101800,138151018,0.0,-136.34,0.0,24.240000000000002,254.49,238.25,0.92,1.0,3
138.15333400,138153334,0.0,-134.17000000000002,0.0,24.61,242.79,229.32,0.92,1.0,3
138.15594800,138155948,0.0,-132.08,0.0,25.29,234.82,220.37,0.92,1.0,3
138.15854400,138158544,0.0,-129.51,0.0,26.51,220.78,208.32,0.92,1.0,3
138.16084000,138160840,0.0,-128.02,0.0,27.8,213.11,199.14000000000001,0.92,1.0,3
138.16342900,138163429,0.0,-126.75,0.0,29.29,203.07,189.88,0.92,1.0,3
138.16587700,138165877,0.0,-125.60000000000001,0.0,31.16,194.12,178.91,0.92,1.0,3
138.16853400,138168534,0.0,-124.88000000000001,0.0,33.19,182.86,167.76,0.92,1.0,3
138.17094100,138170941,0.0,-124.86,0.0,34.93,175.57,157.87,0.92,1.0,3
138.17340100,138173401,0.0,-125.22,0.0,36.64,165.57,147.77,0.92,1.0,3
138.17599900,138175999,0.0,-126.17,0.0,38.72,154.65,133.94,0.92,1.0,3
138.17839400,138178394,0.0,-127.56,0.0,39.94,145.15,123.15,0.92,1.0,3
138.18091200,138180912,0.0,-129.25,0.0,40.93,136.32,112.14,0.92,1.0,3
138.18350300,138183503,0.0,-131.7,0.0,41.83,122.81,97.25,0.92,1.0,3
138.18583000,138185830,0.0,-133.75,0.0,41.980000000000004,114.62,85.95,0.92,1.0,3
138.18844800,138188448,0.0,-135.8,0.0,41.82,103.2,74.65,0.92,1.0,3
138.19100500,138191005,0.0,-138.24,0.0,41.24,91.05,59.74,0.92,1.0,3
138.19334400,138193344,0.0,-139.76,0.0,40.300000000000004,80.04,48.81,0.92,1.0,3
138.19593200,138195932,0.0,-141.01,0.0,39.17,70.29,38.07,0.92,1.0,3
138.19855600,138198556,0.0,-142.13,0.0,37.550000000000004,55.49,24.07,0.92,1.0,3
138.20084200,138200842,0.0,-142.4,0.0,36.11,45.36,13.96,0.92,1.0,3
138.20344600,138203446,0.0,-142.36,0.0,34.65,33.51,4.05,0.92,1.0,3
138.20587800,138205878,0.0,-141.94,0.0,33.06,21.47,352.66,0.92,1.0,3
138.20853700,138208537,0.0,-141.17000000000002,0.0,31.560000000000002,7.38,341.44,0.92,1.0,3
138.21093200,138210932,0.0,-140.04,0.0,30.43,356.92,332.08,0.92,1.0,3
138.21341100,138213411,0.0,-138.72,0.0,29.48,344.88,322.79,0.92,1.0,3
138.21611400,138216114,0.0,-136.82,0.0,28.61,331.5,310.40000000000003,0.92,1.0,3
138.21841100,138218411,0.0,-135.09,0.0,28.28,319.12,301.29,0.92,1.0,3
138.22091500,138220915,0.0,-133.32,0.0,28.19,310.41,292.19,0.92,1.0,3
138.22353800,138223538,0.0,-131.9,0.0,28.240000000000002,300.94,285.45,0.92,1.0,3
138.26338000,138263380,0.0,-131.56,0.0,28.02,302.42,285.77,0.92,1.0,3
138.26383900,138263839,0.0,-131.3,0.0,28.01,300.71,286.0,0.92,1.0,3
