timestamp,TimeUS,I,GyrX,GyrY,GyrZ,AccX,AccY,AccZ,EG,EA,T,GH,AH,GHz,AHz
124.50517200,124505172,1,-6.597248077392578,6.599724292755127,-6.596115589141846,-0.4953553378582001,-0.14801418781280518,-10.00109577178955,0,0,44.0,0,1,272,286
124.50798800,124507988,1,-6.026371955871582,6.028722763061523,-6.02512264251709,-0.49499818682670593,-0.148448184132576,-10.003738403320312,0,0,44.0,1,1,272,286
124.51048900,124510489,1,-6.026371955871582,6.028722763061523,-6.02512264251709,-0.49499818682670593,-0.148448184132576,-10.003738403320312,0,0,44.0,0,0,272,286
124.51285000,124512850,1,-4.720511436462402,4.722585678100586,-4.719468593597412,-0.4946097433567047,-0.14886315166950226,-10.006196022033691,0,0,44.0,1,1,272,286
124.51546800,124515468,1,-4.720511436462402,4.722585678100586,-4.719468593597412,-0.49433884024620056,-0.14925912022590637,-10.008329391479492,0,0,44.0,0,1,272,286
124.51846300,124518463,1,-3.164546012878418,3.166351556777954,-3.164055109024048,-0.49433884024620056,-0.14925912022590637,-10.008329391479492,0,0,44.0,1,0,272,286
124.52267900,124522679,1,-1.7444181442260742,1.7460432052612305,-1.7446993589401245,-0.4941765367984772,-0.14963625371456146,-10.010086059570312,0,0,44.0,1,1,272,286
124.52517900,124525179,1,-1.7444181442260742,1.7460432052612305,-1.7446993589401245,-0.49396947026252747,-0.14999468624591827,-10.011490821838379,0,0,44.0,0,1,272,286
124.52794000,124527940,1,-0.6673824191093445,0.6689013838768005,-0.6685128808021545,-0.4936498701572418,-0.1503346860408783,-10.012569427490234,0,0,44.0,1,1,272,286
124.53029300,124530293,1,-0.6673824191093445,0.6689013838768005,-0.6685128808021545,-0.4936498701572418,-0.1503346860408783,-10.012569427490234,0,0,44.0,0,0,272,286
124.53279200,124532792,1,0.020277315750718117,-0.018808629363775253,0.018307456746697426,-0.4932284951210022,-0.15065650641918182,-10.013272285461426,0,0,44.0,1,1,272,286
124.53525500,124535255,1,0.020277315750718117,-0.018808629363775253,0.018307456746697426,-0.4927156865596771,-0.15096047520637512,-10.013556480407715,0,0,44.0,0,1,272,286
124.53843800,124538438,1,0.3738340437412262,-0.3723364770412445,0.3710783123970032,-0.4927156865596771,-0.15096047520637512,-10.013556480407715,0,0,44.0,1,0,272,286
124.54280000,124542800,1,0.4899100363254547,-0.4882626533508301,0.48652052879333496,-0.4914538860321045,-0.1515164077281952,-10.013571739196777,0,0,44.0,1,1,272,286
124.54527000,124545270,1,0.4899100363254547,-0.4882626533508301,0.48652052879333496,-0.4914538860321045,-0.1515164077281952,-10.013571739196777,0,0,44.0,0,0,272,286
124.54758900,124547589,1,0.4646589756011963,-0.462822288274765,0.4609835743904114,-0.49072280526161194,-0.15176922082901,-10.013400077819824,0,0,44.0,1,1,272,286
124.55029800,124550298,1,0.4646589756011963,-0.462822288274765,0.4609835743904114,-0.49072280526161194,-0.15176922082901,-10.013400077819824,0,0,44.0,0,0,272,286
124.55291400,124552914,1,0.3732515871524811,-0.37131890654563904,0.3697274327278137,-0.48993608355522156,-0.1520058810710907,-10.013101577758789,0,0,44.0,1,1,272,286
124.55534600,124555346,1,0.3732515871524811,-0.37131890654563904,0.3697274327278137,-0.4891737103462219,-0.15222683548927307,-10.012760162353516,0,0,44.0,0,1,272,286
124.55785100,124557851,1,0.2650356888771057,-0.2631130516529083,0.2619515061378479,-0.48858124017715454,-0.15243259072303772,-10.012307167053223,0,0,44.0,1,1,272,286
124.56033500,124560335,1,0.2650356888771057,-0.2631130516529083,0.2619515061378479,-0.48858124017715454,-0.15243259072303772,-10.012307167053223,0,0,44.0,0,0,272,286
124.56270400,124562704,1,0.16706319153308868,-0.16524647176265717,0.16450028121471405,-0.48814645409584045,-0.15262368321418762,-10.01168155670166,0,0,44.0,1,1,272,286
124.56531300,124565313,1,0.16706319153308868,-0.16524647176265717,0.16450028121471405,-0.48814645409584045,-0.15262368321418762,-10.01168155670166,0,0,44.0,0,0,272,286
124.56786600,124567866,1,0.09058940410614014,-0.08899612724781036,0.08846591413021088,-0.4877128601074219,-0.15280061960220337,-10.010902404785156,0,0,44.0,1,1,272,286
124.57034500,124570345,1,0.09058940410614014,-0.08899612724781036,0.08846591413021088,-0.48728200793266296,-0.15296395123004913,-10.009982109069824,0,0,44.0,0,1,272,286
124.57363600,124573636,1,0.037385016679763794,-0.03608335182070732,0.035504620522260666,-0.4869275987148285,-0.1531141698360443,-10.008939743041992,0,0,44.0,1,1,272,286
124.57640200,124576402,1,0.037385016679763794,-0.03608335182070732,0.035504620522260666,-0.4869275987148285,-0.1531141698360443,-10.008939743041992,0,0,44.0,0,0,272,286
124.57869500,124578695,1,0.00444777961820364,-0.0033852190244942904,0.0026274463161826134,-0.48657217621803284,-0.15325188636779785,-10.007786750793457,0,0,44.0,1,1,272,286
124.58288400,124582884,1,-0.013076084665954113,0.013964733108878136,-0.014857351779937744,-0.48621711134910583,-0.15337757766246796,-10.006538391113281,0,0,44.0,1,1,272,286
124.58432800,124584328,1,-0.013076084665954113,0.013964733108878136,-0.014857351779937744,-0.48621711134910583,-0.15337757766246796,-10.006538391113281,0,0,44.0,0,0,272,286
124.58817300,124588173,1,-0.020115027204155922,0.02080717124044895,-0.02174818143248558,-0.4860084652900696,-0.15349185466766357,-10.005207061767578,0,0,44.0,1,1,272,286
124.58968500,124589685,1,-0.020115027204155922,0.02080717124044895,-0.02174818143248558,-0.48593461513519287,-0.1535952240228653,-10.003806114196777,0,0,44.0,0,1,272,286
124.59332200,124593322,1,-0.020689889788627625,0.021162698045372963,-0.022141342982649803,-0.4859119653701782,-0.1536882370710373,-10.002345085144043,0,0,44.0,1,1,272,286
124.59456200,124594562,1,-0.020689889788627625,0.021162698045372963,-0.022141342982649803,-0.4859119653701782,-0.1536882370710373,-10.002345085144043,0,0,44.0,0,0,272,286
124.59828800,124598288,1,-0.01775429956614971,0.018072543665766716,-0.019119326025247574,-0.4859362542629242,-0.15377141535282135,-10.000835418701172,0,0,44.0,1,1,272,286
124.59973900,124599739,1,-0.01775429956614971,0.018072543665766716,-0.019119326025247574,-0.4859362542629242,-0.15377141535282135,-10.000835418701172,0,0,44.0,0,0,272,286
124.60314800,124603148,1,-0.013321883045136929,0.013712069019675255,-0.01479010097682476,-0.48593106865882874,-0.15384526550769806,-9.999287605285645,0,0,44.0,1,1,272,286
124.60479500,124604795,1,-0.013321883045136929,0.013712069019675255,-0.01479010097682476,-0.4858989417552948,-0.1539103388786316,-9.997709274291992,0,0,44.0,0,1,272,286
124.60831100,124608311,1,-0.008639137260615826,0.009376505389809608,-0.010419514961540699,-0.48598697781562805,-0.15396709740161896,-9.996108055114746,0,0,44.0,1,1,272,286
124.60955700,124609557,1,-0.008639137260615826,0.009376505389809608,-0.010419514961540699,-0.48598697781562805,-0.15396709740161896,-9.996108055114746,0,0,44.0,0,0,272,286
124.61332200,124613322,1,-0.004396917298436165,0.005654577165842056,-0.006591404788196087,-0.48618462681770325,-0.15401604771614075,-9.99449348449707,0,0,44.0,1,1,272,286
124.61478700,124614787,1,-0.004396917298436165,0.005654577165842056,-0.006591404788196087,-0.48618462681770325,-0.15401604771614075,-9.99449348449707,0,0,44.0,0,0,272,286
124.61814700,124618147,1,-0.0008866306161507964,0.0027569869998842478,-0.003525157691910863,-0.4864094853401184,-0.15405768156051636,-9.992873191833496,0,0,44.0,1,1,272,286
124.61976800,124619768,1,-0.0008866306161507964,0.0027569869998842478,-0.003525157691910863,-0.4864094853401184,-0.15405768156051636,-9.992873191833496,0,0,44.0,0,0,272,286
124.62332400,124623324,1,0.0018129930831491947,0.0006636383477598429,-0.0012571451952680945,-0.48665836453437805,-0.15402010083198547,-9.991251945495605,0,0,44.0,1,1,272,286
124.62458700,124624587,1,0.0018129930831491947,0.0006636383477598429,-0.0012571451952680945,-0.4869282841682434,-0.15383781492710114,-9.98970890045166,0,0,44.0,0,1,272,286
124.62827600,124628276,1,0.003662662347778678,-0.0007209260948002338,0.00031969850533641875,-0.48728886246681213,-0.1535961925983429,-9.98838996887207,0,0,44.0,1,1,272,286
124.62977900,124629779,1,0.003662662347778678,-0.0007209260948002338,0.00031969850533641875,-0.48728886246681213,-0.1535961925983429,-9.98838996887207,0,0,44.0,0,0,272,286
124.63317800,124633178,1,0.004649898037314415,-0.0015164650976657867,0.0013284154701977968,-0.4877309501171112,-0.15337352454662323,-9.98727798461914,0,0,44.0,1,1,272,286
124.63484300,124634843,1,0.004649898037314415,-0.0015164650976657867,0.0013284154701977968,-0.4877309501171112,-0.15337352454662323,-9.98727798461914,0,0,44.0,0,0,272,286
124.63840300,124638403,1,0.004862327594310045,-0.0018785831052809954,0.0018809627508744597,-0.4881012737751007,-0.15316906571388245,-9.98614501953125,0,0,44.0,1,1,272,286
124.63967100,124639671,1,0.004862327594310045,-0.0018785831052809954,0.0018809627508744597,-0.4883321523666382,-0.15298201143741608,-9.98485279083252,0,0,44.0,0,1,272,286
124.64340600,124643406,1,0.004468107130378485,-0.001957039348781109,0.0020658238790929317,-0.4884346127510071,-0.15281160175800323,-9.983490943908691,0,0,44.0,1,1,272,286
124.64486400,124644864,1,0.004468107130378485,-0.001957039348781109,0.0020658238790929317,-0.4884346127510071,-0.15281160175800323,-9.983490943908691,0,0,44.0,0,0,272,286
124.64823100,124648231,1,0.003735038684681058,-0.0018748861039057374,0.0019452414708212018,-0.4884191155433655,-0.15265707671642303,-9.982144355773926,0,0,44.0,1,1,272,286
124.64979900,124649799,1,0.003735038684681058,-0.0018748861039057374,0.0019452414708212018,-0.4884191155433655,-0.15265707671642303,-9.982144355773926,0,0,44.0,0,0,272,286
124.65333500,124653335,1,0.0029827558901160955,-0.0017217862186953425,0.0015999791212379932,-0.4883681535720825,-0.15244528651237488,-9.980815887451172,0,0,44.0,1,1,272,286
124.65482600,124654826,1,0.0029827558901160955,-0.0017217862186953425,0.0015999791212379932,-0.48842957615852356,-0.15210957825183868,-9.979509353637695,0,0,44.0,0,1,272,286
124.65884400,124658844,1,0.002423370722681284,-0.0015557956648990512,0.0010656599188223481,-0.4885936677455902,-0.15173408389091492,-9.978225708007812,0,0,44.0,1,1,272,286
124.66034700,124660347,1,0.002423370722681284,-0.0015557956648990512,0.0010656599188223481,-0.4885936677455902,-0.15173408389091492,-9.978225708007812,0,0,44.0,0,0,272,286
124.66308700,124663087,1,0.0021793122868984938,-0.00140928546898067,0.00043281904072500765,-0.488778680562973,-0.1513959914445877,-9.977043151855469,0,0,44.0,1,1,272,286
124.66541100,124665411,1,0.0021793122868984938,-0.00140928546898067,0.00043281904072500765,-0.488778680562973,-0.1513959914445877,-9.977043151855469,0,0,44.0,0,0,272,286
124.66826900,124668269,1,0.002264749724417925,-0.0013381554745137691,-6.742827099515125e-05,-0.48905453085899353,-0.15109337866306305,-9.976028442382812,0,0,44.0,1,1,272,286
124.67020300,124670203,1,0.002264749724417925,-0.0013381554745137691,-6.742827099515125e-05,-0.4894847869873047,-0.15082436800003052,-9.975098609924316,0,0,44.0,0,1,272,286
124.67436000,124674360,1,0.0025088617112487555,-0.0014438339276239276,-0.0002511368365958333,-0.4900546967983246,-0.15058711171150208,-9.974177360534668,0,0,44.0,1,1,272,286
124.67614300,124676143,1,0.0025088617112487555,-0.0014438339276239276,-0.0002511368365958333,-0.4900546967983246,-0.15058711171150208,-9.974177360534668,0,0,44.0,0,0,272,286
124.67820100,124678201,1,0.0026711428072303534,-0.0017934564966708422,-0.00011424709373386577,-0.49067792296409607,-0.15037982165813446,-9.973267555236816,0,0,44.0,1,1,272,286
124.68122900,124681229,1,0.0026711428072303534,-0.0017934564966708422,-0.00011424709373386577,-0.49067792296409607,-0.15037982165813446,-9.973267555236816,0,0,44.0,0,0,272,286
124.68334100,124683341,1,0.0026388487312942743,-0.002341513056308031,0.0001685412134975195,-0.49120280146598816,-0.1502007097005844,-9.972371101379395,0,0,44.0,1,1,272,286
124.68574400,124685744,1,0.0026388487312942743,-0.002341513056308031,0.0001685412134975195,-0.49120280146598816,-0.1502007097005844,-9.972371101379395,0,0,44.0,0,0,272,286
124.68836000,124688360,1,0.002425862243399024,-0.0029487593565136194,0.00039877710514701903,-0.4916357398033142,-0.15004807710647583,-9.971490859985352,0,0,44.0,1,1,272,286
124.69087300,124690873,1,0.002425862243399024,-0.0029487593565136194,0.00039877710514701903,-0.4921276271343231,-0.14992022514343262,-9.970629692077637,0,0,44.0,0,1,272,286
124.69361500,124693615,1,0.002067973604425788,-0.003448964562267065,0.0005231286049820483,-0.4927438795566559,-0.14981557428836823,-9.969788551330566,0,0,44.0,1,1,272,286
124.69586500,124695865,1,0.002067973604425788,-0.003448964562267065,0.0005231286049820483,-0.4927438795566559,-0.14981557428836823,-9.969788551330566,0,0,44.0,0,0,272,286
124.69837900,124698379,1,0.0016488325782120228,-0.0036880518309772015,0.0005725139635615051,-0.4934716522693634,-0.1497325301170349,-9.96897029876709,0,0,44.0,1,1,272,286
124.70073500,124700735,1,0.0016488325782120228,-0.0036880518309772015,0.0005725139635615051,-0.4934716522693634,-0.1497325301170349,-9.96897029876709,0,0,44.0,0,0,272,286
124.70337200,124703372,1,0.0013059459161013365,-0.003584690624848008,0.0005749283591285348,-0.49429869651794434,-0.14959721267223358,-9.96817398071289,0,0,44.0,1,1,272,286
124.70587500,124705875,1,0.0013059459161013365,-0.003584690624848008,0.0005749283591285348,-0.4951411485671997,-0.14934223890304565,-9.967401504516602,0,0,44.0,0,1,272,286
124.70923800,124709238,1,0.0011411822633817792,-0.003150469623506069,0.0005524182925000787,-0.49592211842536926,-0.14905107021331787,-9.96672534942627,0,0,44.0,1,1,272,286
124.71086300,124710863,1,0.0011411822633817792,-0.003150469623506069,0.0005524182925000787,-0.49592211842536926,-0.14905107021331787,-9.96672534942627,0,0,44.0,0,0,272,286
124.71347700,124713477,1,0.0011375753674656153,-0.0025278229732066393,0.0005204398767091334,-0.49664390087127686,-0.14880025386810303,-9.966214179992676,0,0,44.0,1,1,272,286
124.71570200,124715702,1,0.0011375753674656153,-0.0025278229732066393,0.0005204398767091334,-0.49664390087127686,-0.14880025386810303,-9.966214179992676,0,0,44.0,0,0,272,286
124.71837800,124718378,1,0.00121874560136348,-0.001989183248952031,0.0004885647213086486,-0.4972364604473114,-0.14858730137348175,-9.965781211853027,0,0,44.0,1,1,272,286
124.72088700,124720887,1,0.00121874560136348,-0.001989183248952031,0.0004885647213086486,-0.4977084696292877,-0.14840979874134064,-9.965421676635742,0,0,44.0,0,1,272,286
124.72464500,124724645,1,0.0012893314706161618,-0.0017056962242349982,0.0005038399249315262,-0.49821314215660095,-0.14826540648937225,-9.965205192565918,0,0,44.0,1,1,272,286
124.72608000,124726080,1,0.0012893314706161618,-0.0017056962242349982,0.0005038399249315262,-0.49821314215660095,-0.14826540648937225,-9.965205192565918,0,0,44.0,0,0,272,286
124.72887000,124728870,1,0.0012591142440214753,-0.0016423662891611457,0.0006254640757106245,-0.49874579906463623,-0.14815187454223633,-9.965046882629395,0,0,44.0,1,1,272,286
124.73067300,124730673,1,0.0012591142440214753,-0.0016423662891611457,0.0006254640757106245,-0.49874579906463623,-0.14815187454223633,-9.965046882629395,0,0,44.0,0,0,272,286
124.73340100,124733401,1,0.001138935680501163,-0.0016620123060420156,0.0007834486896172166,-0.49922969937324524,-0.14806696772575378,-9.964869499206543,0,0,44.0,1,1,272,286
124.73589800,124735898,1,0.001138935680501163,-0.0016620123060420156,0.0007834486896172166,-0.49922969937324524,-0.14806696772575378,-9.964869499206543,0,0,44.0,0,0,272,286
124.73820400,124738204,1,0.0010748556815087795,-0.00155366281978786,0.0008092939970083535,-0.4997394382953644,-0.14800859987735748,-9.964675903320312,0,0,44.0,1,1,272,286
124.74105900,124741059,1,0.0010748556815087795,-0.00155366281978786,0.0008092939970083535,-0.500343382358551,-0.14797472953796387,-9.964468002319336,0,0,44.0,0,1,272,286
124.74428100,124744281,1,0.001218457822687924,-0.0011011097813025117,0.0006358253885991871,-0.5009588003158569,-0.14796337485313416,-9.96424674987793,0,0,44.0,1,1,272,286
124.74586100,124745861,1,0.001218457822687924,-0.0011011097813025117,0.0006358253885991871,-0.5009588003158569,-0.14796337485313416,-9.96424674987793,0,0,44.0,0,0,272,286
124.74836000,124748360,1,0.0015740845119580626,-0.00028780504362657666,0.00034354638773947954,-0.5014378428459167,-0.1479727029800415,-9.96401596069336,0,0,44.0,1,1,272,286
124.75120900,124751209,1,0.0015740845119580626,-0.00028780504362657666,0.00034354638773947954,-0.5014378428459167,-0.1479727029800415,-9.96401596069336,0,0,44.0,0,0,272,286
124.75322000,124753220,1,0.0020263937767595053,0.0006696731434203684,3.534824281814508e-05,-0.5017900466918945,-0.14800089597702026,-9.963776588439941,0,0,44.0,1,1,272,286
124.75619100,124756191,1,0.0020263937767595053,0.0006696731434203684,3.534824281814508e-05,-0.502169668674469,-0.14804624021053314,-9.963530540466309,0,0,44.0,0,1,272,286
124.75979200,124759792,1,0.002373661147430539,0.0015092018293216825,-0.0001904300443129614,-0.5026453733444214,-0.1481071263551712,-9.963278770446777,0,0,44.0,1,1,272,286
124.76105000,124761050,1,0.002373661147430539,0.0015092018293216825,-0.0001904300443129614,-0.5026453733444214,-0.1481071263551712,-9.963278770446777,0,0,44.0,0,0,272,286
124.76389500,124763895,1,0.0024850089102983475,0.0019862588960677385,-0.0002112970978487283,-0.5031347274780273,-0.1481820046901703,-9.963022232055664,0,0,44.0,1,1,272,286
124.76627200,124766272,1,0.0024850089102983475,0.0019862588960677385,-0.0002112970978487283,-0.5031347274780273,-0.1481820046901703,-9.963022232055664,0,0,44.0,0,0,272,286
124.76860000,124768600,1,0.0024134365376085043,0.0019041374325752258,4.645040462492034e-05,-0.5035623908042908,-0.148269385099411,-9.962763786315918,0,0,44.0,1,1,272,286
124.77132700,124771327,1,0.0024134365376085043,0.0019041374325752258,4.645040462492034e-05,-0.5035623908042908,-0.148269385099411,-9.962763786315918,0,0,44.0,0,0,272,286
124.77386900,124773869,1,0.0022575887851417065,0.0012063069734722376,0.0004931959556415677,-0.5039321184158325,-0.14836791157722473,-9.962502479553223,0,0,44.0,1,1,272,286
124.77610600,124776106,1,0.0022575887851417065,0.0012063069734722376,0.0004931959556415677,-0.5041749477386475,-0.148476243019104,-9.962242126464844,0,0,44.0,0,1,272,286
124.77962600,124779626,1,0.0020823196973651648,4.4596334191737697e-05,0.0008840145310387015,-0.5042284727096558,-0.14859311282634735,-9.961982727050781,0,0,44.0,1,1,272,286
124.78154000,124781540,1,0.0020823196973651648,4.4596334191737697e-05,0.0008840145310387015,-0.5042284727096558,-0.14859311282634735,-9.961982727050781,0,0,44.0,0,0,272,286
124.78359600,124783596,1,0.0019245839212089777,-0.001260148361325264,0.0010997613426297903,-0.5041085481643677,-0.14871737360954285,-9.961725234985352,0,0,44.0,1,1,272,286
124.78640400,124786404,1,0.0019245839212089777,-0.001260148361325264,0.0010997613426297903,-0.5041085481643677,-0.14871737360954285,-9.961725234985352,0,0,44.0,0,0,272,286
124.78903600,124789036,1,0.0018009219784289598,-0.002391502493992448,0.0012740801321342587,-0.5038303136825562,-0.14884793758392334,-9.961470603942871,0,0,44.0,1,1,272,286
124.79140200,124791402,1,0.0018009219784289598,-0.002391502493992448,0.0012740801321342587,-0.5034083724021912,-0.14898376166820526,-9.961146354675293,0,0,44.0,0,1,272,286
124.79482800,124794828,1,0.0017145947786048055,-0.0031694502104073763,0.0015674700262024999,-0.5029288530349731,-0.1491238921880722,-9.960687637329102,0,0,44.0,1,1,272,286
124.79646100,124796461,1,0.0017145947786048055,-0.0031694502104073763,0.0015674700262024999,-0.5029288530349731,-0.1491238921880722,-9.960687637329102,0,0,44.0,0,0,272,286
124.79870600,124798706,1,0.001661409973166883,-0.0035557462833821774,0.001960864057764411,-0.502470850944519,-0.14926742017269135,-9.960179328918457,0,0,44.0,1,1,272,286
124.80144600,124801446,1,0.001661409973166883,-0.0035557462833821774,0.001960864057764411,-0.502470850944519,-0.14926742017269135,-9.960179328918457,0,0,44.0,0,0,272,286
124.80393300,124803933,1,0.0015918801072984934,-0.003550200257450342,0.002260256791487336,-0.501961886882782,-0.14941352605819702,-9.959701538085938,0,0,44.0,1,1,272,286
124.80641100,124806411,1,0.0015918801072984934,-0.003550200257450342,0.002260256791487336,-0.5013357996940613,-0.14956142008304596,-9.95925235748291,0,0,44.0,0,1,272,286
124.81026400,124810264,1,0.0014406663831323385,-0.0031725361477583647,0.0022949979174882174,-0.5006773471832275,-0.14971043169498444,-9.958830833435059,0,0,44.0,1,1,272,286
124.81173400,124811734,1,0.0014406663831323385,-0.0031725361477583647,0.0022949979174882174,-0.5006773471832275,-0.14971043169498444,-9.958830833435059,0,0,44.0,0,0,272,286
124.81419600,124814196,1,0.0012285913107916713,-0.0025338937994092703,0.0021018425468355417,-0.5001364946365356,-0.14985987544059753,-9.958436965942383,0,0,44.0,1,1,272,286
124.81679300,124816793,1,0.0012285913107916713,-0.0025338937994092703,0.0021018425468355417,-0.5001364946365356,-0.14985987544059753,-9.958436965942383,0,0,44.0,0,0,272,286
124.81924400,124819244,1,0.001018209382891655,-0.0018597503658384085,0.0018621751805767417,-0.49977755546569824,-0.1500091552734375,-9.958069801330566,0,0,44.0,1,1,272,286
124.82159000,124821590,1,0.001018209382891655,-0.0018597503658384085,0.0018621751805767417,-0.49977755546569824,-0.1500091552734375,-9.958069801330566,0,0,44.0,0,0,272,286
124.82429200,124824292,1,0.0008419390651397407,-0.001441777916625142,0.0016360570443794131,-0.4995865225791931,-0.15015771985054016,-9.957728385925293,0,0,44.0,1,1,272,286
124.82675700,124826757,1,0.0008419390651397407,-0.001441777916625142,0.0016360570443794131,-0.4995497167110443,-0.15030506253242493,-9.957409858703613,0,0,44.0,0,1,272,286
124.82967300,124829673,1,0.0006692699389532208,-0.0014339835615828633,0.0013265438610687852,-0.4995819330215454,-0.15045073628425598,-9.95711612701416,0,0,44.0,1,1,272,286
124.83172100,124831721,1,0.0006692699389532208,-0.0014339835615828633,0.0013265438610687852,-0.4995819330215454,-0.15045073628425598,-9.95711612701416,0,0,44.0,0,0,272,286
124.83427400,124834274,1,0.0004416286828927696,-0.0016838080482557416,0.0008540896815247834,-0.49953240156173706,-0.1505943238735199,-9.9568452835083,0,0,44.0,1,1,272,286
124.83657100,124836571,1,0.0004416286828927696,-0.0016838080482557416,0.0008540896815247834,-0.49953240156173706,-0.1505943238735199,-9.9568452835083,0,0,44.0,0,0,272,286
124.83924200,124839242,1,0.00017915396892931312,-0.0019025999354198575,0.00028698891401290894,-0.4994082748889923,-0.15073546767234802,-9.956669807434082,0,0,44.0,1,1,272,286
124.84227200,124842272,1,0.00017915396892931312,-0.0019025999354198575,0.00028698891401290894,-0.49928876757621765,-0.15087385475635529,-9.956653594970703,0,0,44.0,0,1,272,286
124.84519000,124845190,1,-6.0067566664656624e-05,-0.001944434829056263,-0.00015587608504574746,-0.4991738796234131,-0.15100915729999542,-9.956710815429688,0,0,44.0,1,1,272,286
124.84722300,124847223,1,-6.0067566664656624e-05,-0.001944434829056263,-0.00015587608504574746,-0.4991738796234131,-0.15100915729999542,-9.956710815429688,0,0,44.0,0,0,272,286
124.84923900,124849239,1,-0.0002493571664672345,-0.0018451367504894733,-0.00029563219868578017,-0.4990637004375458,-0.15114116668701172,-9.956762313842773,0,0,44.0,1,1,272,286
124.85206400,124852064,1,-0.0002493571664672345,-0.0018451367504894733,-0.00029563219868578017,-0.4990637004375458,-0.15114116668701172,-9.956762313842773,0,0,44.0,0,0,272,286
124.85423900,124854239,1,-0.0003826607426162809,-0.0016457147430628538,-8.668682130519301e-05,-0.49895820021629333,-0.15126962959766388,-9.956809043884277,0,0,44.0,1,1,272,286
124.85728300,124857283,1,-0.0003826607426162809,-0.0016457147430628538,-8.668682130519301e-05,-0.4989297688007355,-0.15139439702033997,-9.956850051879883,0,0,44.0,0,1,272,286
124.86068900,124860689,1,-0.00042359490180388093,-0.0012992853298783302,0.0004397104203235358,-0.49897196888923645,-0.15151529014110565,-9.956887245178223,0,0,44.0,1,1,272,286
124.86228400,124862284,1,-0.00042359490180388093,-0.0012992853298783302,0.0004397104203235358,-0.49897196888923645,-0.15151529014110565,-9.956887245178223,0,0,44.0,0,0,272,286
124.86468900,124864689,1,-0.0003256748022977263,-0.0008045689901337028,0.0011329693952575326,-0.498933881521225,-0.1516321897506714,-9.95691967010498,0,0,44.0,1,1,272,286
124.86728200,124867282,1,-0.0003256748022977263,-0.0008045689901337028,0.0011329693952575326,-0.498933881521225,-0.1516321897506714,-9.95691967010498,0,0,44.0,0,0,272,286
124.86969200,124869692,1,-0.00012860371498391032,-0.00026844124658964574,0.0017198013374581933,-0.49882251024246216,-0.1517450213432312,-9.956947326660156,0,0,44.0,1,1,272,286
124.87249000,124872490,1,-0.00012860371498391032,-0.00026844124658964574,0.0017198013374581933,-0.4987168312072754,-0.15185366570949554,-9.956972122192383,0,0,44.0,0,1,272,286
124.87626800,124876268,1,8.915090438676998e-05,0.0002046505978796631,0.001990092219784856,-0.49854448437690735,-0.15195806324481964,-9.956992149353027,0,0,44.0,1,1,272,286
124.87802700,124878027,1,8.915090438676998e-05,0.0002046505978796631,0.001990092219784856,-0.49854448437690735,-0.15195806324481964,-9.956992149353027,0,0,44.0,0,0,272,286
124.88054600,124880546,1,0.00028332171496003866,0.0005280245095491409,0.0019261087290942669,-0.49823933839797974,-0.15205822885036469,-9.957080841064453,0,0,44.0,1,1,272,286
124.88264300,124882643,1,0.00028332171496003866,0.0005280245095491409,0.0019261087290942669,-0.49823933839797974,-0.15205822885036469,-9.957080841064453,0,0,44.0,0,0,272,286
124.88527100,124885271,1,0.0004345029592514038,0.0005959088448435068,0.0016134422039613128,-0.4978139102458954,-0.1521540880203247,-9.957304954528809,0,0,44.0,1,1,272,286
124.88781000,124887810,1,0.0004345029592514038,0.0005959088448435068,0.0016134422039613128,-0.4973523020744324,-0.1522456556558609,-9.957579612731934,0,0,44.0,0,1,272,286
124.89165500,124891655,1,0.0005393443279899657,0.000351324793882668,0.001178152859210968,-0.49700409173965454,-0.15233297646045685,-9.9578275680542,0,0,44.0,1,1,272,286
124.89309400,124893094,1,0.0005393443279899657,0.000351324793882668,0.001178152859210968,-0.49700409173965454,-0.15233297646045685,-9.9578275680542,0,0,44.0,0,0,272,286
124.89585400,124895854,1,0.0006454762769863009,-0.00014408776769414544,0.0007896015304140747,-0.49683332443237305,-0.15241608023643494,-9.958049774169922,0,0,44.0,1,1,272,286
124.89792800,124897928,1,0.0006454762769863009,-0.00014408776769414544,0.0007896015304140747,-0.49683332443237305,-0.15241608023643494,-9.958049774169922,0,0,44.0,0,0,272,286
124.90064800,124900648,1,0.0008617073181085289,-0.0007343814359046519,0.0005289001273922622,-0.49675318598747253,-0.15249501168727875,-9.958248138427734,0,0,44.0,1,1,272,286
124.90319200,124903192,1,0.0008617073181085289,-0.0007343814359046519,0.0005289001273922622,-0.49675318598747253,-0.15249501168727875,-9.958248138427734,0,0,44.0,0,0,272,286
124.90548700,124905487,1,0.0012275032931938767,-0.0012810234911739826,0.0003761767875403166,-0.4966115653514862,-0.15256980061531067,-9.958422660827637,0,0,44.0,1,1,272,286
124.90816300,124908163,1,0.0012275032931938767,-0.0012810234911739826,0.0003761767875403166,-0.49634188413619995,-0.15264053642749786,-9.958648681640625,0,0,44.0,0,1,272,286
124.91133400,124911334,1,0.0016136770136654377,-0.0017185222823172808,0.000303994573187083,-0.4960283935070038,-0.1527072787284851,-9.959065437316895,0,0,44.0,1,1,272,286
124.91293000,124912930,1,0.0016136770136654377,-0.0017185222823172808,0.000303994573187083,-0.4960283935070038,-0.1527072787284851,-9.959065437316895,0,0,44.0,0,0,272,286
124.91568800,124915688,1,0.0018233212176710367,-0.002029894618317485,0.0003273589245509356,-0.49582070112228394,-0.15277011692523956,-9.9596529006958,0,0,44.0,1,1,272,286
124.91814000,124918140,1,0.0018233212176710367,-0.002029894618317485,0.0003273589245509356,-0.49582070112228394,-0.15277011692523956,-9.9596529006958,0,0,44.0,0,0,272,286
124.92047100,124920471,1,0.0017393656307831407,-0.002184124430641532,0.00048108259215950966,-0.49571067094802856,-0.15275681018829346,-9.960250854492188,0,0,44.0,1,1,272,286
124.92312900,124923129,1,0.0017393656307831407,-0.002184124430641532,0.00048108259215950966,-0.49554556608200073,-0.15260152518749237,-9.960784912109375,0,0,44.0,0,1,272,286
124.92695400,124926954,1,0.0013890720438212156,-0.002105699386447668,0.0007207051385194063,-0.4953307509422302,-0.1523892730474472,-9.961331367492676,0,0,44.0,1,1,272,286
124.92829400,124928294,1,0.0013890720438212156,-0.002105699386447668,0.0007207051385194063,-0.4953307509422302,-0.1523892730474472,-9.961331367492676,0,0,44.0,0,0,272,286
124.93063400,124930634,1,0.000912873656488955,-0.0017919068923220038,0.000925303902477026,-0.4952160120010376,-0.15219806134700775,-9.961956024169922,0,0,44.0,1,1,272,286
124.93317800,124933178,1,0.000912873656488955,-0.0017919068923220038,0.000925303902477026,-0.4952160120010376,-0.15219806134700775,-9.961956024169922,0,0,44.0,0,0,272,286
124.93548100,124935481,1,0.00048815892660059035,-0.001362627954222262,0.0009951641550287604,-0.4952656030654907,-0.15202678740024567,-9.962580680847168,0,0,44.0,1,1,272,286
124.93818000,124938180,1,0.00048815892660059035,-0.001362627954222262,0.0009951641550287604,-0.4952656030654907,-0.15202678740024567,-9.962580680847168,0,0,44.0,0,0,272,286
124.94064300,124940643,1,0.000325672299368307,-0.0009408037876710296,0.0009415253880433738,-0.49546533823013306,-0.15187443792819977,-9.963200569152832,0,0,44.0,1,1,272,286
124.94297700,124942977,1,0.000325672299368307,-0.0009408037876710296,0.0009415253880433738,-0.4957294166088104,-0.1517399549484253,-9.963959693908691,0,0,44.0,0,1,272,286
124.94636000,124946360,1,0.0005782406660728157,-0.0006315585342235863,0.0008318275213241577,-0.4959790110588074,-0.15154998004436493,-9.964770317077637,0,0,44.0,1,1,272,286
124.94809100,124948091,1,0.0005782406660728157,-0.0006315585342235863,0.0008318275213241577,-0.4959790110588074,-0.15154998004436493,-9.964770317077637,0,0,44.0,0,0,272,286
124.95046600,124950466,1,0.0011760421330109239,-0.0005141032743267715,0.0007101632072590292,-0.4962143301963806,-0.1512376070022583,-9.965409278869629,0,0,44.0,1,1,272,286
124.95317100,124953171,1,0.0011760421330109239,-0.0005141032743267715,0.0007101632072590292,-0.4962143301963806,-0.1512376070022583,-9.965409278869629,0,0,44.0,0,0,272,286
124.95566700,124955667,1,0.0018598197493702173,-0.0005995367537252605,0.0006014612736180425,-0.4964357614517212,-0.15088674426078796,-9.965960502624512,0,0,44.0,1,1,272,286
124.95797700,124957977,1,0.0018598197493702173,-0.0005995367537252605,0.0006014612736180425,-0.4967160224914551,-0.15057437121868134,-9.966572761535645,0,0,44.0,0,1,272,286
124.96182600,124961826,1,0.002396403579041362,-0.0008616148261353374,0.0005167005001567304,-0.4971213936805725,-0.15029840171337128,-9.967166900634766,0,0,44.0,1,1,272,286
124.96328600,124963286,1,0.002396403579041362,-0.0008616148261353374,0.0005167005001567304,-0.4971213936805725,-0.15029840171337128,-9.967166900634766,0,0,44.0,0,0,272,286
124.96546100,124965461,1,0.0027292680460959673,-0.00117460114415735,0.00045783608220517635,-0.4976396858692169,-0.15005677938461304,-9.967671394348145,0,0,44.0,1,1,272,286
124.96870300,124968703,1,0.0027292680460959673,-0.00117460114415735,0.00045783608220517635,-0.4976396858692169,-0.15005677938461304,-9.967671394348145,0,0,44.0,0,0,272,286
124.97057000,124970570,1,0.0029031133744865656,-0.0014226940693333745,0.00037973758298903704,-0.4982593059539795,-0.14984747767448425,-9.96808910369873,0,0,44.0,1,1,272,286
124.97349500,124973495,1,0.0029031133744865656,-0.0014226940693333745,0.00037973758298903704,-0.498896986246109,-0.14966855943202972,-9.968427658081055,0,0,44.0,0,1,272,286
124.97747200,124977472,1,0.002966412575915456,-0.0016397580038756132,0.00021979899611324072,-0.4994764029979706,-0.14951813220977783,-9.968692779541016,0,0,44.0,1,1,272,286
124.97922500,124979225,1,0.0029619517736136913,-0.0018904514145106077,2.9530025358326384e-07,-0.4994764029979706,-0.14951813220977783,-9.968692779541016,0,0,44.0,1,0,272,286
124.98355700,124983557,1,0.0029619517736136913,-0.0018904514145106077,2.9530025358326384e-07,-0.5000726580619812,-0.14939428865909576,-9.968889236450195,0,0,44.0,0,1,272,286
124.98536400,124985364,1,0.002922789892181754,-0.0022032475098967552,-0.0001736023841658607,-0.5006821751594543,-0.14929528534412384,-9.969095230102539,0,0,44.0,1,1,272,286
124.98879200,124988792,1,0.002922789892181754,-0.0022032475098967552,-0.0001736023841658607,-0.5006821751594543,-0.14929528534412384,-9.969095230102539,0,0,44.0,0,0,272,286
124.99007500,124990075,1,0.002829618752002716,-0.0024990919046103954,-0.0002120808494510129,-0.5012291073799133,-0.14921937882900238,-9.969379425048828,0,0,44.0,1,1,272,286
124.99385800,124993858,1,0.002829618752002716,-0.0024990919046103954,-0.0002120808494510129,-0.5017890334129333,-0.14916488528251648,-9.969663619995117,0,0,44.0,0,1,272,286
124.99644600,124996446,1,0.002638817299157381,-0.002613167045637965,-0.00013166088319849223,-0.5024310350418091,-0.149130180478096,-9.969874382019043,0,0,44.0,1,1,272,286
124.99873400,124998734,1,0.002638817299157381,-0.002613167045637965,-0.00013166088319849223,-0.5024310350418091,-0.149130180478096,-9.969874382019043,0,0,44.0,0,0,272,286
125.00037500,125000375,1,0.002385074505582452,-0.0024039368145167828,-1.815580844777287e-06,-0.5030734539031982,-0.1491137593984604,-9.970015525817871,0,0,44.0,1,1,272,286
125.00390600,125003906,1,0.002385074505582452,-0.0024039368145167828,-1.815580844777287e-06,-0.5030734539031982,-0.1491137593984604,-9.970015525817871,0,0,44.0,0,0,272,286
125.00516700,125005167,1,0.002138518961146474,-0.0018064449541270733,0.00013334810500964522,-0.5035690665245056,-0.14911407232284546,-9.970093727111816,0,0,44.0,1,1,272,286
125.00888100,125008881,1,0.002138518961146474,-0.0018064449541270733,0.00013334810500964522,-0.5038561224937439,-0.149129718542099,-9.970114707946777,0,0,44.0,0,1,272,286
125.01179100,125011791,1,0.0019346587359905243,-0.0009321958641521633,0.0002499434631317854,-0.5039512515068054,-0.14915932714939117,-9.97008228302002,0,0,44.0,1,1,272,286
125.01378700,125013787,1,0.0017432424938306212,-9.349533684144262e-06,0.00033842193079181015,-0.5039512515068054,-0.14915932714939117,-9.97008228302002,0,0,44.0,1,0,272,286
125.01889700,125018897,1,0.001462373067624867,0.0007931389845907688,0.00039823484257794917,-0.5039428472518921,-0.14920160174369812,-9.970002174377441,0,0,44.0,1,1,272,286
125.02038400,125020384,1,0.001462373067624867,0.0007931389845907688,0.00039823484257794917,-0.5039843320846558,-0.14925530552864075,-9.969879150390625,0,0,44.0,0,1,272,286
125.02394400,125023944,1,0.001462373067624867,0.0007931389845907688,0.00039823484257794917,-0.5041437745094299,-0.14931924641132355,-9.96971607208252,0,0,44.0,0,1,272,286
125.02790500,125027905,1,0.0010529353749006987,0.0013639340177178383,0.0004336228594183922,-0.5044105052947998,-0.14939235150814056,-9.96951675415039,0,0,44.0,1,1,272,286
125.02933900,125029339,1,0.0005989213241264224,0.0015973291592672467,0.00045065939775668085,-0.5044105052947998,-0.14939235150814056,-9.96951675415039,0,0,44.0,1,0,272,286
125.03399900,125033999,1,0.0005989213241264224,0.0015973291592672467,0.00045065939775668085,-0.5047020316123962,-0.14947353303432465,-9.96935749053955,0,0,44.0,0,1,272,286
125.03550700,125035507,1,0.00019332054944243282,0.0014913781778886914,0.00041335399146191776,-0.5048704743385315,-0.1495617926120758,-9.969308853149414,0,0,44.0,1,1,272,286
125.03926200,125039262,1,0.00019332054944243282,0.0014913781778886914,0.00041335399146191776,-0.5048704743385315,-0.1495617926120758,-9.969308853149414,0,0,44.0,0,0,272,286
125.04058400,125040584,1,-0.0001229243935085833,0.0011827840935438871,0.0002694212889764458,-0.504925549030304,-0.1496562361717224,-9.969287872314453,0,0,44.0,1,1,272,286
125.04424900,125044249,1,-0.0001229243935085833,0.0011827840935438871,0.0002694212889764458,-0.5049490928649902,-0.14975595474243164,-9.969220161437988,0,0,44.0,0,1,272,286
125.04681500,125046815,1,-0.00034253273042850196,0.0007749811629764736,8.381585757888388e-06,-0.5048713684082031,-0.14986011385917664,-9.969111442565918,0,0,44.0,1,1,272,286
125.04907700,125049077,1,-0.00034253273042850196,0.0007749811629764736,8.381585757888388e-06,-0.5048713684082031,-0.14986011385917664,-9.969111442565918,0,0,44.0,0,0,272,286
125.05075000,125050750,1,-0.00043490034295246005,0.00033768435241654515,-0.0003146833332721144,-0.5046288371086121,-0.1499679535627365,-9.968963623046875,0,0,44.0,1,1,272,286
125.05432800,125054328,1,-0.00043490034295246005,0.00033768435241654515,-0.0003146833332721144,-0.5046288371086121,-0.1499679535627365,-9.968963623046875,0,0,44.0,0,0,272,286
125.05559000,125055590,1,-0.00036206963704898953,-3.896233010891592e-06,-0.0005770716234110296,-0.5043089389801025,-0.15007875859737396,-9.968783378601074,0,0,44.0,1,1,272,286
125.05934600,125059346,1,-0.00036206963704898953,-3.896233010891592e-06,-0.0005770716234110296,-0.5039917230606079,-0.15019182860851288,-9.968570709228516,0,0,44.0,0,1,272,286
125.06233600,125062336,1,-0.00017236013081856072,-0.00019945316307712346,-0.0006821901770308614,-0.503605842590332,-0.1503065824508667,-9.968331336975098,0,0,44.0,1,1,272,286
125.06416400,125064164,1,-0.00017236013081856072,-0.00019945316307712346,-0.0006821901770308614,-0.503605842590332,-0.1503065824508667,-9.968331336975098,0,0,44.0,0,0,272,286
125.06640400,125066404,1,4.845862713409588e-05,-0.00032988679595291615,-0.0005623435718007386,-0.5031585097312927,-0.15042245388031006,-9.968067169189453,0,0,44.0,1,1,272,286
125.06936000,125069360,1,4.845862713409588e-05,-0.00032988679595291615,-0.0005623435718007386,-0.5031585097312927,-0.15042245388031006,-9.968067169189453,0,0,44.0,0,0,272,286
125.07111800,125071118,1,0.00029271954554133117,-0.0005739412154071033,-0.0002597522106952965,-0.5027291774749756,-0.1505388617515564,-9.967782974243164,0,0,44.0,1,1,272,286
125.07436000,125074360,1,0.00029271954554133117,-0.0005739412154071033,-0.0002597522106952965,-0.5023177862167358,-0.1506553292274475,-9.967552185058594,0,0,44.0,0,1,272,286
125.07785000,125077850,1,0.0005947762401774526,-0.0010491308057680726,4.847420132136904e-05,-0.5019243955612183,-0.15077143907546997,-9.96744441986084,0,0,44.0,1,1,272,286
125.07937500,125079375,1,0.0008793266606517136,-0.0016541675431653857,0.00022684042050968856,-0.5019243955612183,-0.15077143907546997,-9.96744441986084,0,0,44.0,1,0,272,286
125.08436400,125084364,1,0.0010256642708554864,-0.0021473700180649757,0.00022505727247335017,-0.5014767050743103,-0.15088674426078796,-9.967377662658691,0,0,44.0,1,1,272,286
125.08595400,125085954,1,0.0010256642708554864,-0.0021473700180649757,0.00022505727247335017,-0.5009085536003113,-0.15100091695785522,-9.967276573181152,0,0,44.0,0,1,272,286
125.08948800,125089488,1,0.0009925466729328036,-0.0023359935730695724,8.736224117456004e-05,-0.5009085536003113,-0.15100091695785522,-9.967276573181152,0,0,44.0,1,0,272,286
125.09467700,125094677,1,0.0007867664680816233,-0.0022515542805194855,-9.960223542293534e-05,-0.49974292516708374,-0.1512245386838913,-9.967264175415039,0,0,44.0,1,1,272,286
125.09629900,125096299,1,0.0007867664680816233,-0.0022515542805194855,-9.960223542293534e-05,-0.49974292516708374,-0.1512245386838913,-9.967264175415039,0,0,44.0,0,0,272,286
125.09922700,125099227,1,0.0004812047991435975,-0.0020377705805003643,-0.0002827824209816754,-0.49914923310279846,-0.15133342146873474,-9.967412948608398,0,0,44.0,1,1,272,286
125.10115200,125101152,1,0.0004812047991435975,-0.0020377705805003643,-0.0002827824209816754,-0.49914923310279846,-0.15133342146873474,-9.967412948608398,0,0,44.0,0,0,272,286
125.10447100,125104471,1,0.000171764797414653,-0.0017901661340147257,-0.00039299216587096453,-0.49852868914604187,-0.15144000947475433,-9.967652320861816,0,0,44.0,1,1,272,286
125.10596700,125105967,1,0.000171764797414653,-0.0017901661340147257,-0.00039299216587096453,-0.497958242893219,-0.15154410898685455,-9.967902183532715,0,0,44.0,0,1,272,286
125.10939700,125109397,1,-4.8767677071737126e-05,-0.001563995610922575,-0.0003214806492906064,-0.49736347794532776,-0.15164554119110107,-9.968087196350098,0,0,44.0,1,1,272,286
125.11112300,125111123,1,-4.8767677071737126e-05,-0.001563995610922575,-0.0003214806492906064,-0.49736347794532776,-0.15164554119110107,-9.968087196350098,0,0,44.0,0,0,272,286
125.11419400,125114194,1,-6.182751531014219e-05,-0.0013847450027242303,-8.218621951527894e-05,-0.496748685836792,-0.15174411237239838,-9.96821403503418,0,0,44.0,1,1,272,286
125.11612400,125116124,1,-6.182751531014219e-05,-0.0013847450027242303,-8.218621951527894e-05,-0.496748685836792,-0.15174411237239838,-9.96821403503418,0,0,44.0,0,0,272,286
125.11934300,125119343,1,0.0001617702655494213,-0.0012162589700892568,0.00016492229769937694,-0.4962625801563263,-0.1518397480249405,-9.968286514282227,0,0,44.0,1,1,272,286
125.12097100,125120971,1,0.0001617702655494213,-0.0012162589700892568,0.00016492229769937694,-0.49596840143203735,-0.15193229913711548,-9.968308448791504,0,0,44.0,0,1,272,286
125.12445500,125124455,1,0.0005578363197855651,-0.0009958831360563636,0.0002929619513452053,-0.4957785904407501,-0.15202169120311737,-9.968284606933594,0,0,44.0,1,1,272,286
125.12614400,125126144,1,0.0005578363197855651,-0.0009958831360563636,0.0002929619513452053,-0.4957785904407501,-0.15202169120311737,-9.968284606933594,0,0,44.0,0,0,272,286
125.12922500,125129225,1,0.0010655914666131139,-0.0007831992115825415,0.0002544392482377589,-0.49561262130737305,-0.1521078646183014,-9.968217849731445,0,0,44.0,1,1,272,286
125.13117800,125131178,1,0.0010655914666131139,-0.0007831992115825415,0.0002544392482377589,-0.49561262130737305,-0.1521078646183014,-9.968217849731445,0,0,44.0,0,0,272,286
125.13442600,125134426,1,0.0015515132108703256,-0.0007343117031268775,9.290665184380487e-05,-0.4954691529273987,-0.15211838483810425,-9.968184471130371,0,0,44.0,1,1,272,286
125.13598100,125135981,1,0.0015515132108703256,-0.0007343117031268775,9.290665184380487e-05,-0.4954691529273987,-0.15211838483810425,-9.968184471130371,0,0,44.0,0,0,272,286
125.13937100,125139371,1,0.0018651577411219478,-0.0009469810174778104,-0.00010738903802121058,-0.4952744245529175,-0.15198729932308197,-9.968253135681152,0,0,44.0,1,1,272,286
125.14118800,125141188,1,0.0018651577411219478,-0.0009469810174778104,-0.00010738903802121058,-0.4950335621833801,-0.1517995148897171,-9.968344688415527,0,0,44.0,0,1,272,286
125.14420200,125144202,1,0.0019551238510757685,-0.0013468547258526087,-0.00033836744842119515,-0.4948960244655609,-0.1516329050064087,-9.9683837890625,0,0,44.0,1,1,272,286
125.14609500,125146095,1,0.0019551238510757685,-0.0013468547258526087,-0.00033836744842119515,-0.4948960244655609,-0.1516329050064087,-9.9683837890625,0,0,44.0,0,0,272,286
125.14939200,125149392,1,0.0018298804061487317,-0.0016552049200981855,-0.0005909604951739311,-0.49485358595848083,-0.15148630738258362,-9.968374252319336,0,0,44.0,1,1,272,286
125.15100200,125151002,1,0.0018298804061487317,-0.0016552049200981855,-0.0005909604951739311,-0.49485358595848083,-0.15148630738258362,-9.968374252319336,0,0,44.0,0,0,272,286
125.15434500,125154345,1,0.0015278420178219676,-0.0016146592097356915,-0.0007728917989879847,-0.49482598900794983,-0.15135857462882996,-9.968392372131348,0,0,44.0,1,1,272,286
125.15614500,125156145,1,0.0015278420178219676,-0.0016146592097356915,-0.0007728917989879847,-0.4948844015598297,-0.15117624402046204,-9.968509674072266,0,0,44.0,0,1,272,286
125.15920500,125159205,1,0.0010970033472403884,-0.0012299636146053672,-0.0008050429751165211,-0.49502134323120117,-0.15087226033210754,-9.968644142150879,0,0,44.0,1,1,272,286
125.16109800,125161098,1,0.0010970033472403884,-0.0012299636146053672,-0.0008050429751165211,-0.49502134323120117,-0.15087226033210754,-9.968644142150879,0,0,44.0,0,0,272,286
125.16435500,125164355,1,0.0006669091526418924,-0.0006841386202722788,-0.0006697289645671844,-0.49508488178253174,-0.15053047239780426,-9.968793869018555,0,0,44.0,1,1,272,286
125.16592700,125165927,1,0.0006669091526418924,-0.0006841386202722788,-0.0006697289645671844,-0.49508488178253174,-0.15053047239780426,-9.968793869018555,0,0,44.0,0,0,272,286
125.16935900,125169359,1,0.0004313182143960148,-0.00018238827760796994,-0.00042622003820724785,-0.4950810670852661,-0.15022774040699005,-9.969101905822754,0,0,44.0,1,1,272,286
125.17115800,125171158,1,0.0004313182143960148,-0.00018238827760796994,-0.00042622003820724785,-0.4950810670852661,-0.15022774040699005,-9.969101905822754,0,0,44.0,0,0,272,286
125.17411000,125174110,1,0.00046075385762378573,9.090089588426054e-05,-0.0001646362361498177,-0.4950879216194153,-0.149961918592453,-9.969554901123047,0,0,44.0,1,1,272,286
125.17610300,125176103,1,0.00046075385762378573,9.090089588426054e-05,-0.0001646362361498177,-0.49510458111763,-0.1497308313846588,-9.969991683959961,0,0,44.0,0,1,272,286
125.17936800,125179368,1,0.0006240217480808496,3.3403652196284384e-05,6.507845682790503e-05,-0.49513009190559387,-0.1494600772857666,-9.970343589782715,0,0,44.0,1,1,272,286
125.18095100,125180951,1,0.0006240217480808496,3.3403652196284384e-05,6.507845682790503e-05,-0.49513009190559387,-0.1494600772857666,-9.970343589782715,0,0,44.0,0,0,272,286
125.18440200,125184402,1,0.0007893713191151619,-0.00027197913732379675,0.00019979846547357738,-0.4950912892818451,-0.1490093320608139,-9.970613479614258,0,0,44.0,1,1,272,286
125.18620800,125186208,1,0.0007893713191151619,-0.00027197913732379675,0.00019979846547357738,-0.4950912892818451,-0.1490093320608139,-9.970613479614258,0,0,44.0,0,0,272,286
125.18929000,125189290,1,0.0010138184297829866,-0.0006165933446027339,0.00017948031018022448,-0.49492135643959045,-0.1483956128358841,-9.970807075500488,0,0,44.0,1,1,272,286
125.19142100,125191421,1,0.0010138184297829866,-0.0006165933446027339,0.00017948031018022448,-0.49463215470314026,-0.14777977764606476,-9.970930099487305,0,0,44.0,0,1,272,286
125.19480900,125194809,1,0.0014019458321854472,-0.0008852174505591393,8.136087126331404e-05,-0.4943073093891144,-0.14723670482635498,-9.970990180969238,0,0,44.0,1,1,272,286
125.19607300,125196073,1,0.0014019458321854472,-0.0008852174505591393,8.136087126331404e-05,-0.4943073093891144,-0.14723670482635498,-9.970990180969238,0,0,44.0,0,0,272,286
125.19939600,125199396,1,0.0019404864870011806,-0.0010717097902670503,4.220999835524708e-05,-0.49409571290016174,-0.14676226675510406,-9.971062660217285,0,0,44.0,1,1,272,286
125.20109000,125201090,1,0.0019404864870011806,-0.0010717097902670503,4.220999835524708e-05,-0.49409571290016174,-0.14676226675510406,-9.971062660217285,0,0,44.0,0,0,272,286
125.20417400,125204174,1,0.00247256550937891,-0.001227895263582468,0.00012417913239914924,-0.49398860335350037,-0.1463523954153061,-9.971219062805176,0,0,44.0,1,1,272,286
125.20615700,125206157,1,0.00247256550937891,-0.001227895263582468,0.00012417913239914924,-0.49398860335350037,-0.1463523954153061,-9.971219062805176,0,0,44.0,0,0,272,286
125.20933800,125209338,1,0.0028331095818430185,-0.0014277019072324038,0.0003406143223401159,-0.4938327670097351,-0.14600315690040588,-9.971380233764648,0,0,44.0,1,1,272,286
125.21097400,125210974,1,0.0028331095818430185,-0.0014277019072324038,0.0003406143223401159,-0.4935605823993683,-0.14571072161197662,-9.97147274017334,0,0,44.0,0,1,272,286
125.21435200,125214352,1,0.0030050177592784166,-0.0016608070582151413,0.0006772520137019455,-0.4931829571723938,-0.14547136425971985,-9.971500396728516,0,0,44.0,1,1,272,286
125.21609800,125216098,1,0.0030050177592784166,-0.0016608070582151413,0.0006772520137019455,-0.4931829571723938,-0.14547136425971985,-9.971500396728516,0,0,44.0,0,0,272,286
125.21920400,125219204,1,0.0030512099619954824,-0.0018744954140856862,0.0011076549999415874,-0.4927826523780823,-0.14528147876262665,-9.971468925476074,0,0,44.0,1,1,272,286
125.22114100,125221141,1,0.0030512099619954824,-0.0018744954140856862,0.0011076549999415874,-0.4927826523780823,-0.14528147876262665,-9.971468925476074,0,0,44.0,0,0,272,286
125.22436000,125224360,1,0.0029823556542396545,-0.0020442891400307417,0.001561138080433011,-0.49243542551994324,-0.14513757824897766,-9.971311569213867,0,0,44.0,1,1,272,286
125.22597300,125225973,1,0.0029823556542396545,-0.0020442891400307417,0.001561138080433011,-0.4921380877494812,-0.14503630995750427,-9.970967292785645,0,0,44.0,0,1,272,286
125.22937800,125229378,1,0.0027380750980228186,-0.0021643303334712982,0.0019129972206428647,-0.49195989966392517,-0.14497441053390503,-9.970597267150879,0,0,44.0,1,1,272,286
125.23115700,125231157,1,0.0027380750980228186,-0.0021643303334712982,0.0019129972206428647,-0.49195989966392517,-0.14497441053390503,-9.970597267150879,0,0,44.0,0,0,272,286
125.23412900,125234129,1,0.002356587676331401,-0.0021973541006445885,0.002029997995123267,-0.49189138412475586,-0.1448764204978943,-9.970422744750977,0,0,44.0,1,1,272,286
125.23678700,125236787,1,0.002356587676331401,-0.0021973541006445885,0.002029997995123267,-0.49189138412475586,-0.1448764204978943,-9.970422744750977,0,0,44.0,0,0,272,286
125.23935300,125239353,1,0.0020057198125869036,-0.0020535073708742857,0.0018796153599396348,-0.49177882075309753,-0.1446734070777893,-9.970428466796875,0,0,44.0,1,1,272,286
125.24152200,125241522,1,0.0020057198125869036,-0.0020535073708742857,0.0018796153599396348,-0.4915539622306824,-0.144447460770607,-9.970453262329102,0,0,44.0,0,1,272,286
125.24488200,125244882,1,0.0017683283658698201,-0.001671711914241314,0.0015712087042629719,-0.49122726917266846,-0.14427372813224792,-9.970423698425293,0,0,44.0,1,1,272,286
125.24669000,125246690,1,0.0017683283658698201,-0.001671711914241314,0.0015712087042629719,-0.49122726917266846,-0.14427372813224792,-9.970423698425293,0,0,44.0,0,0,272,286
125.24962800,125249628,1,0.0016277232207357883,-0.0010996963828802109,0.001186878071166575,-0.49080854654312134,-0.14414839446544647,-9.970344543457031,0,0,44.0,1,1,272,286
125.25166500,125251665,1,0.0016277232207357883,-0.0010996963828802109,0.001186878071166575,-0.49080854654312134,-0.14414839446544647,-9.970344543457031,0,0,44.0,0,0,272,286
125.25478600,125254786,1,0.0015598973259329796,-0.0005606917547993362,0.0007394508575089276,-0.4903796911239624,-0.14406786859035492,-9.970220565795898,0,0,44.0,1,1,272,286
125.25661900,125256619,1,0.0015598973259329796,-0.0005606917547993362,0.0007394508575089276,-0.49008774757385254,-0.14402860403060913,-9.970054626464844,0,0,44.0,0,1,272,286
125.26037500,125260375,1,0.0015408119652420282,-0.00037643779069185257,0.0002876573707908392,-0.4899945855140686,-0.14402727782726288,-9.96985149383545,0,0,44.0,1,1,272,286
125.26181900,125261819,1,0.0015408119652420282,-0.00037643779069185257,0.0002876573707908392,-0.4899945855140686,-0.14402727782726288,-9.96985149383545,0,0,44.0,0,0,272,286
125.26429500,125264295,1,0.0016343331662937999,-0.0006590214325115085,-9.506312198936939e-05,-0.4900112748146057,-0.1440606266260147,-9.96961498260498,0,0,44.0,1,1,272,286
125.26687100,125266871,1,0.0016343331662937999,-0.0006590214325115085,-9.506312198936939e-05,-0.4900112748146057,-0.1440606266260147,-9.96961498260498,0,0,44.0,0,0,272,286
125.26945300,125269453,1,0.0019822344183921814,-0.0012250305153429508,-0.00038124623824842274,-0.4899837076663971,-0.14412559568881989,-9.96934986114502,0,0,44.0,1,1,272,286
125.27169900,125271699,1,0.0019822344183921814,-0.0012250305153429508,-0.00038124623824842274,-0.4899837076663971,-0.14412559568881989,-9.96934986114502,0,0,44.0,0,0,272,286
125.27443000,125274430,1,0.002576356753706932,-0.0018076789565384388,-0.0005297259776853025,-0.48991575837135315,-0.14421924948692322,-9.969130516052246,0,0,44.0,1,1,272,286
125.27688300,125276883,1,0.002576356753706932,-0.0018076789565384388,-0.0005297259776853025,-0.4899558424949646,-0.14433877170085907,-9.969026565551758,0,0,44.0,0,1,272,286
125.27968800,125279688,1,0.0032053005415946245,-0.0022228758316487074,-0.0004986782441847026,-0.4900946319103241,-0.14448153972625732,-9.968955039978027,0,0,44.0,1,1,272,286
125.28192600,125281926,1,0.0032053005415946245,-0.0022228758316487074,-0.0004986782441847026,-0.4900946319103241,-0.14448153972625732,-9.968955039978027,0,0,44.0,0,0,272,286
125.28483500,125284835,1,0.003626919351518154,-0.0024429394397884607,-0.0003366655146237463,-0.4901784658432007,-0.14464502036571503,-9.968843460083008,0,0,44.0,1,1,272,286
125.28694100,125286941,1,0.003626919351518154,-0.0024429394397884607,-0.0003366655146237463,-0.4901784658432007,-0.14464502036571503,-9.968843460083008,0,0,44.0,0,0,272,286
125.29029900,125290299,1,0.0037053690757602453,-0.0025262862909585238,-0.0001318088179687038,-0.4901393949985504,-0.14482684433460236,-9.968767166137695,0,0,44.0,1,1,272,286
125.29252600,125292526,1,0.0037053690757602453,-0.0025262862909585238,-0.0001318088179687038,-0.48998793959617615,-0.14502477645874023,-9.968794822692871,0,0,44.0,0,1,272,286
125.29521800,125295218,1,0.003507992485538125,-0.002525032963603735,6.308030424406752e-05,-0.4898066520690918,-0.14523667097091675,-9.968846321105957,0,0,44.0,1,1,272,286
125.29729100,125297291,1,0.003507992485538125,-0.002525032963603735,6.308030424406752e-05,-0.4898066520690918,-0.14523667097091675,-9.968846321105957,0,0,44.0,0,0,272,286
125.29992000,125299920,1,0.0032397264149039984,-0.0024377095978707075,0.000179918875801377,-0.48967108130455017,-0.14538823068141937,-9.968847274780273,0,0,44.0,1,1,272,286
125.30185500,125301855,1,0.0032397264149039984,-0.0024377095978707075,0.000179918875801377,-0.48967108130455017,-0.14538823068141937,-9.968847274780273,0,0,44.0,0,0,272,286
125.30483600,125304836,1,0.0030609131790697575,-0.002193018328398466,0.0001533970789751038,-0.4895778000354767,-0.14541161060333252,-9.968873977661133,0,0,44.0,1,1,272,286
125.30717300,125307173,1,0.0030609131790697575,-0.002193018328398466,0.0001533970789751038,-0.48959600925445557,-0.14539001882076263,-9.969067573547363,0,0,44.0,0,1,272,286
125.31075400,125310754,1,0.002999143674969673,-0.0017785580130293965,5.615561531158164e-05,-0.4897160828113556,-0.14539965987205505,-9.969487190246582,0,0,44.0,1,1,272,286
125.31221300,125312213,1,0.002999143674969673,-0.0017785580130293965,5.615561531158164e-05,-0.4897160828113556,-0.14539965987205505,-9.969487190246582,0,0,44.0,0,0,272,286
125.31481200,125314812,1,0.0029241631273180246,-0.0012987866066396236,2.1444315279950388e-05,-0.48978427052497864,-0.14543786644935608,-9.970039367675781,0,0,44.0,1,1,272,286
125.31705900,125317059,1,0.0029241631273180246,-0.0012987866066396236,2.1444315279950388e-05,-0.48978427052497864,-0.14543786644935608,-9.970039367675781,0,0,44.0,0,0,272,286
125.31980200,125319802,1,0.0027279346249997616,-0.0008606619667261839,6.69505971018225e-05,-0.4898046851158142,-0.14542973041534424,-9.970565795898438,0,0,44.0,1,1,272,286
125.32227300,125322273,1,0.0027279346249997616,-0.0008606619667261839,6.69505971018225e-05,-0.4898046851158142,-0.14542973041534424,-9.970565795898438,0,0,44.0,0,0,272,286
125.32466800,125324668,1,0.002457281341776252,-0.000555556733161211,0.0001471849245717749,-0.4899260103702545,-0.14523448050022125,-9.970995903015137,0,0,44.0,1,1,272,286
125.32724500,125327245,1,0.002457281341776252,-0.000555556733161211,0.0001471849245717749,-0.4902116656303406,-0.14486877620220184,-9.971334457397461,0,0,44.0,0,1,272,286
125.33035200,125330352,1,0.0022325480822473764,-0.0004943304229527712,0.00023289339151233435,-0.4905741512775421,-0.1444932371377945,-9.971587181091309,0,0,44.0,1,1,272,286
125.33207200,125332072,1,0.0022325480822473764,-0.0004943304229527712,0.00023289339151233435,-0.4905741512775421,-0.1444932371377945,-9.971587181091309,0,0,44.0,0,0,272,286
125.33481800,125334818,1,0.002151426626369357,-0.0007384541677311063,0.00030792568577453494,-0.49086087942123413,-0.14418241381645203,-9.971691131591797,0,0,44.0,1,1,272,286
125.33777000,125337770,1,0.002151426626369357,-0.0007384541677311063,0.00030792568577453494,-0.49086087942123413,-0.14418241381645203,-9.971691131591797,0,0,44.0,0,0,272,286
125.33976500,125339765,1,0.002158156828954816,-0.0012718219077214599,0.00040759146213531494,-0.491077184677124,-0.1439320147037506,-9.971583366394043,0,0,44.0,1,1,272,286
125.34290500,125342905,1,0.002158156828954816,-0.0012718219077214599,0.00040759146213531494,-0.4913729429244995,-0.14373783767223358,-9.971357345581055,0,0,44.0,0,1,272,286
125.34594000,125345940,1,0.002083541825413704,-0.001998273655772209,0.0006726368446834385,-0.49174025654792786,-0.1435958594083786,-9.97109317779541,0,0,44.0,1,1,272,286
125.34764000,125347640,1,0.002083541825413704,-0.001998273655772209,0.0006726368446834385,-0.49174025654792786,-0.1435958594083786,-9.97109317779541,0,0,44.0,0,0,272,286
125.34992300,125349923,1,0.001852019689977169,-0.002710882108658552,0.001192547264508903,-0.4920993745326996,-0.1435021609067917,-9.970796585083008,0,0,44.0,1,1,272,286
125.35292400,125352924,1,0.001852019689977169,-0.002710882108658552,0.001192547264508903,-0.4920993745326996,-0.1435021609067917,-9.970796585083008,0,0,44.0,0,0,272,286
125.35459900,125354599,1,0.0015330143505707383,-0.003219586331397295,0.0018055785913020372,-0.4924495816230774,-0.14345300197601318,-9.97047233581543,0,0,44.0,1,1,272,286
125.35751400,125357514,1,0.0015330143505707383,-0.003219586331397295,0.0018055785913020372,-0.492717981338501,-0.1434447467327118,-9.970120429992676,0,0,44.0,0,1,272,286
125.36135300,125361353,1,0.0012186800595372915,-0.003499341430142522,0.002244260860607028,-0.49291056394577026,-0.14347399771213531,-9.96982192993164,0,0,44.0,1,1,272,286
125.36284600,125362846,1,0.0012186800595372915,-0.003499341430142522,0.002244260860607028,-0.49291056394577026,-0.14347399771213531,-9.96982192993164,0,0,44.0,0,0,272,286
125.36534300,125365343,1,0.000998493516817689,-0.0036152831744402647,0.0023543096613138914,-0.49310532212257385,-0.14353741705417633,-9.969642639160156,0,0,44.0,1,1,272,286
125.36801200,125368012,1,0.000998493516817689,-0.0036152831744402647,0.0023543096613138914,-0.49310532212257385,-0.14353741705417633,-9.969642639160156,0,0,44.0,0,0,272,286
125.37018300,125370183,1,0.0009464006288908422,-0.0035852559376507998,0.002107011852785945,-0.49322909116744995,-0.14363187551498413,-9.969501495361328,0,0,44.0,1,1,272,286
125.37313600,125373136,1,0.0009464006288908422,-0.0035852559376507998,0.002107011852785945,-0.49321499466896057,-0.14375437796115875,-9.969324111938477,0,0,44.0,0,1,272,286
125.37684800,125376848,1,0.001032429514452815,-0.0033154503908008337,0.0015858643455430865,-0.49314725399017334,-0.14390206336975098,-9.96911334991455,0,0,44.0,1,1,272,286
125.37818400,125378184,1,0.001032429514452815,-0.0033154503908008337,0.0015858643455430865,-0.49314725399017334,-0.14390206336975098,-9.96911334991455,0,0,44.0,0,0,272,286
125.38086600,125380866,1,0.001177042257040739,-0.002710595028474927,0.0009618712938390672,-0.4931752681732178,-0.1440722644329071,-9.968873023986816,0,0,44.0,1,1,272,286
125.38338100,125383381,1,0.001177042257040739,-0.002710595028474927,0.0009618712938390672,-0.4931752681732178,-0.1440722644329071,-9.968873023986816,0,0,44.0,0,0,272,286
125.38572900,125385729,1,0.0013294266536831856,-0.0018579495372250676,0.00042475282680243254,-0.49329087138175964,-0.1442624032497406,-9.968605995178223,0,0,44.0,1,1,272,286
125.38838000,125388380,1,0.0013294266536831856,-0.0018579495372250676,0.00042475282680243254,-0.49334147572517395,-0.14447008073329926,-9.968316078186035,0,0,44.0,0,1,272,286
125.39241300,125392413,1,0.001419742708094418,-0.001010492560453713,0.00010198295785812661,-0.493259996175766,-0.14469298720359802,-9.96800708770752,0,0,44.0,1,1,272,286
125.39383500,125393835,1,0.001419742708094418,-0.001010492560453713,0.00010198295785812661,-0.493259996175766,-0.14469298720359802,-9.96800708770752,0,0,44.0,0,0,272,286
125.39675100,125396751,1,0.001379238092340529,-0.00038371552363969386,2.6315703507862054e-05,-0.4931303560733795,-0.14492903649806976,-9.967680931091309,0,0,44.0,1,1,272,286
125.39932800,125399328,1,0.001379238092340529,-0.00038371552363969386,2.6315703507862054e-05,-0.4931303560733795,-0.14492903649806976,-9.967680931091309,0,0,44.0,0,0,272,286
