timestamp,TimeUS,GYROx
timestamp,TimeUS,GYROx,TimeUS,GYROx
124.58223600,124582236,-0.0004671430215239525,124582236,-0.0004671430215239525
124.58763400,124587634,-0.0004671430215239525,124587634,-0.0004671430215239525
124.59263200,124592632,-0.0004671430215239525,124592632,-0.0004671430215239525
124.59763300,124597633,0.0005981539143249393,124597633,0.0005981539143249393
124.60263400,124602634,0.0016634507337585092,124602634,0.0016634507337585092
124.60763200,124607632,0.002728747669607401,124607632,0.002728747669607401
124.61263600,124612636,0.0037940447218716145,124612636,0.0037940447218716145
124.61763200,124617632,0.004859341308474541,124617632,0.004859341308474541
124.62263300,124622633,0.004859341308474541,124622633,0.004859341308474541
124.62763400,124627634,0.0037940447218716145,124627634,0.0037940447218716145
124.63266100,124632661,0.002728747669607401,124632661,0.002728747669607401
124.63769600,124637696,0.0016634507337585092,124637696,0.0016634507337585092
124.64272400,124642724,0.0005981539143249393,124642724,0.0005981539143249393
124.64774500,124647745,0.0016634507337585092,124647745,0.0016634507337585092
124.65263300,124652633,0.0016634507337585092,124652633,0.0016634507337585092
124.65763400,124657634,0.002728747669607401,124657634,0.002728747669607401
124.66263400,124662634,0.0037940447218716145,124662634,0.0037940447218716145
124.66763300,124667633,0.0037940447218716145,124667633,0.0037940447218716145
124.67263700,124672637,0.002728747669607401,124672637,0.002728747669607401
124.67764200,124677642,0.0016634507337585092,124677642,0.0016634507337585092
124.68263300,124682633,0.0016634507337585092,124682633,0.0016634507337585092
124.68763600,124687636,0.0005981539143249393,124687636,0.0005981539143249393
124.69263200,124692632,0.0005981539143249393,124692632,0.0005981539143249393
124.69766000,124697660,0.0005981539143249393,124697660,0.0005981539143249393
124.70268300,124702683,0.0016634507337585092,124702683,0.0016634507337585092
124.70770700,124707707,0.0016634507337585092,124707707,0.0016634507337585092
124.71273300,124712733,0.0016634507337585092,124712733,0.0016634507337585092
124.71763300,124717633,0.0016634507337585092,124717633,0.0016634507337585092
124.72263700,124722637,0.0005981539143249393,124722637,0.0005981539143249393
124.72763800,124727638,0.0005981539143249393,124727638,0.0005981539143249393
124.73263200,124732632,0.0005981539143249393,124732632,0.0005981539143249393
124.73763300,124737633,0.002728747669607401,124737633,0.002728747669607401
124.74263400,124742634,0.002728747669607401,124742634,0.002728747669607401
124.74763300,124747633,0.0037940447218716145,124747633,0.0037940447218716145
124.75263300,124752633,0.002728747669607401,124752633,0.002728747669607401
124.75764100,124757641,0.0016634507337585092,124757641,0.0016634507337585092
124.76263300,124762633,0.0016634507337585092,124762633,0.0016634507337585092
124.76764100,124767641,0.0016634507337585092,124767641,0.0016634507337585092
124.77267300,124772673,0.0016634507337585092,124772673,0.0016634507337585092
124.77769100,124777691,0.0016634507337585092,124777691,0.0016634507337585092
124.78271700,124782717,0.0016634507337585092,124782717,0.0016634507337585092
124.78775100,124787751,0.0016634507337585092,124787751,0.0016634507337585092
124.79263800,124792638,0.0016634507337585092,124792638,0.0016634507337585092
124.79813500,124798135,0.0016634507337585092,124798135,0.0016634507337585092
124.80313400,124803134,0.0005981539143249393,124803134,0.0005981539143249393
124.80813700,124808137,0.0005981539143249393,124808137,0.0005981539143249393
124.81313500,124813135,0.0005981539143249393,124813135,0.0005981539143249393
124.81813400,124818134,0.0005981539143249393,124818134,0.0005981539143249393
124.82313500,124823135,0.0005981539143249393,124823135,0.0005981539143249393
124.82813500,124828135,-0.0004671430215239525,124828135,-0.0004671430215239525
124.83313600,124833136,-0.0004671430215239525,124833136,-0.0004671430215239525
124.83813200,124838132,-0.0004671430215239525,124838132,-0.0004671430215239525
124.84313600,124843136,-0.0004671430215239525,124843136,-0.0004671430215239525
124.84815900,124848159,-0.0004671430215239525,124848159,-0.0004671430215239525
124.85319300,124853193,-0.0004671430215239525,124853193,-0.0004671430215239525
124.85822000,124858220,0.0005981539143249393,124858220,0.0005981539143249393
124.86325000,124863250,0.0005981539143249393,124863250,0.0005981539143249393
124.86813400,124868134,0.0005981539143249393,124868134,0.0005981539143249393
124.87313500,124873135,0.0005981539143249393,124873135,0.0005981539143249393
124.87813600,124878136,0.0005981539143249393,124878136,0.0005981539143249393
124.88313500,124883135,0.0005981539143249393,124883135,0.0005981539143249393
124.88813400,124888134,0.0005981539143249393,124888134,0.0005981539143249393
124.89313600,124893136,0.0016634507337585092,124893136,0.0016634507337585092
124.89813800,124898138,0.002728747669607401,124898138,0.002728747669607401
124.90313600,124903136,0.002728747669607401,124903136,0.002728747669607401
124.90813800,124908138,0.0016634507337585092,124908138,0.0016634507337585092
124.91316200,124913162,0.0005981539143249393,124913162,0.0005981539143249393
124.91818900,124918189,-0.0004671430215239525,124918189,-0.0004671430215239525
124.92321600,124923216,-0.0004671430215239525,124923216,-0.0004671430215239525
124.92825500,124928255,-0.0004671430215239525,124928255,-0.0004671430215239525
124.93313700,124933137,0.0005981539143249393,124933137,0.0005981539143249393
124.93813700,124938137,0.002728747669607401,124938137,0.002728747669607401
124.94313600,124943136,0.0037940447218716145,124943136,0.0037940447218716145
124.94813700,124948137,0.0037940447218716145,124948137,0.0037940447218716145
124.95313800,124953138,0.002728747669607401,124953138,0.002728747669607401
124.95813900,124958139,0.002728747669607401,124958139,0.002728747669607401
124.96313600,124963136,0.002728747669607401,124963136,0.002728747669607401
124.96814000,124968140,0.002728747669607401,124968140,0.002728747669607401
124.97313700,124973137,0.002728747669607401,124973137,0.002728747669607401
124.97816300,124978163,0.002728747669607401,124978163,0.002728747669607401
124.98318300,124983183,0.002728747669607401,124983183,0.002728747669607401
124.98821300,124988213,0.0016634507337585092,124988213,0.0016634507337585092
124.99329400,124993294,0.0016634507337585092,124993294,0.0016634507337585092
124.99829800,124998298,0.0016634507337585092,124998298,0.0016634507337585092
125.00330500,125003305,0.0016634507337585092,125003305,0.0016634507337585092
125.00832300,125008323,0.0016634507337585092,125008323,0.0016634507337585092
125.01313300,125013133,0.0005981539143249393,125013133,0.0005981539143249393
125.01813600,125018136,-0.0004671430215239525,125018136,-0.0004671430215239525
125.02363800,125023638,-0.0004671430215239525,125023638,-0.0004671430215239525
125.02863200,125028632,-0.0004671430215239525,125028632,-0.0004671430215239525
125.03363700,125033637,-0.0004671430215239525,125033637,-0.0004671430215239525
125.03867200,125038672,-0.0004671430215239525,125038672,-0.0004671430215239525
125.04365100,125043651,-0.0004671430215239525,125043651,-0.0004671430215239525
125.04868900,125048689,0.0005981539143249393,125048689,0.0005981539143249393
125.05369700,125053697,0.0005981539143249393,125053697,0.0005981539143249393
125.05877600,125058776,0.0005981539143249393,125058776,0.0005981539143249393
125.06378200,125063782,0.0005981539143249393,125063782,0.0005981539143249393
125.06880200,125068802,0.0016634507337585092,125068802,0.0016634507337585092
125.07380400,125073804,0.0016634507337585092,125073804,0.0016634507337585092
125.07863300,125078633,0.0005981539143249393,125078633,0.0005981539143249393
125.08363400,125083634,0.0005981539143249393,125083634,0.0005981539143249393
125.08863300,125088633,-0.0004671430215239525,125088633,-0.0004671430215239525
125.09364100,125093641,-0.0004671430215239525,125093641,-0.0004671430215239525
125.09863500,125098635,-0.0004671430215239525,125098635,-0.0004671430215239525
125.10363600,125103636,-0.0004671430215239525,125103636,-0.0004671430215239525
125.10863500,125108635,0.0005981539143249393,125108635,0.0005981539143249393
125.11367400,125113674,0.0016634507337585092,125113674,0.0016634507337585092
125.11870800,125118708,0.0016634507337585092,125118708,0.0016634507337585092
125.12373800,125123738,0.002728747669607401,125123738,0.002728747669607401
125.12863600,125128636,0.002728747669607401,125128636,0.002728747669607401
125.13364100,125133641,0.0016634507337585092,125133641,0.0016634507337585092
125.13863600,125138636,0.0016634507337585092,125138636,0.0016634507337585092
125.14363700,125143637,0.0005981539143249393,125143637,0.0005981539143249393
125.14863400,125148634,0.0005981539143249393,125148634,0.0005981539143249393
125.15363900,125153639,-0.0004671430215239525,125153639,-0.0004671430215239525
125.15863400,125158634,-0.0004671430215239525,125158634,-0.0004671430215239525
125.16363900,125163639,0.0005981539143249393,125163639,0.0005981539143249393
125.16863600,125168636,0.0016634507337585092,125168636,0.0016634507337585092
125.17363400,125173634,0.0016634507337585092,125173634,0.0016634507337585092
125.17865100,125178651,0.0005981539143249393,125178651,0.0005981539143249393
125.18367700,125183677,0.0016634507337585092,125183677,0.0016634507337585092
125.18870500,125188705,0.002728747669607401,125188705,0.002728747669607401
125.19371900,125193719,0.0037940447218716145,125193719,0.0037940447218716145
125.19880400,125198804,0.0037940447218716145,125198804,0.0037940447218716145
125.20363300,125203633,0.002728747669607401,125203633,0.002728747669607401
125.20863500,125208635,0.002728747669607401,125208635,0.002728747669607401
125.21363400,125213634,0.002728747669607401,125213634,0.002728747669607401
125.21863700,125218637,0.002728747669607401,125218637,0.002728747669607401
125.22363800,125223638,0.0016634507337585092,125223638,0.0016634507337585092
125.22864000,125228640,0.0005981539143249393,125228640,0.0005981539143249393
125.23363300,125233633,0.0016634507337585092,125233633,0.0016634507337585092
125.23863500,125238635,0.0016634507337585092,125238635,0.0016634507337585092
125.24363600,125243636,0.0016634507337585092,125243636,0.0016634507337585092
125.24913400,125249134,0.0016634507337585092,125249134,0.0016634507337585092
125.25414400,125254144,0.0016634507337585092,125254144,0.0016634507337585092
125.25867400,125258674,0.0016634507337585092,125258674,0.0016634507337585092
125.26369500,125263695,0.0037940447218716145,125263695,0.0037940447218716145
125.26871900,125268719,0.004859341308474541,125268719,0.004859341308474541
125.27375000,125273750,0.004859341308474541,125273750,0.004859341308474541
125.27913600,125279136,0.0037940447218716145,125279136,0.0037940447218716145
125.28413400,125284134,0.002728747669607401,125284134,0.002728747669607401
125.28913600,125289136,0.0016634507337585092,125289136,0.0016634507337585092
125.29413700,125294137,0.002728747669607401,125294137,0.002728747669607401
125.29913600,125299136,0.002728747669607401,125299136,0.002728747669607401
125.30413600,125304136,0.0037940447218716145,125304136,0.0037940447218716145
125.30913400,125309134,0.002728747669607401,125309134,0.002728747669607401
125.31413300,125314133,0.0016634507337585092,125314133,0.0016634507337585092
125.31914200,125319142,0.0016634507337585092,125319142,0.0016634507337585092
125.32413600,125324136,0.0016634507337585092,125324136,0.0016634507337585092
125.32914800,125329148,0.002728747669607401,125329148,0.002728747669607401
125.33416400,125334164,0.002728747669607401,125334164,0.002728747669607401
125.33919800,125339198,0.0016634507337585092,125339198,0.0016634507337585092
125.34422700,125344227,0.0005981539143249393,125344227,0.0005981539143249393
125.34924700,125349247,0.0005981539143249393,125349247,0.0005981539143249393
125.35413300,125354133,0.0005981539143249393,125354133,0.0005981539143249393
125.35914300,125359143,0.0005981539143249393,125359143,0.0005981539143249393
125.36413700,125364137,0.0016634507337585092,125364137,0.0016634507337585092
125.36913400,125369134,0.0016634507337585092,125369134,0.0016634507337585092
125.37413300,125374133,0.0016634507337585092,125374133,0.0016634507337585092
125.37913400,125379134,0.0016634507337585092,125379134,0.0016634507337585092
125.38413200,125384132,0.0016634507337585092,125384132,0.0016634507337585092
125.38913200,125389132,0.0005981539143249393,125389132,0.0005981539143249393
125.39413600,125394136,0.0005981539143249393,125394136,0.0005981539143249393
125.39914700,125399147,0.0005981539143249393,125399147,0.0005981539143249393
125.40417400,125404174,0.002728747669607401,125404174,0.002728747669607401
125.40921700,125409217,0.0037940447218716145,125409217,0.0037940447218716145
125.41424300,125414243,0.0037940447218716145,125414243,0.0037940447218716145
125.41913700,125419137,0.0037940447218716145,125419137,0.0037940447218716145
125.42413700,125424137,0.002728747669607401,125424137,0.002728747669607401
125.42913500,125429135,0.002728747669607401,125429135,0.002728747669607401
125.43413500,125434135,0.0016634507337585092,125434135,0.0016634507337585092
125.43913500,125439135,0.0016634507337585092,125439135,0.0016634507337585092
125.44413500,125444135,0.0016634507337585092,125444135,0.0016634507337585092
125.44913300,125449133,0.002728747669607401,125449133,0.002728747669607401
125.45413300,125454133,0.0016634507337585092,125454133,0.0016634507337585092
125.45913700,125459137,0.0005981539143249393,125459137,0.0005981539143249393
125.46413400,125464134,-0.0015324399573728442,125464134,-0.0015324399573728442
125.46913600,125469136,-0.0015324399573728442,125469136,-0.0015324399573728442
125.47416000,125474160,-0.0004671430215239525,125474160,-0.0004671430215239525
125.47918000,125479180,0.0005981539143249393,125479180,0.0005981539143249393
125.48420800,125484208,0.0016634507337585092,125484208,0.0016634507337585092
125.48923600,125489236,0.0016634507337585092,125489236,0.0016634507337585092
125.49425900,125494259,0.0016634507337585092,125494259,0.0016634507337585092
125.49963900,125499639,0.0005981539143249393,125499639,0.0005981539143249393
125.50463600,125504636,0.0005981539143249393,125504636,0.0005981539143249393
125.50963600,125509636,-0.0004671430215239525,125509636,-0.0004671430215239525
125.51463700,125514637,-0.0004671430215239525,125514637,-0.0004671430215239525
125.51963800,125519638,0.0005981539143249393,125519638,0.0005981539143249393
125.52463900,125524639,0.0005981539143249393,125524639,0.0005981539143249393
125.52964200,125529642,0.0005981539143249393,125529642,0.0005981539143249393
125.53463800,125534638,0.0005981539143249393,125534638,0.0005981539143249393
125.53963800,125539638,0.0016634507337585092,125539638,0.0016634507337585092
125.54463400,125544634,0.0016634507337585092,125544634,0.0016634507337585092
125.54963900,125549639,0.0005981539143249393,125549639,0.0005981539143249393
125.55466400,125554664,0.0005981539143249393,125554664,0.0005981539143249393
125.55977900,125559779,-0.0004671430215239525,125559779,-0.0004671430215239525
125.56475600,125564756,-0.0015324399573728442,125564756,-0.0015324399573728442
125.56977600,125569776,-0.0004671430215239525,125569776,-0.0004671430215239525
125.57479200,125574792,0.0005981539143249393,125574792,0.0005981539143249393
125.57982000,125579820,0.0016634507337585092,125579820,0.0016634507337585092
125.58463900,125584639,0.002728747669607401,125584639,0.002728747669607401
125.58964400,125589644,0.002728747669607401,125589644,0.002728747669607401
125.59464100,125594641,0.0016634507337585092,125594641,0.0016634507337585092
125.59963600,125599636,0.0016634507337585092,125599636,0.0016634507337585092
125.60464000,125604640,0.0005981539143249393,125604640,0.0005981539143249393
125.60963500,125609635,0.0005981539143249393,125609635,0.0005981539143249393
125.61466700,125614667,0.0016634507337585092,125614667,0.0016634507337585092
125.61970500,125619705,0.002728747669607401,125619705,0.002728747669607401
125.62473700,125624737,0.0037940447218716145,125624737,0.0037940447218716145
125.62963700,125629637,0.0037940447218716145,125629637,0.0037940447218716145
125.63463200,125634632,0.002728747669607401,125634632,0.002728747669607401
125.63963600,125639636,0.0016634507337585092,125639636,0.0016634507337585092
125.64463600,125644636,0.0016634507337585092,125644636,0.0016634507337585092
125.64963600,125649636,0.0016634507337585092,125649636,0.0016634507337585092
125.65463600,125654636,0.0005981539143249393,125654636,0.0005981539143249393
125.65963600,125659636,0.0005981539143249393,125659636,0.0005981539143249393
125.66463600,125664636,0.0016634507337585092,125664636,0.0016634507337585092
125.66967000,125669670,0.002728747669607401,125669670,0.002728747669607401
125.67468700,125674687,0.002728747669607401,125674687,0.002728747669607401
125.67970500,125679705,0.002728747669607401,125679705,0.002728747669607401
125.68479200,125684792,0.002728747669607401,125684792,0.002728747669607401
125.68963400,125689634,0.002728747669607401,125689634,0.002728747669607401
125.69463400,125694634,0.002728747669607401,125694634,0.002728747669607401
125.70013200,125700132,0.002728747669607401,125700132,0.002728747669607401
125.70513600,125705136,0.0016634507337585092,125705136,0.0016634507337585092
125.71013500,125710135,0.0005981539143249393,125710135,0.0005981539143249393
125.71513600,125715136,-0.0004671430215239525,125715136,-0.0004671430215239525
125.72013500,125720135,-0.0004671430215239525,125720135,-0.0004671430215239525
125.72513300,125725133,-0.0004671430215239525,125725133,-0.0004671430215239525
125.73013400,125730134,0.0005981539143249393,125730134,0.0005981539143249393
125.73513800,125735138,0.0005981539143249393,125735138,0.0005981539143249393
125.74015900,125740159,0.0016634507337585092,125740159,0.0016634507337585092
125.74518800,125745188,0.0016634507337585092,125745188,0.0016634507337585092
125.75021300,125750213,0.002728747669607401,125750213,0.002728747669607401
125.75523600,125755236,0.0016634507337585092,125755236,0.0016634507337585092
125.76030800,125760308,0.0016634507337585092,125760308,0.0016634507337585092
125.76513400,125765134,0.0016634507337585092,125765134,0.0016634507337585092
125.77014000,125770140,0.0005981539143249393,125770140,0.0005981539143249393
125.77513300,125775133,0.0016634507337585092,125775133,0.0016634507337585092
125.78013500,125780135,0.002728747669607401,125780135,0.002728747669607401
125.78513400,125785134,0.002728747669607401,125785134,0.002728747669607401
125.79013300,125790133,0.0037940447218716145,125790133,0.0037940447218716145
125.79513700,125795137,0.002728747669607401,125795137,0.002728747669607401
125.80013400,125800134,0.002728747669607401,125800134,0.002728747669607401
125.80513200,125805132,0.0016634507337585092,125805132,0.0016634507337585092
125.81013300,125810133,0.0005981539143249393,125810133,0.0005981539143249393
125.81513900,125815139,-0.0004671430215239525,125815139,-0.0004671430215239525
125.82016300,125820163,-0.0015324399573728442,125820163,-0.0015324399573728442
125.82519000,125825190,-0.0004671430215239525,125825190,-0.0004671430215239525
125.83021400,125830214,0.0005981539143249393,125830214,0.0005981539143249393
125.83524500,125835245,0.002728747669607401,125835245,0.002728747669607401
125.84013300,125840133,0.0037940447218716145,125840133,0.0037940447218716145
125.84514300,125845143,0.002728747669607401,125845143,0.002728747669607401
125.85013900,125850139,0.002728747669607401,125850139,0.002728747669607401
125.85514600,125855146,0.0016634507337585092,125855146,0.0016634507337585092
125.86013300,125860133,0.0016634507337585092,125860133,0.0016634507337585092
125.86513400,125865134,0.0005981539143249393,125865134,0.0005981539143249393
125.87013800,125870138,0.0005981539143249393,125870138,0.0005981539143249393
125.87513400,125875134,0.0005981539143249393,125875134,0.0005981539143249393
125.88013400,125880134,-0.0004671430215239525,125880134,-0.0004671430215239525
125.88513200,125885132,-0.0004671430215239525,125885132,-0.0004671430215239525
125.89013300,125890133,-0.0004671430215239525,125890133,-0.0004671430215239525
125.89515800,125895158,-0.0004671430215239525,125895158,-0.0004671430215239525
125.90018100,125900181,-0.0004671430215239525,125900181,-0.0004671430215239525
125.90521400,125905214,-0.0004671430215239525,125905214,-0.0004671430215239525
125.91022600,125910226,-0.0004671430215239525,125910226,-0.0004671430215239525
125.91513900,125915139,-0.0004671430215239525,125915139,-0.0004671430215239525
125.92013300,125920133,0.0005981539143249393,125920133,0.0005981539143249393
125.92514500,125925145,0.0016634507337585092,125925145,0.0016634507337585092
125.93063400,125930634,0.0016634507337585092,125930634,0.0016634507337585092
125.93563300,125935633,0.0005981539143249393,125935633,0.0005981539143249393
125.94063500,125940635,0.0005981539143249393,125940635,0.0005981539143249393
125.94563500,125945635,0.0005981539143249393,125945635,0.0005981539143249393
125.95063300,125950633,0.0005981539143249393,125950633,0.0005981539143249393
125.95563300,125955633,0.0016634507337585092,125955633,0.0016634507337585092
125.96063300,125960633,0.0016634507337585092,125960633,0.0016634507337585092
125.96566200,125965662,0.002728747669607401,125965662,0.002728747669607401
125.97068600,125970686,0.002728747669607401,125970686,0.002728747669607401
125.97572200,125975722,0.002728747669607401,125975722,0.002728747669607401
125.98073500,125980735,0.0016634507337585092,125980735,0.0016634507337585092
125.98563300,125985633,0.0016634507337585092,125985633,0.0016634507337585092
125.99063200,125990632,0.0005981539143249393,125990632,0.0005981539143249393
125.99563400,125995634,0.0016634507337585092,125995634,0.0016634507337585092
126.00063400,126000634,0.0016634507337585092,126000634,0.0016634507337585092
126.00563800,126005638,0.0016634507337585092,126005638,0.0016634507337585092
126.01063700,126010637,0.0016634507337585092,126010637,0.0016634507337585092
126.01563200,126015632,-0.0004671430215239525,126015632,-0.0004671430215239525
126.02063300,126020633,-0.0004671430215239525,126020633,-0.0004671430215239525
126.02563400,126025634,-0.0015324399573728442,126025634,-0.0015324399573728442
126.03063300,126030633,-0.0004671430215239525,126030633,-0.0004671430215239525
126.03563400,126035634,0.0005981539143249393,126035634,0.0005981539143249393
126.04065300,126040653,0.0016634507337585092,126040653,0.0016634507337585092
126.04568100,126045681,0.002728747669607401,126045681,0.002728747669607401
126.05071300,126050713,0.002728747669607401,126050713,0.002728747669607401
126.05573600,126055736,0.0016634507337585092,126055736,0.0016634507337585092
126.06063700,126060637,0.0016634507337585092,126060637,0.0016634507337585092
126.06564100,126065641,0.0016634507337585092,126065641,0.0016634507337585092
126.07065700,126070657,0.0016634507337585092,126070657,0.0016634507337585092
126.07563800,126075638,0.0016634507337585092,126075638,0.0016634507337585092
126.08063700,126080637,0.0016634507337585092,126080637,0.0016634507337585092
126.08563700,126085637,0.0016634507337585092,126085637,0.0016634507337585092
126.09063700,126090637,0.0016634507337585092,126090637,0.0016634507337585092
126.09563700,126095637,0.0016634507337585092,126095637,0.0016634507337585092
126.10063600,126100636,0.002728747669607401,126100636,0.002728747669607401
126.10565200,126105652,0.0016634507337585092,126105652,0.0016634507337585092
126.11067900,126110679,0.0005981539143249393,126110679,0.0005981539143249393
126.11571100,126115711,-0.0004671430215239525,126115711,-0.0004671430215239525
126.12073200,126120732,-0.0004671430215239525,126120732,-0.0004671430215239525
126.12575800,126125758,-0.0004671430215239525,126125758,-0.0004671430215239525
126.13077300,126130773,-0.0004671430215239525,126130773,-0.0004671430215239525
126.13585400,126135854,0.0005981539143249393,126135854,0.0005981539143249393
126.14063300,126140633,0.0005981539143249393,126140633,0.0005981539143249393
126.14563300,126145633,0.0005981539143249393,126145633,0.0005981539143249393
126.15115900,126151159,0.0005981539143249393,126151159,0.0005981539143249393
126.15615500,126156155,0.0016634507337585092,126156155,0.0016634507337585092
126.16115400,126161154,0.0016634507337585092,126161154,0.0016634507337585092
126.16617200,126166172,0.002728747669607401,126166172,0.002728747669607401
126.17124300,126171243,0.002728747669607401,126171243,0.002728747669607401
126.17623600,126176236,0.0016634507337585092,126176236,0.0016634507337585092
126.18127700,126181277,0.0016634507337585092,126181277,0.0016634507337585092
126.18620200,126186202,0.0005981539143249393,126186202,0.0005981539143249393
126.19122200,126191222,0.0016634507337585092,126191222,0.0016634507337585092
126.19575700,126195757,0.0016634507337585092,126195757,0.0016634507337585092
126.20113300,126201133,0.002728747669607401,126201133,0.002728747669607401
126.20613500,126206135,0.0016634507337585092,126206135,0.0016634507337585092
126.21113400,126211134,0.0016634507337585092,126211134,0.0016634507337585092
126.21613400,126216134,0.0016634507337585092,126216134,0.0016634507337585092
126.22113200,126221132,0.0016634507337585092,126221132,0.0016634507337585092
126.22614200,126226142,0.0016634507337585092,126226142,0.0016634507337585092
126.23117800,126231178,0.0016634507337585092,126231178,0.0016634507337585092
126.23620000,126236200,0.0005981539143249393,126236200,0.0005981539143249393
126.24122300,126241223,0.0005981539143249393,126241223,0.0005981539143249393
126.24625100,126246251,0.0005981539143249393,126246251,0.0005981539143249393
126.25113400,126251134,0.0005981539143249393,126251134,0.0005981539143249393
126.25613200,126256132,0.0005981539143249393,126256132,0.0005981539143249393
126.26113300,126261133,0.0016634507337585092,126261133,0.0016634507337585092
126.26613200,126266132,0.0016634507337585092,126266132,0.0016634507337585092
126.27113400,126271134,0.0016634507337585092,126271134,0.0016634507337585092
126.27613600,126276136,0.0005981539143249393,126276136,0.0005981539143249393
126.28113700,126281137,-0.0004671430215239525,126281137,-0.0004671430215239525
126.28613400,126286134,-0.0004671430215239525,126286134,-0.0004671430215239525
126.29114300,126291143,-0.0004671430215239525,126291143,-0.0004671430215239525
126.29613300,126296133,0.0005981539143249393,126296133,0.0005981539143249393
126.30115000,126301150,0.0016634507337585092,126301150,0.0016634507337585092
126.30617300,126306173,0.0016634507337585092,126306173,0.0016634507337585092
126.31119900,126311199,0.0005981539143249393,126311199,0.0005981539143249393
126.31622700,126316227,0.0005981539143249393,126316227,0.0005981539143249393
126.32130200,126321302,0.0005981539143249393,126321302,0.0005981539143249393
126.32613300,126326133,0.0016634507337585092,126326133,0.0016634507337585092
126.33113300,126331133,0.002728747669607401,126331133,0.002728747669607401
126.33613600,126336136,0.0037940447218716145,126336136,0.0037940447218716145
126.34113500,126341135,0.004859341308474541,126341135,0.004859341308474541
126.34614000,126346140,0.0037940447218716145,126346140,0.0037940447218716145
126.35113600,126351136,0.0037940447218716145,126351136,0.0037940447218716145
126.35613700,126356137,0.004859341308474541,126356137,0.004859341308474541
126.36114000,126361140,0.004859341308474541,126361140,0.004859341308474541
126.36613400,126366134,0.004859341308474541,126366134,0.004859341308474541
126.37113200,126371132,0.004859341308474541,126371132,0.004859341308474541
126.37614500,126376145,0.0037940447218716145,126376145,0.0037940447218716145
126.38115200,126381152,0.002728747669607401,126381152,0.002728747669607401
126.38618300,126386183,0.0016634507337585092,126386183,0.0016634507337585092
126.39120800,126391208,0.0016634507337585092,126391208,0.0016634507337585092
126.39622900,126396229,0.0016634507337585092,126396229,0.0016634507337585092
126.40163300,126401633,0.0016634507337585092,126401633,0.0016634507337585092
126.40663500,126406635,0.0016634507337585092,126406635,0.0016634507337585092
126.41164800,126411648,0.0016634507337585092,126411648,0.0016634507337585092
126.41663300,126416633,0.0005981539143249393,126416633,0.0005981539143249393
126.42163700,126421637,0.0016634507337585092,126421637,0.0016634507337585092
126.42663200,126426632,0.002728747669607401,126426632,0.002728747669607401
126.43163300,126431633,0.002728747669607401,126431633,0.002728747669607401
126.43663300,126436633,0.002728747669607401,126436633,0.002728747669607401
126.44163300,126441633,0.0016634507337585092,126441633,0.0016634507337585092
126.44663500,126446635,0.0016634507337585092,126446635,0.0016634507337585092
126.45163400,126451634,0.002728747669607401,126451634,0.002728747669607401
126.45666100,126456661,0.0037940447218716145,126456661,0.0037940447218716145
126.46168600,126461686,0.004859341308474541,126461686,0.004859341308474541
126.46671700,126466717,0.0037940447218716145,126466717,0.0037940447218716145
126.47174000,126471740,0.002728747669607401,126471740,0.002728747669607401
126.47663400,126476634,0.0016634507337585092,126476634,0.0016634507337585092
126.48163400,126481634,0.0005981539143249393,126481634,0.0005981539143249393
126.48663400,126486634,0.0016634507337585092,126486634,0.0016634507337585092
126.49163400,126491634,0.002728747669607401,126491634,0.002728747669607401
126.49663300,126496633,0.002728747669607401,126496633,0.002728747669607401
126.50164200,126501642,0.002728747669607401,126501642,0.002728747669607401
126.50663700,126506637,0.0016634507337585092,126506637,0.0016634507337585092
126.51163300,126511633,0.0005981539143249393,126511633,0.0005981539143249393
126.51663300,126516633,0.0005981539143249393,126516633,0.0005981539143249393
126.52163200,126521632,0.0005981539143249393,126521632,0.0005981539143249393
126.52665500,126526655,0.0005981539143249393,126526655,0.0005981539143249393
126.53166400,126531664,0.0016634507337585092,126531664,0.0016634507337585092
126.53669200,126536692,0.0016634507337585092,126536692,0.0016634507337585092
126.54172600,126541726,0.0016634507337585092,126541726,0.0016634507337585092
126.54673800,126546738,0.0016634507337585092,126546738,0.0016634507337585092
126.55163600,126551636,0.0016634507337585092,126551636,0.0016634507337585092
126.55663400,126556634,0.0005981539143249393,126556634,0.0005981539143249393
126.56164100,126561641,0.0005981539143249393,126561641,0.0005981539143249393
126.56663800,126566638,0.0005981539143249393,126566638,0.0005981539143249393
126.57163700,126571637,0.0005981539143249393,126571637,0.0005981539143249393
126.57663800,126576638,0.0005981539143249393,126576638,0.0005981539143249393
126.58163800,126581638,0.0005981539143249393,126581638,0.0005981539143249393
126.58663700,126586637,-0.0004671430215239525,126586637,-0.0004671430215239525
126.59164100,126591641,-0.0015324399573728442,126591641,-0.0015324399573728442
126.59663700,126596637,-0.002597736893221736,126596637,-0.002597736893221736
126.60165700,126601657,-0.003663033712655306,126601657,-0.003663033712655306
126.60669000,126606690,-0.004728330764919519,126606690,-0.004728330764919519
126.61170200,126611702,-0.003663033712655306,126611702,-0.003663033712655306
126.61672300,126616723,-0.002597736893221736,126616723,-0.002597736893221736
126.62174800,126621748,-0.0015324399573728442,126621748,-0.0015324399573728442
126.62713600,126627136,-0.0004671430215239525,126627136,-0.0004671430215239525
126.63213600,126632136,-0.0004671430215239525,126632136,-0.0004671430215239525
126.63713600,126637136,0.0016634507337585092,126637136,0.0016634507337585092
126.64213600,126642136,0.002728747669607401,126642136,0.002728747669607401
126.64713700,126647137,0.002728747669607401,126647137,0.002728747669607401
126.65214000,126652140,0.0016634507337585092,126652140,0.0016634507337585092
126.65713700,126657137,0.0005981539143249393,126657137,0.0005981539143249393
126.66218500,126662185,0.0005981539143249393,126662185,0.0005981539143249393
126.66713300,126667133,0.0005981539143249393,126667133,0.0005981539143249393
126.67216300,126672163,0.0016634507337585092,126672163,0.0016634507337585092
126.67723900,126677239,0.0016634507337585092,126677239,0.0016634507337585092
126.68220400,126682204,0.0005981539143249393,126682204,0.0005981539143249393
126.68723400,126687234,0.0005981539143249393,126687234,0.0005981539143249393
126.69231000,126692310,0.0005981539143249393,126692310,0.0005981539143249393
126.69728400,126697284,0.0005981539143249393,126697284,0.0005981539143249393
126.70237400,126702374,0.0005981539143249393,126702374,0.0005981539143249393
126.70713200,126707132,0.0005981539143249393,126707132,0.0005981539143249393
126.71214200,126712142,0.0016634507337585092,126712142,0.0016634507337585092
126.71713500,126717135,0.0016634507337585092,126717135,0.0016634507337585092
126.72213300,126722133,0.0016634507337585092,126722133,0.0016634507337585092
126.72713600,126727136,0.0005981539143249393,126727136,0.0005981539143249393
126.73213400,126732134,0.0016634507337585092,126732134,0.0016634507337585092
126.73717100,126737171,0.002728747669607401,126737171,0.002728747669607401
126.74220700,126742207,0.002728747669607401,126742207,0.002728747669607401
126.74723400,126747234,0.0037940447218716145,126747234,0.0037940447218716145
126.75213500,126752135,0.002728747669607401,126752135,0.002728747669607401
126.75713800,126757138,0.002728747669607401,126757138,0.002728747669607401
126.76213500,126762135,0.002728747669607401,126762135,0.002728747669607401
126.76713400,126767134,0.002728747669607401,126767134,0.002728747669607401
126.77213600,126772136,0.002728747669607401,126772136,0.002728747669607401
126.77713600,126777136,0.0016634507337585092,126777136,0.0016634507337585092
126.78213500,126782135,0.0016634507337585092,126782135,0.0016634507337585092
126.78715800,126787158,0.0005981539143249393,126787158,0.0005981539143249393
126.79218600,126792186,0.0005981539143249393,126792186,0.0005981539143249393
126.79721300,126797213,0.0005981539143249393,126797213,0.0005981539143249393
126.80224500,126802245,-0.0004671430215239525,126802245,-0.0004671430215239525
126.80713500,126807135,-0.0004671430215239525,126807135,-0.0004671430215239525
126.81213400,126812134,-0.0004671430215239525,126812134,-0.0004671430215239525
126.81713700,126817137,-0.0004671430215239525,126817137,-0.0004671430215239525
126.82213600,126822136,-0.0004671430215239525,126822136,-0.0004671430215239525
126.82763600,126827636,-0.0004671430215239525,126827636,-0.0004671430215239525
126.83263300,126832633,0.0005981539143249393,126832633,0.0005981539143249393
126.83763300,126837633,0.0005981539143249393,126837633,0.0005981539143249393
126.84263200,126842632,0.0005981539143249393,126842632,0.0005981539143249393
126.84720300,126847203,0.0016634507337585092,126847203,0.0016634507337585092
126.85221700,126852217,0.002728747669607401,126852217,0.002728747669607401
126.85724200,126857242,0.002728747669607401,126857242,0.002728747669607401
126.86263300,126862633,0.0037940447218716145,126862633,0.0037940447218716145
126.86763400,126867634,0.0037940447218716145,126867634,0.0037940447218716145
126.87263200,126872632,0.0037940447218716145,126872632,0.0037940447218716145
126.87763300,126877633,0.002728747669607401,126877633,0.002728747669607401
126.88263300,126882633,0.0016634507337585092,126882633,0.0016634507337585092
126.88763400,126887634,0.0016634507337585092,126887634,0.0016634507337585092
126.89263400,126892634,0.0016634507337585092,126892634,0.0016634507337585092
126.89763400,126897634,0.0016634507337585092,126897634,0.0016634507337585092
126.90263500,126902635,0.002728747669607401,126902635,0.002728747669607401
126.90763600,126907636,0.0016634507337585092,126907636,0.0016634507337585092
126.91265600,126912656,0.0005981539143249393,126912656,0.0005981539143249393
126.91768100,126917681,-0.0004671430215239525,126917681,-0.0004671430215239525
126.92270600,126922706,-0.0004671430215239525,126922706,-0.0004671430215239525
126.92772900,126927729,0.0005981539143249393,126927729,0.0005981539143249393
126.93275700,126932757,0.0016634507337585092,126932757,0.0016634507337585092
126.93763500,126937635,0.0016634507337585092,126937635,0.0016634507337585092
126.94263400,126942634,0.0005981539143249393,126942634,0.0005981539143249393
126.94763700,126947637,-0.0004671430215239525,126947637,-0.0004671430215239525
126.95263300,126952633,-0.0015324399573728442,126952633,-0.0015324399573728442
126.95763600,126957636,-0.0004671430215239525,126957636,-0.0004671430215239525
126.96263300,126962633,-0.0004671430215239525,126962633,-0.0004671430215239525
126.96763300,126967633,0.0005981539143249393,126967633,0.0005981539143249393
126.97263300,126972633,0.0016634507337585092,126972633,0.0016634507337585092
126.97763300,126977633,0.002728747669607401,126977633,0.002728747669607401
126.98263400,126982634,0.002728747669607401,126982634,0.002728747669607401
126.98765000,126987650,0.002728747669607401,126987650,0.002728747669607401
126.99267000,126992670,0.0016634507337585092,126992670,0.0016634507337585092
126.99769800,126997698,0.0016634507337585092,126997698,0.0016634507337585092
127.00272500,127002725,0.0016634507337585092,127002725,0.0016634507337585092
127.00774900,127007749,0.0016634507337585092,127007749,0.0016634507337585092
127.01263400,127012634,0.0005981539143249393,127012634,0.0005981539143249393
127.01763500,127017635,0.0005981539143249393,127017635,0.0005981539143249393
127.02263400,127022634,0.0016634507337585092,127022634,0.0016634507337585092
127.02764700,127027647,0.002728747669607401,127027647,0.002728747669607401
127.03263600,127032636,0.0016634507337585092,127032636,0.0016634507337585092
127.03763700,127037637,0.0016634507337585092,127037637,0.0016634507337585092
127.04263600,127042636,0.0005981539143249393,127042636,0.0005981539143249393
127.04763600,127047636,0.0005981539143249393,127047636,0.0005981539143249393
127.05264300,127052643,0.0005981539143249393,127052643,0.0005981539143249393
127.05813400,127058134,0.0016634507337585092,127058134,0.0016634507337585092
127.06314700,127063147,0.0016634507337585092,127063147,0.0016634507337585092
127.06768100,127067681,0.0016634507337585092,127067681,0.0016634507337585092
127.07270300,127072703,0.0016634507337585092,127072703,0.0016634507337585092
127.07773600,127077736,0.0016634507337585092,127077736,0.0016634507337585092
127.08275800,127082758,0.002728747669607401,127082758,0.002728747669607401
127.08813200,127088132,0.0037940447218716145,127088132,0.0037940447218716145
127.09313600,127093136,0.0037940447218716145,127093136,0.0037940447218716145
127.09813500,127098135,0.002728747669607401,127098135,0.002728747669607401
127.10313500,127103135,0.0016634507337585092,127103135,0.0016634507337585092
127.10813300,127108133,0.0016634507337585092,127108133,0.0016634507337585092
127.11313300,127113133,0.0005981539143249393,127113133,0.0005981539143249393
127.11813400,127118134,0.0005981539143249393,127118134,0.0005981539143249393
127.12313500,127123135,0.0016634507337585092,127123135,0.0016634507337585092
127.12813500,127128135,0.002728747669607401,127128135,0.002728747669607401
127.13313600,127133136,0.002728747669607401,127133136,0.002728747669607401
127.13814400,127138144,0.002728747669607401,127138144,0.002728747669607401
127.14316700,127143167,0.0005981539143249393,127143167,0.0005981539143249393
127.14819400,127148194,-0.0004671430215239525,127148194,-0.0004671430215239525
127.15321500,127153215,-0.0004671430215239525,127153215,-0.0004671430215239525
127.15823800,127158238,0.0005981539143249393,127158238,0.0005981539143249393
127.16313600,127163136,0.0016634507337585092,127163136,0.0016634507337585092
127.16813600,127168136,0.002728747669607401,127168136,0.002728747669607401
127.17313800,127173138,0.0037940447218716145,127173138,0.0037940447218716145
127.17813700,127178137,0.0037940447218716145,127178137,0.0037940447218716145
127.18313700,127183137,0.0037940447218716145,127183137,0.0037940447218716145
127.18813700,127188137,0.002728747669607401,127188137,0.002728747669607401
127.19313700,127193137,0.002728747669607401,127193137,0.002728747669607401
127.19814000,127198140,0.0016634507337585092,127198140,0.0016634507337585092
127.20314400,127203144,-0.0004671430215239525,127203144,-0.0004671430215239525
127.20817800,127208178,-0.0015324399573728442,127208178,-0.0015324399573728442
127.21313300,127213133,-0.0015324399573728442,127213133,-0.0015324399573728442
127.21817700,127218177,-0.0015324399573728442,127218177,-0.0015324399573728442
127.22313200,127223132,-0.0015324399573728442,127223132,-0.0015324399573728442
127.22822500,127228225,-0.0004671430215239525,127228225,-0.0004671430215239525
127.23314800,127233148,-0.0004671430215239525,127233148,-0.0004671430215239525
127.23821900,127238219,0.0005981539143249393,127238219,0.0005981539143249393
127.24317500,127243175,0.0005981539143249393,127243175,0.0005981539143249393
127.24828900,127248289,0.0005981539143249393,127248289,0.0005981539143249393
127.25319600,127253196,0.0005981539143249393,127253196,0.0005981539143249393
127.25820000,127258200,0.0005981539143249393,127258200,0.0005981539143249393
127.26323500,127263235,0.0005981539143249393,127263235,0.0005981539143249393
127.26823900,127268239,0.0016634507337585092,127268239,0.0016634507337585092
127.27313600,127273136,0.0016634507337585092,127273136,0.0016634507337585092
127.27813700,127278137,0.0005981539143249393,127278137,0.0005981539143249393
127.28363500,127283635,0.0005981539143249393,127283635,0.0005981539143249393
127.28863300,127288633,0.0016634507337585092,127288633,0.0016634507337585092
127.29363400,127293634,0.0016634507337585092,127293634,0.0016634507337585092
127.29863700,127298637,0.0016634507337585092,127298637,0.0016634507337585092
127.30363400,127303634,0.002728747669607401,127303634,0.002728747669607401
127.30863300,127308633,0.002728747669607401,127308633,0.002728747669607401
127.31363500,127313635,0.002728747669607401,127313635,0.002728747669607401
127.31863400,127318634,0.0016634507337585092,127318634,0.0016634507337585092
127.32363300,127323633,0.0016634507337585092,127323633,0.0016634507337585092
127.32863300,127328633,0.0016634507337585092,127328633,0.0016634507337585092
127.33363200,127333632,0.0005981539143249393,127333632,0.0005981539143249393
127.33863400,127338634,0.0005981539143249393,127338634,0.0005981539143249393
127.34363400,127343634,0.0005981539143249393,127343634,0.0005981539143249393
127.34863400,127348634,0.0005981539143249393,127348634,0.0005981539143249393
127.35364900,127353649,0.0005981539143249393,127353649,0.0005981539143249393
127.35864900,127358649,0.0016634507337585092,127358649,0.0016634507337585092
127.36368400,127363684,0.002728747669607401,127363684,0.002728747669607401
127.36867800,127368678,0.002728747669607401,127368678,0.002728747669607401
127.37371100,127373711,0.002728747669607401,127373711,0.002728747669607401
127.37871000,127378710,0.0016634507337585092,127378710,0.0016634507337585092
127.38380100,127383801,0.0016634507337585092,127383801,0.0016634507337585092
127.38873400,127388734,0.0016634507337585092,127388734,0.0016634507337585092
127.39363500,127393635,0.0016634507337585092,127393635,0.0016634507337585092
127.39863300,127398633,0.0016634507337585092,127398633,0.0016634507337585092
127.40363400,127403634,0.002728747669607401,127403634,0.002728747669607401
127.40863500,127408635,0.0016634507337585092,127408635,0.0016634507337585092
127.41363300,127413633,0.0016634507337585092,127413633,0.0016634507337585092
127.41863500,127418635,0.0016634507337585092,127418635,0.0016634507337585092
127.42369100,127423691,0.0005981539143249393,127423691,0.0005981539143249393
127.42863400,127428634,0.0005981539143249393,127428634,0.0005981539143249393
127.43363500,127433635,0.0005981539143249393,127433635,0.0005981539143249393
127.43863600,127438636,0.0005981539143249393,127438636,0.0005981539143249393
127.44363400,127443634,0.0005981539143249393,127443634,0.0005981539143249393
127.44863400,127448634,0.0016634507337585092,127448634,0.0016634507337585092
127.45364100,127453641,0.002728747669607401,127453641,0.002728747669607401
127.45863600,127458636,0.0037940447218716145,127458636,0.0037940447218716145
127.46363700,127463637,0.002728747669607401,127463637,0.002728747669607401
127.46863300,127468633,0.002728747669607401,127468633,0.002728747669607401
127.47363900,127473639,0.0016634507337585092,127473639,0.0016634507337585092
127.47864200,127478642,0.0005981539143249393,127478642,0.0005981539143249393
127.48363300,127483633,-0.0004671430215239525,127483633,-0.0004671430215239525
127.48863200,127488632,-0.0004671430215239525,127488632,-0.0004671430215239525
127.49364000,127493640,0.0005981539143249393,127493640,0.0005981539143249393
127.49863600,127498636,0.0005981539143249393,127498636,0.0005981539143249393
127.50366700,127503667,0.002728747669607401,127503667,0.002728747669607401
127.50866300,127508663,0.0037940447218716145,127508663,0.0037940447218716145
127.51369100,127513691,0.0037940447218716145,127513691,0.0037940447218716145
127.51869200,127518692,0.004859341308474541,127518692,0.004859341308474541
127.52371400,127523714,0.0037940447218716145,127523714,0.0037940447218716145
127.52872200,127528722,0.002728747669607401,127528722,0.002728747669607401
127.53374500,127533745,0.0016634507337585092,127533745,0.0016634507337585092
127.53874600,127538746,0.0016634507337585092,127538746,0.0016634507337585092
127.54413600,127544136,0.0016634507337585092,127544136,0.0016634507337585092
127.54913400,127549134,0.002728747669607401,127549134,0.002728747669607401
127.55413300,127554133,0.002728747669607401,127554133,0.002728747669607401
127.55913400,127559134,0.002728747669607401,127559134,0.002728747669607401
127.56413200,127564132,0.002728747669607401,127564132,0.002728747669607401
127.56913300,127569133,0.002728747669607401,127569133,0.002728747669607401
127.57413400,127574134,0.0016634507337585092,127574134,0.0016634507337585092
127.57913700,127579137,0.0016634507337585092,127579137,0.0016634507337585092
127.58413400,127584134,0.0016634507337585092,127584134,0.0016634507337585092
127.58913400,127589134,0.0016634507337585092,127589134,0.0016634507337585092
127.59413600,127594136,0.002728747669607401,127594136,0.002728747669607401
127.59914300,127599143,0.002728747669607401,127599143,0.002728747669607401
127.60413600,127604136,0.002728747669607401,127604136,0.002728747669607401
127.60913600,127609136,0.002728747669607401,127609136,0.002728747669607401
127.61413400,127614134,0.002728747669607401,127614134,0.002728747669607401
127.61913900,127619139,0.0016634507337585092,127619139,0.0016634507337585092
127.62414000,127624140,0.0005981539143249393,127624140,0.0005981539143249393
127.62913300,127629133,0.0016634507337585092,127629133,0.0016634507337585092
127.63413400,127634134,0.0016634507337585092,127634134,0.0016634507337585092
127.63913500,127639135,0.002728747669607401,127639135,0.002728747669607401
127.64415300,127644153,0.0037940447218716145,127644153,0.0037940447218716145
127.64916000,127649160,0.002728747669607401,127649160,0.002728747669607401
127.65418300,127654183,0.0005981539143249393,127654183,0.0005981539143249393
127.65917100,127659171,0.0005981539143249393,127659171,0.0005981539143249393
127.66419700,127664197,0.0016634507337585092,127664197,0.0016634507337585092
127.66919800,127669198,0.0016634507337585092,127669198,0.0016634507337585092
127.67422700,127674227,0.0016634507337585092,127674227,0.0016634507337585092
127.67923200,127679232,0.0016634507337585092,127679232,0.0016634507337585092
127.68425600,127684256,0.0016634507337585092,127684256,0.0016634507337585092
127.68925200,127689252,0.0016634507337585092,127689252,0.0016634507337585092
127.69414000,127694140,0.0016634507337585092,127694140,0.0016634507337585092
127.69913300,127699133,0.0005981539143249393,127699133,0.0005981539143249393
127.70413600,127704136,0.0005981539143249393,127704136,0.0005981539143249393
127.70913500,127709135,0.0005981539143249393,127709135,0.0005981539143249393
127.71413700,127714137,0.0016634507337585092,127714137,0.0016634507337585092
127.71913300,127719133,0.0016634507337585092,127719133,0.0016634507337585092
127.72414800,127724148,0.0016634507337585092,127724148,0.0016634507337585092
127.72913600,127729136,0.0016634507337585092,127729136,0.0016634507337585092
127.73463800,127734638,0.0016634507337585092,127734638,0.0016634507337585092
127.73963400,127739634,0.0016634507337585092,127739634,0.0016634507337585092
127.74464200,127744642,0.0016634507337585092,127744642,0.0016634507337585092
127.74963800,127749638,0.002728747669607401,127749638,0.002728747669607401
127.75463700,127754637,0.002728747669607401,127754637,0.002728747669607401
127.75963200,127759632,0.002728747669607401,127759632,0.002728747669607401
127.76465900,127764659,0.0016634507337585092,127764659,0.0016634507337585092
127.76963800,127769638,0.0016634507337585092,127769638,0.0016634507337585092
127.77464800,127774648,0.0005981539143249393,127774648,0.0005981539143249393
127.77963300,127779633,-0.0004671430215239525,127779633,-0.0004671430215239525
127.78469900,127784699,-0.0004671430215239525,127784699,-0.0004671430215239525
127.78963200,127789632,-0.0004671430215239525,127789632,-0.0004671430215239525
127.79467500,127794675,0.0005981539143249393,127794675,0.0005981539143249393
127.79963400,127799634,0.0005981539143249393,127799634,0.0005981539143249393
127.80474300,127804743,0.0016634507337585092,127804743,0.0016634507337585092
127.80965900,127809659,0.0016634507337585092,127809659,0.0016634507337585092
127.81477100,127814771,0.002728747669607401,127814771,0.002728747669607401
127.81968000,127819680,0.002728747669607401,127819680,0.002728747669607401
127.82481300,127824813,0.002728747669607401,127824813,0.002728747669607401
127.82971300,127829713,0.0016634507337585092,127829713,0.0016634507337585092
127.83471500,127834715,0.0016634507337585092,127834715,0.0016634507337585092
127.83974200,127839742,0.0016634507337585092,127839742,0.0016634507337585092
127.84474500,127844745,0.002728747669607401,127844745,0.002728747669607401
127.84963900,127849639,0.002728747669607401,127849639,0.002728747669607401
127.85463400,127854634,0.0016634507337585092,127854634,0.0016634507337585092
127.85963200,127859632,0.0005981539143249393,127859632,0.0005981539143249393
127.86463300,127864633,0.0005981539143249393,127864633,0.0005981539143249393
127.86963300,127869633,0.0016634507337585092,127869633,0.0016634507337585092
127.87463300,127874633,0.0016634507337585092,127874633,0.0016634507337585092
127.87963300,127879633,0.0016634507337585092,127879633,0.0016634507337585092
127.88463700,127884637,0.0016634507337585092,127884637,0.0016634507337585092
127.88963300,127889633,0.0016634507337585092,127889633,0.0016634507337585092
127.89463400,127894634,-0.0004671430215239525,127894634,-0.0004671430215239525
127.89963300,127899633,-0.0004671430215239525,127899633,-0.0004671430215239525
127.90463500,127904635,-0.0004671430215239525,127904635,-0.0004671430215239525
127.90963200,127909632,0.0005981539143249393,127909632,0.0005981539143249393
127.91463400,127914634,0.0016634507337585092,127914634,0.0016634507337585092
127.91963300,127919633,0.002728747669607401,127919633,0.002728747669607401
127.92463600,127924636,0.002728747669607401,127924636,0.002728747669607401
127.92963300,127929633,0.002728747669607401,127929633,0.002728747669607401
127.93463300,127934633,0.002728747669607401,127934633,0.002728747669607401
127.93964100,127939641,0.002728747669607401,127939641,0.002728747669607401
127.94463500,127944635,0.002728747669607401,127944635,0.002728747669607401
127.94965000,127949650,0.002728747669607401,127949650,0.002728747669607401
127.95465500,127954655,0.0016634507337585092,127954655,0.0016634507337585092
127.95967800,127959678,-0.0004671430215239525,127959678,-0.0004671430215239525
127.96468000,127964680,-0.0004671430215239525,127964680,-0.0004671430215239525
127.96970900,127969709,-0.0015324399573728442,127969709,-0.0015324399573728442
127.97471300,127974713,-0.0004671430215239525,127974713,-0.0004671430215239525
127.97973300,127979733,0.0005981539143249393,127979733,0.0005981539143249393
127.98473100,127984731,0.0005981539143249393,127984731,0.0005981539143249393
127.98975700,127989757,0.0016634507337585092,127989757,0.0016634507337585092
127.99475600,127994756,0.0016634507337585092,127994756,0.0016634507337585092
128.00013500,128000135,0.0016634507337585092,128000135,0.0016634507337585092
128.00513300,128005133,0.0016634507337585092,128005133,0.0016634507337585092
128.01013400,128010134,0.0005981539143249393,128010134,0.0005981539143249393
128.01513500,128015135,-0.0004671430215239525,128015135,-0.0004671430215239525
128.02013100,128020131,0.0005981539143249393,128020131,0.0005981539143249393
128.02513400,128025134,0.0016634507337585092,128025134,0.0016634507337585092
128.03013400,128030134,0.002728747669607401,128030134,0.002728747669607401
128.03513300,128035133,0.002728747669607401,128035133,0.002728747669607401
128.04014800,128040148,0.002728747669607401,128040148,0.002728747669607401
128.04514400,128045144,0.0005981539143249393,128045144,0.0005981539143249393
128.05013500,128050135,-0.0004671430215239525,128050135,-0.0004671430215239525
128.05513300,128055133,-0.0015324399573728442,128055133,-0.0015324399573728442
128.06013300,128060133,-0.0004671430215239525,128060133,-0.0004671430215239525
128.06513600,128065136,0.0005981539143249393,128065136,0.0005981539143249393
128.07013300,128070133,0.0016634507337585092,128070133,0.0016634507337585092
128.07513400,128075134,0.0037940447218716145,128075134,0.0037940447218716145
128.08013300,128080133,0.0037940447218716145,128080133,0.0037940447218716145
128.08513300,128085133,0.002728747669607401,128085133,0.002728747669607401
128.09013400,128090134,0.002728747669607401,128090134,0.002728747669607401
128.09513300,128095133,0.0016634507337585092,128095133,0.0016634507337585092
128.10014800,128100148,0.0016634507337585092,128100148,0.0016634507337585092
128.10514300,128105143,0.002728747669607401,128105143,0.002728747669607401
128.11016600,128110166,0.002728747669607401,128110166,0.002728747669607401
128.11516900,128115169,0.0037940447218716145,128115169,0.0037940447218716145
128.12019600,128120196,0.0037940447218716145,128120196,0.0037940447218716145
128.12520600,128125206,0.002728747669607401,128125206,0.002728747669607401
128.13023800,128130238,0.0016634507337585092,128130238,0.0016634507337585092
128.13523000,128135230,0.0016634507337585092,128135230,0.0016634507337585092
128.14025800,128140258,0.002728747669607401,128140258,0.002728747669607401
128.14525600,128145256,0.002728747669607401,128145256,0.002728747669607401
128.15013700,128150137,0.002728747669607401,128150137,0.002728747669607401
128.15513500,128155135,0.0016634507337585092,128155135,0.0016634507337585092
128.16014300,128160143,0.0005981539143249393,128160143,0.0005981539143249393
128.16513600,128165136,0.0005981539143249393,128165136,0.0005981539143249393
128.17013800,128170138,0.0016634507337585092,128170138,0.0016634507337585092
128.17513700,128175137,0.002728747669607401,128175137,0.002728747669607401
128.18013600,128180136,0.002728747669607401,128180136,0.002728747669607401
128.18563500,128185635,0.002728747669607401,128185635,0.002728747669607401
128.19064100,128190641,0.002728747669607401,128190641,0.002728747669607401
128.19563300,128195633,0.0037940447218716145,128195633,0.0037940447218716145
128.20063300,128200633,0.002728747669607401,128200633,0.002728747669607401
128.20564000,128205640,0.0016634507337585092,128205640,0.0016634507337585092
128.21063300,128210633,-0.0004671430215239525,128210633,-0.0004671430215239525
128.21563600,128215636,-0.0015324399573728442,128215636,-0.0015324399573728442
128.22063200,128220632,-0.0004671430215239525,128220632,-0.0004671430215239525
128.22563300,128225633,0.0005981539143249393,128225633,0.0005981539143249393
128.23063300,128230633,0.002728747669607401,128230633,0.002728747669607401
128.23563500,128235635,0.002728747669607401,128235635,0.002728747669607401
128.24064000,128240640,0.002728747669607401,128240640,0.002728747669607401
128.24563400,128245634,0.0016634507337585092,128245634,0.0016634507337585092
128.25066300,128250663,0.0016634507337585092,128250663,0.0016634507337585092
128.25566800,128255668,0.0016634507337585092,128255668,0.0016634507337585092
128.26069100,128260691,0.0016634507337585092,128260691,0.0016634507337585092
128.26568500,128265685,0.002728747669607401,128265685,0.002728747669607401
128.27071500,128270715,0.002728747669607401,128270715,0.002728747669607401
128.27571300,128275713,0.002728747669607401,128275713,0.002728747669607401
128.28074200,128280742,0.0016634507337585092,128280742,0.0016634507337585092
128.28573500,128285735,0.0005981539143249393,128285735,0.0005981539143249393
128.29064000,128290640,-0.0004671430215239525,128290640,-0.0004671430215239525
128.29563300,128295633,-0.0004671430215239525,128295633,-0.0004671430215239525
128.30063900,128300639,-0.0004671430215239525,128300639,-0.0004671430215239525
128.30563300,128305633,0.0005981539143249393,128305633,0.0005981539143249393
128.31063800,128310638,0.0005981539143249393,128310638,0.0005981539143249393
128.31563300,128315633,0.0016634507337585092,128315633,0.0016634507337585092
128.32063800,128320638,0.002728747669607401,128320638,0.002728747669607401
128.32563400,128325634,0.002728747669607401,128325634,0.002728747669607401
128.33063700,128330637,0.0037940447218716145,128330637,0.0037940447218716145
128.33563500,128335635,0.002728747669607401,128335635,0.002728747669607401
128.34063800,128340638,0.0016634507337585092,128340638,0.0016634507337585092
128.34563300,128345633,0.0005981539143249393,128345633,0.0005981539143249393
128.35063700,128350637,-0.0004671430215239525,128350637,-0.0004671430215239525
128.35563300,128355633,-0.0004671430215239525,128355633,-0.0004671430215239525
128.36063600,128360636,0.0005981539143249393,128360636,0.0005981539143249393
128.36563400,128365634,0.0005981539143249393,128365634,0.0005981539143249393
128.37063300,128370633,-0.0004671430215239525,128370633,-0.0004671430215239525
128.37563200,128375632,0.0005981539143249393,128375632,0.0005981539143249393
128.38063300,128380633,0.0016634507337585092,128380633,0.0016634507337585092
128.38565400,128385654,0.002728747669607401,128385654,0.002728747669607401
128.39065600,128390656,0.002728747669607401,128390656,0.002728747669607401
128.39569100,128395691,0.002728747669607401,128395691,0.002728747669607401
128.40069400,128400694,0.002728747669607401,128400694,0.002728747669607401
128.40572900,128405729,0.0016634507337585092,128405729,0.0016634507337585092
128.41073600,128410736,0.002728747669607401,128410736,0.002728747669607401
128.41613400,128416134,0.002728747669607401,128416134,0.002728747669607401
128.42113600,128421136,0.0037940447218716145,128421136,0.0037940447218716145
128.42613300,128426133,0.0037940447218716145,128426133,0.0037940447218716145
128.43113600,128431136,0.002728747669607401,128431136,0.002728747669607401
128.43613400,128436134,0.0016634507337585092,128436134,0.0016634507337585092
128.44113200,128441132,0.0016634507337585092,128441132,0.0016634507337585092
128.44613400,128446134,0.0016634507337585092,128446134,0.0016634507337585092
128.45113400,128451134,0.0016634507337585092,128451134,0.0016634507337585092
128.45613300,128456133,0.0005981539143249393,128456133,0.0005981539143249393
128.46113300,128461133,0.0005981539143249393,128461133,0.0005981539143249393
128.46613300,128466133,0.0016634507337585092,128466133,0.0016634507337585092
128.47113200,128471132,0.0016634507337585092,128471132,0.0016634507337585092
128.47613400,128476134,0.002728747669607401,128476134,0.002728747669607401
128.48113300,128481133,0.002728747669607401,128481133,0.002728747669607401
128.48613300,128486133,0.0037940447218716145,128486133,0.0037940447218716145
