timestamp,TimeUS,I,Alt,Press,Temp,CRt,SMS,Offset,GndTemp,Health
124.57011300,124570113,0,0.2796974182128906,99133.9140625,36.06,-0.23633506894111633,124570,0.0,34.94621658325195,1
124.67417200,124674172,0,0.0,99137.0,36.06,0.021469106897711754,124674,0.0,34.94621658325195,1
124.77367900,124773679,0,0.3079496920108795,99133.5859375,36.06,0.28871509432792664,124773,0.0,34.94621658325195,1
124.87603700,124876037,0,0.19776584208011627,99134.8125,36.06,0.2686782777309418,124876,0.0,34.94621658325195,1
124.97725700,124977257,0,0.33902716636657715,99133.25,36.06,0.3005412220954895,124977,0.0,34.94621658325195,1
125.08573400,125085734,0,0.1638631373643875,99135.1796875,36.07,0.4110954999923706,125085,0.0,34.94621658325195,1
125.18902600,125189026,0,-0.039553169161081314,99137.40625,36.07,0.15024977922439575,125189,0.0,34.94621658325195,1
125.28974500,125289745,0,0.13843609392642975,99135.46875,36.06,-0.4261573851108551,125289,0.0,34.94621658325195,1
125.39219000,125392190,0,0.014126132242381573,99136.8359375,36.07,-0.7188780903816223,125392,0.0,34.94621658325195,1
125.49403200,125494032,0,0.17516404390335083,99135.0546875,36.07,-0.4372551143169403,125494,0.0,34.94621658325195,1
125.60028300,125600283,0,0.257095605134964,99134.15625,36.06,0.07179130613803864,125600,0.0,34.94621658325195,1
125.70219500,125702195,0,-0.10735860466957092,99138.140625,36.07,0.3344528079032898,125702,0.0,34.94621658325195,1
125.80239000,125802390,0,0.0480288490653038,99136.4453125,36.07,0.09425495564937592,125802,0.0,34.94621658325195,1
125.90370600,125903706,0,-0.09040724486112595,99137.9765625,36.07,-0.4530012905597687,125903,0.0,34.94621658325195,1
126.00516100,126005161,0,-0.05650452896952629,99137.6015625,36.07,-0.6696957945823669,126005,0.0,34.94621658325195,1
126.10737600,126107376,0,-0.033902715891599655,99137.375,36.07,-0.42475372552871704,126107,0.0,34.94621658325195,1
126.21672200,126216722,0,-0.0960576981306076,99138.0234375,36.07,-0.17772722244262695,126216,0.0,34.94621658325195,1
126.31820400,126318204,0,-0.022601811215281487,99137.234375,36.08,-0.061661843210458755,126318,0.0,34.94621658325195,1
126.41931500,126419315,0,0.05367930233478546,99136.3828125,36.07,0.024830475449562073,126419,0.0,34.94621658325195,1
126.52064800,126520648,0,0.04520362243056297,99136.4921875,36.07,0.1910201460123062,126520,0.0,34.94621658325195,1
126.62182000,126621820,0,0.036727942526340485,99136.5859375,36.07,0.35465526580810547,126621,0.0,34.94621658325195,1
126.72759900,126727599,0,0.05367930233478546,99136.390625,36.08,0.2953164279460907,126727,0.0,34.94621658325195,1
126.82823500,126828235,0,-0.1525622308254242,99138.65625,36.08,0.049717504531145096,126828,0.0,34.94621658325195,1
126.92830700,126928307,0,0.019776584580540657,99136.7734375,36.07,-0.2263074517250061,126928,0.0,34.94621658325195,1
127.02953900,127029539,0,-0.10735860466957092,99138.1484375,36.08,-0.3664240837097168,127029,0.0,34.94621658325195,1
127.13075000,127130750,0,-0.05650452896952629,99137.59375,36.08,-0.26054883003234863,127130,0.0,34.94621658325195,1
127.23876600,127238766,0,-0.09040724486112595,99137.9765625,36.08,-0.10506031662225723,127238,0.0,34.94621658325195,1
127.37046400,127370464,0,-0.2655712962150574,99139.8984375,36.08,-0.13530446588993073,127370,0.0,34.94621658325195,1
127.50432700,127504327,0,-0.13561086356639862,99138.5,36.08,-0.2927440106868744,127504,0.0,34.94621658325195,1
127.63968700,127639687,0,-0.23166856169700623,99139.546875,36.08,-0.36827096343040466,127639,0.0,34.94621658325195,1
127.77436700,127774367,0,-0.22601811587810516,99139.46875,36.08,-0.25503653287887573,127774,0.0,34.94621658325195,1
127.90653100,127906531,0,-0.14126132428646088,99138.5390625,36.08,-0.10759678483009338,127906,0.0,34.94621658325195,1
128.04071900,128040719,0,-0.13561086356639862,99138.4765625,36.08,0.000754595035687089,128040,0.0,34.94621658325195,1
128.17554200,128175542,0,-0.08475679159164429,99137.890625,36.08,0.1479288935661316,128175,0.0,34.94621658325195,1
128.31096900,128310969,0,-0.1243099644780159,99138.3671875,36.08,0.24588501453399658,128310,0.0,34.94621658325195,1
128.44322900,128443229,0,-0.1243099644780159,99138.3515625,36.09,0.1855558604001999,128443,0.0,34.94621658325195,1
128.57650200,128576502,0,-0.21471720933914185,99139.3515625,36.09,0.03150517866015434,128576,0.0,34.94621658325195,1
128.71227400,128712274,0,-0.23731902241706848,99139.6171875,36.09,-0.14225992560386658,128712,0.0,34.94621658325195,1
128.84669200,128846692,0,-0.327726274728775,99140.578125,36.09,-0.29295387864112854,128846,0.0,34.94621658325195,1
128.97906700,128979067,0,-0.18646493554115295,99139.0546875,36.09,-0.3447570204734802,128979,0.0,34.94621658325195,1
129.11323400,129113234,0,-0.25427037477493286,99139.765625,36.09,-0.21912360191345215,129113,0.0,34.94621658325195,1
129.24829400,129248294,0,-0.18646493554115295,99139.03125,36.09,0.008215243928134441,129248,0.0,34.94621658325195,1
129.38250100,129382501,0,-0.21471720933914185,99139.3359375,36.09,0.1334121823310852,129382,0.0,34.94621658325195,1
129.54078100,129540781,0,-0.13561086356639862,99138.453125,36.09,0.1284506469964981,129540,0.0,34.94621658325195,1
129.74271000,129742710,0,-0.1808144897222519,99138.9453125,36.09,0.12201705574989319,129742,0.0,34.94621658325195,1
129.94400200,129944002,0,-0.2655712962150574,99139.9140625,36.09,0.09742895513772964,129943,0.0,34.94621658325195,1
130.15028000,130150280,0,-0.17516404390335083,99138.921875,36.1,-0.013178390450775623,130150,0.0,34.94621658325195,1
130.35072200,130350722,0,-0.2090667486190796,99139.25,36.09,-0.07887060195207596,130350,0.0,34.94621658325195,1
130.55120600,130551206,0,-0.3446776270866394,99140.7734375,36.1,-0.061860088258981705,130551,0.0,34.94621658325195,1
130.75160800,130751608,0,-0.2768721878528595,99140.03125,36.1,-0.07976176589727402,130751,0.0,34.94621658325195,1
130.95322700,130953227,0,-0.14691177010536194,99138.5859375,36.1,-0.13384617865085602,130953,0.0,34.94621658325195,1
131.15528900,131155289,0,-0.32207581400871277,99140.5234375,36.1,-0.043990608304739,131155,0.0,34.94621658325195,1
131.35452700,131354527,0,-0.2655712962150574,99139.8984375,36.1,0.06946472078561783,131354,0.0,34.94621658325195,1
131.55748000,131557480,0,-0.2655712962150574,99139.890625,36.1,0.005513436160981655,131557,0.0,34.94621658325195,1
131.75959100,131759591,0,-0.27122172713279724,99139.9609375,36.1,-0.0740596130490303,131759,0.0,34.94621658325195,1
131.96159200,131961592,0,-0.16951358318328857,99138.859375,36.1,-0.016554679721593857,131961,0.0,34.94621658325195,1
132.16396400,132163964,0,-0.2768721878528595,99140.0390625,36.11,0.0701431855559349,132163,0.0,34.94621658325195,1
132.41523900,132415239,0,-0.10170815140008926,99138.109375,36.11,0.10011038929224014,132415,0.0,34.94621658325195,1
132.67980700,132679807,0,-0.0960576981306076,99138.0390625,36.11,0.11510840058326721,132679,0.0,34.94621658325195,1
132.94821200,132948212,0,-0.1808144897222519,99138.9921875,36.11,0.1532948911190033,132948,0.0,34.94621658325195,1
133.21976800,133219768,0,-0.18646493554115295,99139.03125,36.11,0.11466488987207413,133219,0.0,34.94621658325195,1
133.48768100,133487681,0,-0.21471720933914185,99139.3359375,36.11,-0.009128072299063206,133487,0.0,34.94621658325195,1
133.75164600,133751646,0,-0.25427037477493286,99139.8125,36.11,-0.10235978662967682,133751,0.0,34.94621658325195,1
134.01925900,134019259,0,-0.2090667486190796,99139.2578125,36.11,-0.10599896311759949,134019,0.0,34.94621658325195,1
134.29055800,134290558,0,-0.1525622308254242,99138.6875,36.12,-0.05959539860486984,134290,0.0,34.94621658325195,1
134.58094200,134580942,0,-0.25427037477493286,99139.765625,36.12,0.010707383044064045,134580,0.0,34.94621658325195,1
134.93543300,134935433,0,-0.2655712962150574,99139.90625,36.12,0.03223061189055443,134935,0.0,34.94621658325195,1
135.28875800,135288758,0,-0.23166856169700623,99139.546875,36.12,-0.03171740844845772,135288,0.0,34.94621658325195,1
135.63700700,135637007,0,-0.2881730794906616,99140.140625,36.12,-0.06702832132577896,135637,0.0,34.94621658325195,1
135.99086200,135990862,0,-0.2090667486190796,99139.25,36.12,-0.04036201909184456,135990,0.0,34.94621658325195,1
136.34105900,136341059,0,-0.12996041774749756,99138.4296875,36.12,0.008034550584852695,136341,0.0,34.94621658325195,1
136.68956100,136689561,0,-0.17516404390335083,99138.9140625,36.12,0.06532004475593567,136689,0.0,34.94621658325195,1
137.04637400,137046374,0,-0.2768721878528595,99140.03125,36.13,0.08939137309789658,137046,0.0,34.94621658325195,1
137.43445300,137434453,0,-0.35032808780670166,99140.859375,36.13,0.008799538016319275,137434,0.0,34.94621658325195,1
137.88486800,137884868,0,-0.35597851872444153,99140.8828125,36.13,-0.11969166249036789,137884,0.0,34.94621658325195,1
138.33495700,138334957,0,-0.3729298710823059,99141.109375,36.13,-0.15982232987880707,138334,0.0,34.94621658325195,1
138.78490300,138784903,0,-0.3164253532886505,99140.453125,36.13,-0.103922039270401,138784,0.0,34.94621658325195,1
139.23360200,139233602,0,-0.3446776270866394,99140.7421875,36.14,-0.03172040358185768,139233,0.0,34.94621658325195,1
139.77832800,139778328,0,-0.35597851872444153,99140.8671875,36.14,0.009875033982098103,139778,0.0,34.94621658325195,1
140.48743100,140487431,0,-0.327726274728775,99140.609375,36.14,0.011208808980882168,140487,0.0,34.94621658325195,1
141.17954500,141179545,0,-0.3051244616508484,99140.359375,36.14,0.0009566613007336855,141179,0.0,34.94621658325195,1
141.88946000,141889460,0,-0.3446776270866394,99140.75,36.14,0.008073685690760612,141889,0.0,34.94621658325195,1
142.69649000,142696490,0,-0.37858033180236816,99141.1640625,36.15,0.008364195935428143,142696,0.0,34.94621658325195,1
143.59700300,143597003,0,-0.3446776270866394,99140.7421875,36.15,-0.007651212625205517,143596,0.0,34.94621658325195,1
144.48846600,144488466,0,-0.37858033180236816,99141.125,36.15,-0.018757740035653114,144488,0.0,34.94621658325195,1
144.58702200,144587022,0,-0.40683260560035706,99141.484375,36.15,-0.014717074111104012,144587,0.0,34.94621658325195,1
144.68702800,144687028,0,-0.4407353103160858,99141.828125,36.15,-0.018767014145851135,144687,0.0,34.94621658325195,1
144.78701900,144787019,0,-0.3333767056465149,99140.671875,36.15,-0.03447764366865158,144787,0.0,34.94621658325195,1
144.88702800,144887028,0,-0.4124830663204193,99141.5234375,36.15,-0.09576218575239182,144887,0.0,34.94621658325195,1
144.98698800,144986988,0,-0.35597851872444153,99140.8984375,36.160000000000004,0.07076580822467804,144986,0.0,34.94621658325195,1
145.08705400,145087054,0,-0.3164253532886505,99140.4453125,36.160000000000004,0.12732692062854767,145087,0.0,34.94621658325195,1
145.18699500,145186995,0,-0.19776584208011627,99139.1328125,36.15,0.185337096452713,145186,0.0,34.94621658325195,1
145.28701400,145287014,0,-0.3446776270866394,99140.8046875,36.160000000000004,0.3500466048717499,145287,0.0,34.94621658325195,1
145.38796700,145387967,0,-0.2486199289560318,99139.6953125,36.15,0.35845059156417847,145387,0.0,34.94621658325195,1
145.48701300,145487013,0,-0.35597851872444153,99140.8828125,36.15,0.1073770672082901,145487,0.0,34.94621658325195,1
145.58701500,145587015,0,-0.1638631373643875,99138.7734375,36.15,-0.06856948137283325,145587,0.0,34.94621658325195,1
145.68703400,145687034,0,-0.3842307925224304,99141.1796875,36.160000000000004,0.003425855655223131,145687,0.0,34.94621658325195,1
145.78706500,145787065,0,-0.48028847575187683,99142.2890625,36.160000000000004,-0.005150388460606337,145787,0.0,34.94621658325195,1
145.88702800,145887028,0,-0.37858033180236816,99141.1171875,36.15,-0.3443244397640228,145887,0.0,34.94621658325195,1
145.98699700,145986997,0,-0.29947400093078613,99140.2578125,36.160000000000004,-0.5385852456092834,145986,0.0,34.94621658325195,1
146.08701200,146087012,0,-0.23731902241706848,99139.578125,36.160000000000004,-0.12402848899364471,146087,0.0,34.94621658325195,1
146.18703400,146187034,0,-0.3616289794445038,99140.9296875,36.160000000000004,0.40578022599220276,146187,0.0,34.94621658325195,1
146.28705900,146287059,0,-0.4124830663204193,99141.546875,36.160000000000004,0.360216349363327,146287,0.0,34.94621658325195,1
146.38702000,146387020,0,-0.4011821448802948,99141.40625,36.160000000000004,-0.11429168283939362,146387,0.0,34.94621658325195,1
146.48706500,146487065,0,-0.327726274728775,99140.609375,36.160000000000004,-0.3846200704574585,146487,0.0,34.94621658325195,1
146.58700600,146587006,0,-0.3729298710823059,99141.078125,36.160000000000004,-0.19772765040397644,146587,0.0,34.94621658325195,1
146.68702500,146687025,0,-0.39553168416023254,99141.359375,36.160000000000004,0.06886491924524307,146687,0.0,34.94621658325195,1
146.78701800,146787018,0,-0.22601811587810516,99139.4609375,36.160000000000004,0.1077117994427681,146787,0.0,34.94621658325195,1
146.88702200,146887022,0,-0.4011821448802948,99141.3828125,36.160000000000004,0.11654651910066605,146886,0.0,34.94621658325195,1
146.98696400,146986964,0,-0.2768721878528595,99140.046875,36.160000000000004,0.17641137540340424,146986,0.0,34.94621658325195,1
147.08698000,147086980,0,-0.3333767056465149,99140.6484375,36.160000000000004,0.10973111540079117,147086,0.0,34.94621658325195,1
147.18706000,147187060,0,-0.3333767056465149,99140.640625,36.160000000000004,0.010390019975602627,147187,0.0,34.94621658325195,1
147.28713700,147287137,0,-0.2768721878528595,99140.03125,36.160000000000004,0.008828846737742424,147287,0.0,34.94621658325195,1
147.38709700,147387097,0,-0.2599208354949951,99139.84375,36.160000000000004,0.056556280702352524,147387,0.0,34.94621658325195,1
147.48708800,147487088,0,-0.33902716636657715,99140.6796875,36.160000000000004,0.1283765286207199,147487,0.0,34.94621658325195,1
147.58715800,147587158,0,-0.23731902241706848,99139.625,36.160000000000004,0.12006913125514984,147587,0.0,34.94621658325195,1
147.68709600,147687096,0,-0.4294344186782837,99141.7109375,36.160000000000004,-0.007013140711933374,147687,0.0,34.94621658325195,1
147.78721800,147787218,0,-0.27122172713279724,99139.9453125,36.160000000000004,-0.135964035987854,147787,0.0,34.94621658325195,1
147.88705400,147887054,0,-0.35597851872444153,99140.875,36.160000000000004,-0.1801081746816635,147887,0.0,34.94621658325195,1
147.98712300,147987123,0,-0.3446776270866394,99140.7890625,36.160000000000004,-0.1006486713886261,147987,0.0,34.94621658325195,1
148.08720400,148087204,0,-0.35597851872444153,99140.8671875,36.160000000000004,-0.02472071349620819,148087,0.0,34.94621658325195,1
148.18703500,148187035,0,-0.2938235402107239,99140.2109375,36.160000000000004,-0.04061262309551239,148187,0.0,34.94621658325195,1
148.28712800,148287128,0,-0.3446776270866394,99140.765625,36.160000000000004,-0.0017657694406807423,148287,0.0,34.94621658325195,1
148.38705100,148387051,0,-0.33902716636657715,99140.734375,36.160000000000004,0.072396419942379,148387,0.0,34.94621658325195,1
148.48709000,148487090,0,-0.4181334972381592,99141.578125,36.160000000000004,0.0052972882986068726,148487,0.0,34.94621658325195,1
148.58704900,148587049,0,-0.4689875841140747,99142.1328125,36.160000000000004,-0.18717125058174133,148587,0.0,34.94621658325195,1
148.68722500,148687225,0,-0.18646493554115295,99139.0234375,36.160000000000004,-0.2807568609714508,148687,0.0,34.94621658325195,1
148.78714800,148787148,0,-0.27122172713279724,99139.9765625,36.160000000000004,0.0017657766584306955,148787,0.0,34.94621658325195,1
148.88709900,148887099,0,-0.3729298710823059,99141.078125,36.160000000000004,0.43791013956069946,148887,0.0,34.94621658325195,1
148.98724400,148987244,0,-0.40683260560035706,99141.484375,36.160000000000004,0.3443244695663452,148987,0.0,34.94621658325195,1
149.08707500,149087075,0,-0.5876470804214478,99143.4453125,36.17,-0.26663073897361755,149087,0.0,34.94621658325195,1
149.18706700,149187067,0,-0.35597851872444153,99140.875,36.160000000000004,-0.6780543327331543,149187,0.0,34.94621658325195,1
149.28709800,149287098,0,-0.4576866626739502,99142.0078125,36.17,-0.5261984467506409,149287,0.0,34.94621658325195,1
149.38725300,149387253,0,-0.3729298710823059,99141.09375,36.160000000000004,-0.058270275592803955,149387,0.0,34.94621658325195,1
149.48709000,149487090,0,-0.35032808780670166,99140.828125,36.17,0.2525046169757843,149487,0.0,34.94621658325195,1
149.58706700,149587067,0,-0.44638577103614807,99141.8984375,36.17,0.25780189037323,149587,0.0,34.94621658325195,1
149.68706800,149687068,0,-0.2938235402107239,99140.21875,36.160000000000004,0.14655856788158417,149687,0.0,34.94621658325195,1
149.78694000,149786940,0,-0.5254921317100525,99142.7421875,36.17,0.036992620676755905,149786,0.0,34.94621658325195,1
149.88700400,149887004,0,-0.4576866626739502,99142.046875,36.17,-0.1028924211859703,149886,0.0,34.94621658325195,1
149.98703200,149987032,0,-0.514191210269928,99142.6171875,36.17,-0.30290353298187256,149987,0.0,34.94621658325195,1
150.08705300,150087053,0,-0.42378395795822144,99141.65625,36.160000000000004,-0.3650344908237457,150087,0.0,34.94621658325195,1
150.18686500,150186865,0,-0.4972398579120636,99142.4609375,36.17,-0.16079911589622498,150186,0.0,34.94621658325195,1
150.28694100,150286941,0,-0.5480939149856567,99143.0390625,36.17,0.00843262393027544,150286,0.0,34.94621658325195,1
150.38704900,150387049,0,-0.48028847575187683,99142.2421875,36.17,-0.07228684425354004,150387,0.0,34.94621658325195,1
150.48709000,150487090,0,-0.4689875841140747,99142.140625,36.17,-0.15635760128498077,150487,0.0,34.94621658325195,1
150.58701300,150587013,0,-0.5424434542655945,99142.921875,36.17,-0.03897859901189804,150587,0.0,34.94621658325195,1
150.68689800,150686898,0,-0.3164253532886505,99140.4453125,36.17,0.10023068636655807,150686,0.0,34.94621658325195,1
150.78690100,150786901,0,-0.29947400093078613,99140.2890625,36.17,0.25427037477493286,150786,0.0,34.94621658325195,1
150.88704300,150887043,0,-0.6272002458572388,99143.875,36.17,0.441481351852417,150887,0.0,34.94621658325195,1
150.98698700,150986987,0,-0.3729298710823059,99141.0625,36.17,0.21738727390766144,150986,0.0,34.94621658325195,1
151.08692800,151086928,0,-0.5254921317100525,99142.7890625,36.17,-0.2884340286254883,151086,0.0,34.94621658325195,1
151.18688700,151186887,0,-0.4407353103160858,99141.8203125,36.17,-0.3442714214324951,151186,0.0,34.94621658325195,1
151.28701300,151287013,0,-0.615899384021759,99143.7421875,36.17,-0.11028904467821121,151287,0.0,34.94621658325195,1
151.38699500,151386995,0,-0.5424434542655945,99142.9609375,36.17,-0.1677478700876236,151386,0.0,34.94621658325195,1
151.48705800,151487058,0,-0.6045984625816345,99143.6640625,36.17,-0.34538745880126953,151487,0.0,34.94621658325195,1
151.58686900,151586869,0,-0.4181334972381592,99141.6015625,36.17,-0.27168142795562744,151586,0.0,34.94621658325195,1
151.68693700,151686937,0,-0.5028902888298035,99142.5078125,36.17,0.052973031997680664,151686,0.0,34.94621658325195,1
151.78707300,151787073,0,-0.48028847575187683,99142.2421875,36.17,0.32350990176200867,151787,0.0,34.94621658325195,1
151.88704500,151887045,0,-0.47463804483413696,99142.1796875,36.17,0.28136175870895386,151887,0.0,34.94621658325195,1
151.98693500,151986935,0,-0.5706957578659058,99143.2421875,36.17,0.0569876953959465,151986,0.0,34.94621658325195,1
152.08714600,152087146,0,-0.553744375705719,99143.046875,36.18,-0.13088642060756683,152087,0.0,34.94621658325195,1
152.18706700,152187067,0,-0.3164253532886505,99140.4375,36.18,-0.173649400472641,152187,0.0,34.94621658325195,1
152.28707100,152287071,0,-0.44638577103614807,99141.9140625,36.17,0.09885352849960327,152287,0.0,34.94621658325195,1
152.38691600,152386916,0,-0.33902716636657715,99140.703125,36.18,0.47485411167144775,152386,0.0,34.94621658325195,1
152.48686200,152486862,0,-0.4294344186782837,99141.671875,36.18,0.4714832901954651,152486,0.0,34.94621658325195,1
152.58719600,152587196,0,-0.27122172713279724,99139.9375,36.18,0.21371400356292725,152587,0.0,34.94621658325195,1
152.68698200,152686982,0,-0.4859389364719391,99142.3515625,36.18,0.10434868931770325,152686,0.0,34.94621658325195,1
152.78697300,152786973,0,-0.44638577103614807,99141.90625,36.18,0.015173103660345078,152786,0.0,34.94621658325195,1
152.88693300,152886933,0,-0.35597851872444153,99140.8671875,36.18,-0.19418713450431824,152886,0.0,34.94621658325195,1
152.98687000,152986870,0,-0.5706957578659058,99143.2421875,36.18,-0.2556457221508026,152986,0.0,34.94621658325195,1
153.08686900,153086869,0,-0.35597851872444153,99140.8671875,36.18,-0.14926260709762573,153086,0.0,34.94621658325195,1
153.18686700,153186867,0,-0.4576866626739502,99142.0,36.18,-0.09015141427516937,153186,0.0,34.94621658325195,1
153.28704200,153287042,0,-0.6385011672973633,99144.03125,36.18,-0.06172248721122742,153287,0.0,34.94621658325195,1
153.38688200,153386882,0,-0.3842307925224304,99141.2265625,36.18,-0.15627248585224152,153386,0.0,34.94621658325195,1
153.48686200,153486862,0,-0.48028847575187683,99142.265625,36.18,-0.24501106142997742,153486,0.0,34.94621658325195,1
153.58703300,153587033,0,-0.40683260560035706,99141.484375,36.18,0.010509382002055645,153587,0.0,34.94621658325195,1
153.68701800,153687018,0,-0.4689875841140747,99142.125,36.18,0.27660202980041504,153687,0.0,34.94621658325195,1
153.78702900,153787029,0,-0.3898812532424927,99141.296875,36.18,0.1979062855243683,153787,0.0,34.94621658325195,1
153.88666000,153886660,0,-0.4181334972381592,99141.5859375,36.18,0.07950419187545776,153886,0.0,34.94621658325195,1
153.98658600,153986586,0,-0.5424434542655945,99142.9140625,36.19,0.05473875254392624,153986,0.0,34.94621658325195,1
154.08685800,154086858,0,-0.5198416709899902,99142.7109375,36.19,-0.10243996977806091,154086,0.0,34.94621658325195,1
154.18701300,154187013,0,-0.5085407495498657,99142.546875,36.18,-0.33508703112602234,154187,0.0,34.94621658325195,1
154.28682300,154286823,0,-0.4520362317562103,99141.921875,36.19,-0.3019372224807739,154286,0.0,34.94621658325195,1
154.38691900,154386919,0,-0.327726274728775,99140.5625,36.19,0.029786869883537292,154386,0.0,34.94621658325195,1
154.48696800,154486968,0,-0.4689875841140747,99142.140625,36.19,0.3584505617618561,154486,0.0,34.94621658325195,1
154.58686800,154586868,0,-0.2768721878528595,99139.9921875,36.19,0.43050095438957214,154586,0.0,34.94621658325195,1
154.68724100,154687241,0,-0.42378395795822144,99141.640625,36.19,0.29379311203956604,154687,0.0,34.94621658325195,1
154.78725200,154787252,0,-0.4181334972381592,99141.609375,36.19,0.14293906092643738,154787,0.0,34.94621658325195,1
154.88686900,154886869,0,-0.5763461589813232,99143.3046875,36.19,-0.08129479736089706,154886,0.0,34.94621658325195,1
154.98691700,154986917,0,-0.6667534112930298,99144.3359375,36.19,-0.4597668945789337,154986,0.0,34.94621658325195,1
155.08679900,155086799,0,-0.33902716636657715,99140.7109375,36.19,-0.6863151788711548,155086,0.0,34.94621658325195,1
155.18697500,155186975,0,-0.672403872013092,99144.3984375,36.19,-0.40781286358833313,155186,0.0,34.94621658325195,1
155.28685100,155286851,0,-0.7063065767288208,99144.765625,36.2,-0.03625935688614845,155286,0.0,34.94621658325195,1
155.38670200,155386702,0,-0.6102489233016968,99143.6953125,36.19,-0.23141567409038544,155386,0.0,34.94621658325195,1
155.48684400,155486844,0,-0.5085407495498657,99142.5703125,36.19,-0.48205429315567017,155486,0.0,34.94621658325195,1
155.58667900,155586679,0,-0.49158939719200134,99142.375,36.19,-0.06003611162304878,155586,0.0,34.94621658325195,1
155.68663200,155686632,0,-0.615899384021759,99143.75,36.19,0.44850459694862366,155686,0.0,34.94621658325195,1
155.78746000,155787460,0,-0.4689875841140747,99142.15625,36.19,0.36187633872032166,155787,0.0,34.94621658325195,1
155.88717500,155887175,0,-0.39553168416023254,99141.328125,36.2,0.1053440198302269,155887,0.0,34.94621658325195,1
155.98790700,155987907,0,-0.5254921317100525,99142.78125,36.2,0.20249111950397491,155987,0.0,34.94621658325195,1
156.08683400,156086834,0,-0.5763461589813232,99143.3125,36.2,0.27914953231811523,156086,0.0,34.94621658325195,1
156.18685300,156186853,0,-0.47463804483413696,99142.1953125,36.2,-0.03354952484369278,156186,0.0,34.94621658325195,1
156.28686400,156286864,0,-0.553744375705719,99143.09375,36.2,-0.271599680185318,156286,0.0,34.94621658325195,1
156.38669200,156386692,0,-0.4520362317562103,99141.9453125,36.2,-0.11309656500816345,156386,0.0,34.94621658325195,1
156.48665600,156486656,0,-0.4181334972381592,99141.5859375,36.2,0.12029042840003967,156486,0.0,34.94621658325195,1
156.58698000,156586980,0,-0.48028847575187683,99142.25,36.2,0.2472308725118637,156586,0.0,34.94621658325195,1
156.68679900,156686799,0,-0.44638577103614807,99141.890625,36.2,0.24544157087802887,156686,0.0,34.94621658325195,1
156.78681400,156786814,0,-0.5198416709899902,99142.71875,36.2,0.07592799514532089,156786,0.0,34.94621658325195,1
156.88697400,156886974,0,-0.5311425924301147,99142.84375,36.2,-0.12183792889118195,156886,0.0,34.94621658325195,1
156.98701900,156987019,0,-0.6102489233016968,99143.703125,36.2,-0.2524224519729614,156987,0.0,34.94621658325195,1
157.08722800,157087228,0,-0.553744375705719,99143.0625,36.2,-0.33678585290908813,157087,0.0,34.94621658325195,1
157.18665600,157186656,0,-0.5876470804214478,99143.4296875,36.2,-0.30797165632247925,157186,0.0,34.94621658325195,1
157.28684200,157286842,0,-0.4407353103160858,99141.8515625,36.2,-0.11813059449195862,157286,0.0,34.94621658325195,1
157.38683700,157386837,0,-0.5311425924301147,99142.8125,36.21,0.14497041702270508,157386,0.0,34.94621658325195,1
157.48681500,157486815,0,-0.49158939719200134,99142.3671875,36.21,0.28895512223243713,157486,0.0,34.94621658325195,1
157.58703200,157587032,0,-0.4972398579120636,99142.4609375,36.21,0.20149202644824982,157587,0.0,34.94621658325195,1
157.68681100,157686811,0,-0.5367929935455322,99142.8828125,36.21,0.03857385367155075,157686,0.0,34.94621658325195,1
157.78686200,157786862,0,-0.5254921317100525,99142.7890625,36.21,-0.047939203679561615,157786,0.0,34.94621658325195,1
157.88772900,157887729,0,-0.40683260560035706,99141.46875,36.21,-0.05299057438969612,157887,0.0,34.94621658325195,1
157.98765100,157987651,0,-0.6215497851371765,99143.8125,36.21,0.03311053663492203,157987,0.0,34.94621658325195,1
158.08746500,158087465,0,-0.4011821448802948,99141.3984375,36.2,0.07487070560455322,158087,0.0,34.94621658325195,1
158.18720900,158187209,0,-0.40683260560035706,99141.46875,36.21,0.04799973964691162,158187,0.0,34.94621658325195,1
158.28769900,158287699,0,-0.6272002458572388,99143.9140625,36.21,0.1285780966281891,158287,0.0,34.94621658325195,1
158.38768300,158387683,0,-0.49158939719200134,99142.359375,36.21,0.07061299681663513,158387,0.0,34.94621658325195,1
158.48661700,158486617,0,-0.3842307925224304,99141.21875,36.21,-0.1836279332637787,158486,0.0,34.94621658325195,1
158.58805800,158588058,0,-0.3616289794445038,99140.9921875,36.21,-0.03010009042918682,158588,0.0,34.94621658325195,1
158.68836200,158688362,0,-0.4124830663204193,99141.5,36.21,0.4343854784965515,158688,0.0,34.94621658325195,1
158.78786400,158787864,0,-0.4124830663204193,99141.515625,36.21,0.46801429986953735,158787,0.0,34.94621658325195,1
158.88797500,158887975,0,-0.3898812532424927,99141.2578125,36.21,0.12933799624443054,158887,0.0,34.94621658325195,1
158.98835400,158988354,0,-0.32207581400871277,99140.5078125,36.21,-0.03401941806077957,158988,0.0,34.94621658325195,1
159.08724900,159087249,0,-0.36727944016456604,99141.03125,36.21,0.09022273868322372,159087,0.0,34.94621658325195,1
159.18747800,159187478,0,-0.43508487939834595,99141.7734375,36.22,0.17421139776706696,159187,0.0,34.94621658325195,1
159.28839600,159288396,0,-0.43508487939834595,99141.7421875,36.22,0.0,159288,0.0,34.94621658325195,1
159.38801900,159388019,0,-0.4011821448802948,99141.3984375,36.22,-0.23030196130275726,159388,0.0,34.94621658325195,1
159.48745000,159487450,0,-0.39553168416023254,99141.328125,36.21,-0.20606757700443268,159487,0.0,34.94621658325195,1
159.59035500,159590355,0,-0.42378395795822144,99141.6640625,36.22,-0.01428403239697218,159590,0.0,34.94621658325195,1
159.69052400,159690524,0,-0.5085407495498657,99142.5859375,36.22,0.0322088859975338,159690,0.0,34.94621658325195,1
159.79176700,159791767,0,-0.42378395795822144,99141.6640625,36.22,-0.12282054871320724,159791,0.0,34.94621658325195,1
159.89590100,159895901,0,-0.3842307925224304,99141.2109375,36.22,-0.18630048632621765,159895,0.0,34.94621658325195,1
159.99772400,159997724,0,-0.3842307925224304,99141.234375,36.22,0.019068146124482155,159997,0.0,34.94621658325195,1
160.09813300,160098133,0,-0.553744375705719,99143.0625,36.22,0.18953664600849152,160098,0.0,34.94621658325195,1
160.19916800,160199168,0,-0.553744375705719,99143.0625,36.22,-0.035407278686761856,160199,0.0,34.94621658325195,1
160.30123500,160301235,0,-0.5311425924301147,99142.8046875,36.22,-0.4271518290042877,160301,0.0,34.94621658325195,1
160.40608000,160406080,0,-0.4689875841140747,99142.109375,36.22,-0.45694997906684875,160406,0.0,34.94621658325195,1
160.50944200,160509442,0,-0.33902716636657715,99140.71875,36.22,-0.05501723662018776,160509,0.0,34.94621658325195,1
160.61248600,160612486,0,-0.37858033180236816,99141.1328125,36.22,0.3908899426460266,160612,0.0,34.94621658325195,1
160.71451900,160714519,0,-0.3729298710823059,99141.078125,36.22,0.5557348728179932,160714,0.0,34.94621658325195,1
160.81615900,160816159,0,-0.49158939719200134,99142.3671875,36.22,0.3475760221481323,160816,0.0,34.94621658325195,1
160.91691300,160916913,0,-0.514191210269928,99142.6328125,36.22,-0.07407603412866592,160916,0.0,34.94621658325195,1
161.01803200,161018032,0,-0.47463804483413696,99142.2265625,36.22,-0.3900347948074341,161018,0.0,34.94621658325195,1
161.12396000,161123960,0,-0.42378395795822144,99141.6640625,36.22,-0.3627157211303711,161123,0.0,34.94621658325195,1
161.22405800,161224058,0,-0.3898812532424927,99141.2734375,36.22,-0.039406854659318924,161224,0.0,34.94621658325195,1
161.32487400,161324874,0,-0.5085407495498657,99142.5625,36.230000000000004,0.21944305300712585,161324,0.0,34.94621658325195,1
161.42809700,161428097,0,-0.35032808780670166,99140.8515625,36.230000000000004,0.17877840995788574,161428,0.0,34.94621658325195,1
161.52886100,161528861,0,-0.5593948364257812,99143.109375,36.230000000000004,0.005974734667688608,161528,0.0,34.94621658325195,1
161.63467400,161634674,0,-0.5085407495498657,99142.5703125,36.230000000000004,-0.11715022474527359,161634,0.0,34.94621658325195,1
161.73726700,161737267,0,-0.40683260560035706,99141.453125,36.230000000000004,-0.2174316793680191,161737,0.0,34.94621658325195,1
161.84222100,161842221,0,-0.47463804483413696,99142.21875,36.230000000000004,-0.1425887793302536,161842,0.0,34.94621658325195,1
161.94553500,161945535,0,-0.5198416709899902,99142.71875,36.230000000000004,0.0745684877038002,161945,0.0,34.94621658325195,1
162.04776900,162047769,0,-0.4520362317562103,99141.9296875,36.230000000000004,0.06755321472883224,162047,0.0,34.94621658325195,1
162.14747900,162147479,0,-0.4576866626739502,99142.0078125,36.230000000000004,-0.07056964188814163,162147,0.0,34.94621658325195,1
162.25099700,162250997,0,-0.5763461589813232,99143.3203125,36.230000000000004,-0.04820197820663452,162250,0.0,34.94621658325195,1
162.35190800,162351908,0,-0.3898812532424927,99141.2890625,36.230000000000004,-0.023310134187340736,162351,0.0,34.94621658325195,1
162.45156200,162451562,0,-0.5819966197013855,99143.375,36.230000000000004,-0.06436776369810104,162451,0.0,34.94621658325195,1
162.55539700,162555397,0,-0.4972398579120636,99142.4375,36.230000000000004,-0.05002620071172714,162555,0.0,34.94621658325195,1
162.65948000,162659480,0,-0.4689875841140747,99142.1484375,36.230000000000004,-0.06245039403438568,162659,0.0,34.94621658325195,1
162.76368700,162763687,0,-0.5028902888298035,99142.5,36.230000000000004,-0.04697265848517418,162763,0.0,34.94621658325195,1
162.86919900,162869199,0,-0.6272002458572388,99143.890625,36.24,0.01723422482609749,162869,0.0,34.94621658325195,1
162.98784600,162987846,0,-0.44638577103614807,99141.875,36.230000000000004,-0.07921873033046722,162987,0.0,34.94621658325195,1
163.12182600,163121826,0,-0.49158939719200134,99142.359375,36.230000000000004,-0.15127608180046082,163121,0.0,34.94621658325195,1
163.25704200,163257042,0,-0.5198416709899902,99142.7265625,36.230000000000004,0.04833120107650757,163257,0.0,34.94621658325195,1
163.38899400,163388994,0,-0.5367929935455322,99142.890625,36.24,0.13357126712799072,163388,0.0,34.94621658325195,1
163.52401000,163524010,0,-0.4520362317562103,99141.9375,36.230000000000004,0.014608893543481827,163524,0.0,34.94621658325195,1
163.65769300,163657693,0,-0.5028902888298035,99142.5078125,36.24,-0.028589138761162758,163657,0.0,34.94621658325195,1
163.79297400,163792974,0,-0.6498020887374878,99144.09375,36.24,0.021438850089907646,163792,0.0,34.94621658325195,1
163.92500600,163925006,0,-0.46333712339401245,99142.0703125,36.230000000000004,-0.07547634094953537,163924,0.0,34.94621658325195,1
164.06002800,164060028,0,-0.5819966197013855,99143.3671875,36.24,-0.17659470438957214,164060,0.0,34.94621658325195,1
164.19415700,164194157,0,-0.5593948364257812,99143.109375,36.24,-0.0801960825920105,164194,0.0,34.94621658325195,1
164.32807700,164328077,0,-0.4972398579120636,99142.421875,36.24,0.015911012887954712,164328,0.0,34.94621658325195,1
164.46605500,164466055,0,-0.4859389364719391,99142.3359375,36.24,0.0350663885474205,164466,0.0,34.94621658325195,1
164.64908400,164649084,0,-0.5254921317100525,99142.765625,36.24,0.105177141726017,164649,0.0,34.94621658325195,1
164.85090700,164850907,0,-0.5763461589813232,99143.34375,36.24,0.1094772219657898,164850,0.0,34.94621658325195,1
165.05347500,165053475,0,-0.6498020887374878,99144.125,36.24,-0.05322752147912979,165053,0.0,34.94621658325195,1
165.25723800,165257238,0,-0.6441516280174255,99144.0859375,36.24,-0.19373896718025208,165257,0.0,34.94621658325195,1
165.45800500,165458005,0,-0.6102489233016968,99143.7265625,36.24,-0.21493174135684967,165457,0.0,34.94621658325195,1
165.66020900,165660209,0,-0.59329754114151,99143.484375,36.24,-0.12136952579021454,165660,0.0,34.94621658325195,1
165.86269400,165862694,0,-0.5424434542655945,99142.9140625,36.25,0.01751088723540306,165862,0.0,34.94621658325195,1
166.06442100,166064421,0,-0.4859389364719391,99142.3515625,36.25,0.11974990367889404,166064,0.0,34.94621658325195,1
166.26670200,166266702,0,-0.615899384021759,99143.75,36.25,0.15558476746082306,166266,0.0,34.94621658325195,1
166.46967300,166469673,0,-0.5650452971458435,99143.21875,36.25,0.09178920835256577,166469,0.0,34.94621658325195,1
166.67126400,166671264,0,-0.49158939719200134,99142.390625,36.25,-0.021031299605965614,166671,0.0,34.94621658325195,1
166.87381100,166873811,0,-0.5819966197013855,99143.3671875,36.25,-0.02786182053387165,166873,0.0,34.94621658325195,1
167.07631500,167076315,0,-0.5706957578659058,99143.2734375,36.25,0.03218653053045273,167076,0.0,34.94621658325195,1
167.27821100,167278211,0,-0.6498020887374878,99144.09375,36.25,-0.010516979731619358,167278,0.0,34.94621658325195,1
167.47999800,167479998,0,-0.6272002458572388,99143.8671875,36.25,-0.11516936868429184,167479,0.0,34.94621658325195,1
167.68090700,167680907,0,-0.6102489233016968,99143.671875,36.25,-0.14323554933071136,167680,0.0,34.94621658325195,1
167.88098700,167880987,0,-0.5650452971458435,99143.1953125,36.25,-0.07271208614110947,167880,0.0,34.94621658325195,1
168.13152100,168131521,0,-0.553744375705719,99143.0625,36.25,0.03847203031182289,168131,0.0,34.94621658325195,1
168.40115500,168401155,0,-0.514191210269928,99142.6328125,36.26,0.1127392053604126,168401,0.0,34.94621658325195,1
168.66464900,168664649,0,-0.6498020887374878,99144.1328125,36.26,0.1004369929432869,168664,0.0,34.94621658325195,1
168.93355800,168933558,0,-0.514191210269928,99142.65625,36.26,0.02497757226228714,168933,0.0,34.94621658325195,1
169.20443200,169204432,0,-0.514191210269928,99142.6484375,36.26,-0.0203536506742239,169204,0.0,34.94621658325195,1
169.47293300,169472933,0,-0.6667534112930298,99144.3203125,36.26,0.006452298257499933,169472,0.0,34.94621658325195,1
169.81547700,169815477,0,-0.5819966197013855,99143.3671875,36.26,0.004108671098947525,169815,0.0,34.94621658325195,1
170.16081500,170160815,0,-0.5763461589813232,99143.3203125,36.26,-0.0656224712729454,170160,0.0,34.94621658325195,1
170.51440700,170514407,0,-0.5989480018615723,99143.5703125,36.26,-0.0548534132540226,170514,0.0,34.94621658325195,1
170.86922900,170869229,0,-0.6215497851371765,99143.8359375,36.27,-0.0016831672983244061,170869,0.0,34.94621658325195,1
171.21403300,171214033,0,-0.59329754114151,99143.515625,36.27,0.001221091253682971,171214,0.0,34.94621658325195,1
171.56988000,171569880,0,-0.6045984625816345,99143.6171875,36.27,-0.018405461683869362,171569,0.0,34.94621658325195,1
171.92048000,171920480,0,-0.6272002458572388,99143.875,36.27,-0.011529581621289253,171920,0.0,34.94621658325195,1
172.26817300,172268173,0,-0.5876470804214478,99143.46875,36.27,-0.003484655637294054,172268,0.0,34.94621658325195,1
172.62825000,172628250,0,-0.5819966197013855,99143.375,36.27,-0.0013862517662346363,172628,0.0,34.94621658325195,1
172.98242800,172982428,0,-0.6102489233016968,99143.7265625,36.27,0.01257728785276413,172982,0.0,34.94621658325195,1
173.43293600,173432936,0,-0.6045984625816345,99143.6328125,36.27,0.016997380182147026,173432,0.0,34.94621658325195,1
173.88286100,173882861,0,-0.5593948364257812,99143.1015625,36.27,0.0012462384765967727,173882,0.0,34.94621658325195,1
174.33292000,174332920,0,-0.5989480018615723,99143.59375,36.28,0.0021635491866618395,174332,0.0,34.94621658325195,1
174.92272400,174922724,0,-0.6102489233016968,99143.703125,36.28,0.011086894199252129,174922,0.0,34.94621658325195,1
175.63699400,175636994,0,-0.5763461589813232,99143.328125,36.28,0.0023141801357269287,175636,0.0,34.94621658325195,1
176.32972900,176329729,0,-0.632850706577301,99143.9609375,36.28,-0.010137509554624557,176329,0.0,34.94621658325195,1
177.03373400,177033734,0,-0.6441516280174255,99144.0390625,36.28,-0.011652392335236073,177033,0.0,34.94621658325195,1
177.74632100,177746321,0,-0.6102489233016968,99143.6875,36.28,-0.015855571255087852,177746,0.0,34.94621658325195,1
178.55953000,178559530,0,-0.6950057148933411,99144.59375,36.28,-0.019428551197052002,178559,0.0,34.94621658325195,1
179.45574600,179455746,0,-0.7402093410491943,99145.140625,36.29,-0.020688645541667938,179455,0.0,34.94621658325195,1
179.61112700,179611127,0,-0.553744375705719,99143.046875,36.29,-0.026519853621721268,179611,0.0,34.94621658325195,1
179.71040300,179710403,0,-0.7063065767288208,99144.765625,36.29,-0.010303236544132233,179710,0.0,34.94621658325195,1
179.81037700,179810377,0,-0.7176074981689453,99144.859375,36.29,0.012547880411148071,179810,0.0,34.94621658325195,1
179.91033300,179910333,0,-0.632850706577301,99143.9296875,36.29,0.030555682256817818,179910,0.0,34.94621658325195,1
180.01033400,180010334,0,-0.7345588803291321,99145.0625,36.29,-0.14445732533931732,180010,0.0,34.94621658325195,1
180.11033300,180110333,0,-0.8532183766365051,99146.359375,36.29,-0.1441597193479538,180110,0.0,34.94621658325195,1
180.21032800,180210328,0,-0.7006561756134033,99144.671875,36.29,-0.25611287355422974,180210,0.0,34.94621658325195,1
180.31035400,180310354,0,-0.7967138290405273,99145.71875,36.29,-0.3513875901699066,180310,0.0,34.94621658325195,1
180.41038100,180410381,0,-0.8249661326408386,99146.0859375,36.29,-0.18540550768375397,180410,0.0,34.94621658325195,1
180.51034000,180510340,0,-0.6611029505729675,99144.265625,36.29,-0.03354953974485397,180510,0.0,34.94621658325195,1
180.61041100,180610411,0,-0.8419174551963806,99146.2421875,36.29,0.012360415421426296,180610,0.0,34.94621658325195,1
180.71032900,180710329,0,-0.6950057148933411,99144.640625,36.29,0.08475684374570847,180710,0.0,34.94621658325195,1
180.81037600,180810376,0,-0.7458597421646118,99145.1796875,36.29,0.08652257919311523,180810,0.0,34.94621658325195,1
180.91034200,180910342,0,-0.7458597421646118,99145.1640625,36.29,0.06180182471871376,180910,0.0,34.94621658325195,1
181.01033600,181010336,0,-0.6893552541732788,99144.5859375,36.29,0.08652257919311523,181010,0.0,34.94621658325195,1
181.11034300,181110343,0,-0.7741120457649231,99145.515625,36.29,0.07592799514532089,181110,0.0,34.94621658325195,1
181.21035700,181210357,0,-0.7176074981689453,99144.8984375,36.29,0.02825220860540867,181210,0.0,34.94621658325195,1
181.31108100,181311081,0,-0.7967138290405273,99145.7265625,36.29,-0.04055982083082199,181311,0.0,34.94621658325195,1
181.41035000,181410350,0,-0.6950057148933411,99144.6171875,36.29,-0.09166132658720016,181410,0.0,34.94621658325195,1
181.51032300,181510323,0,-0.7232579588890076,99144.9296875,36.29,-0.03513960912823677,181510,0.0,34.94621658325195,1
181.61033500,181610335,0,-0.8023642897605896,99145.8359375,36.29,0.06356757879257202,181610,0.0,34.94621658325195,1
181.71043000,181710430,0,-0.672403872013092,99144.3828125,36.29,0.041189372539520264,181710,0.0,34.94621658325195,1
181.81032300,181810323,0,-0.6498020887374878,99144.1171875,36.29,0.009218305349349976,181810,0.0,34.94621658325195,1
181.91032600,181910326,0,-0.7741120457649231,99145.515625,36.29,0.14303889870643616,181910,0.0,34.94621658325195,1
182.01038900,182010389,0,-0.6441516280174255,99144.0625,36.29,0.19070273637771606,182010,0.0,34.94621658325195,1
182.11033000,182110330,0,-0.7345588803291321,99145.03125,36.29,0.03531526401638985,182110,0.0,34.94621658325195,1
182.21036400,182210364,0,-0.6893552541732788,99144.5546875,36.29,-0.03354959189891815,182210,0.0,34.94621658325195,1
182.31033900,182310339,0,-0.6667534112930298,99144.3203125,36.29,0.014126136898994446,182310,0.0,34.94621658325195,1
182.41033300,182410333,0,-0.6215497851371765,99143.8046875,36.29,0.07239646464586258,182410,0.0,34.94621658325195,1
182.51032900,182510329,0,-0.6950057148933411,99144.6484375,36.29,0.1589190810918808,182510,0.0,34.94621658325195,1
182.61038900,182610389,0,-0.5706957578659058,99143.2578125,36.29,0.17834246158599854,182610,0.0,34.94621658325195,1
182.71032700,182710327,0,-0.7063065767288208,99144.75,36.29,0.11300899088382721,182710,0.0,34.94621658325195,1
182.81039300,182810393,0,-0.6498020887374878,99144.1328125,36.29,0.04237832501530647,182810,0.0,34.94621658325195,1
182.91034800,182910348,0,-0.7232579588890076,99144.9609375,36.300000000000004,-0.07063064724206924,182910,0.0,34.94621658325195,1
183.01037200,183010372,0,-0.7119570374488831,99144.796875,36.29,-0.18717122077941895,183010,0.0,34.94621658325195,1
183.11043700,183110437,0,-0.7458597421646118,99145.1796875,36.29,-0.21895502507686615,183110,0.0,34.94621658325195,1
183.21037400,183210374,0,-0.8306165337562561,99146.125,36.29,-0.22778379917144775,183210,0.0,34.94621658325195,1
183.31039700,183310397,0,-0.7119570374488831,99144.8125,36.300000000000004,-0.26309913396835327,183310,0.0,34.94621658325195,1
183.41037100,183410371,0,-0.8306165337562561,99146.125,36.29,-0.22778381407260895,183410,0.0,34.94621658325195,1
183.51048900,183510489,0,-0.7571606636047363,99145.296875,36.29,-0.10594598948955536,183510,0.0,34.94621658325195,1
183.61042100,183610421,0,-0.7741120457649231,99145.515625,36.29,-0.03354959189891815,183610,0.0,34.94621658325195,1
183.71045900,183710459,0,-0.7345588803291321,99145.0390625,36.29,0.003531461115926504,183710,0.0,34.94621658325195,1
183.81043500,183810435,0,-0.8136652112007141,99145.9375,36.29,0.06533324718475342,183810,0.0,34.94621658325195,1
183.91039600,183910396,0,-0.7515102028846741,99145.2265625,36.300000000000004,0.044144075363874435,183910,0.0,34.94621658325195,1
184.01036900,184010369,0,-0.8758201599121094,99146.640625,36.300000000000004,-0.06886488199234009,184010,0.0,34.94621658325195,1
184.11037200,184110372,0,-0.7289084196090698,99144.96875,36.29,-0.14479275047779083,184110,0.0,34.94621658325195,1
184.21043400,184210434,0,-0.6780543327331543,99144.453125,36.29,-0.06003599986433983,184210,0.0,34.94621658325195,1
184.31040700,184310407,0,-0.672403872013092,99144.359375,36.300000000000004,0.22425232827663422,184310,0.0,34.94621658325195,1
184.41048900,184410489,0,-0.6950057148933411,99144.65625,36.29,0.4449731111526489,184410,0.0,34.94621658325195,1
184.51044400,184510444,0,-0.7176074981689453,99144.8671875,36.300000000000004,0.3249010145664215,184510,0.0,34.94621658325195,1
184.61042500,184610425,0,-0.7515102028846741,99145.2734375,36.300000000000004,0.026486478745937347,184610,0.0,34.94621658325195,1
184.71032800,184710328,0,-0.8023642897605896,99145.8203125,36.300000000000004,-0.18540547788143158,184710,0.0,34.94621658325195,1
184.81019300,184810193,0,-0.7854129672050476,99145.6171875,36.300000000000004,-0.2842883765697479,184810,0.0,34.94621658325195,1
184.91024200,184910242,0,-0.7402093410491943,99145.1328125,36.300000000000004,-0.26663079857826233,184910,0.0,34.94621658325195,1
185.01038100,185010381,0,-0.8023642897605896,99145.8203125,36.300000000000004,-0.1147749274969101,185010,0.0,34.94621658325195,1
185.11036400,185110364,0,-0.8023642897605896,99145.8203125,36.300000000000004,0.007063001394271851,185110,0.0,34.94621658325195,1
185.21023100,185210231,0,-0.7402093410491943,99145.109375,36.300000000000004,-0.022954922169446945,185210,0.0,34.94621658325195,1
185.31020700,185310207,0,-0.8023642897605896,99145.8203125,36.300000000000004,-0.04061257466673851,185310,0.0,34.94621658325195,1
185.41009800,185410098,0,-0.8023642897605896,99145.7890625,36.300000000000004,0.014126135036349297,185410,0.0,34.94621658325195,1
185.51035900,185510359,0,-0.6441516280174255,99144.0859375,36.300000000000004,0.03001803532242775,185510,0.0,34.94621658325195,1
185.61037600,185610376,0,-0.7232579588890076,99144.9453125,36.300000000000004,0.12536942958831787,185610,0.0,34.94621658325195,1
185.71019300,185710193,0,-0.6385011672973633,99143.9765625,36.300000000000004,0.31960374116897583,185710,0.0,34.94621658325195,1
185.81019000,185810190,0,-0.7345588803291321,99145.078125,36.300000000000004,0.3301982879638672,185810,0.0,34.94621658325195,1
185.91039600,185910396,0,-0.8419174551963806,99146.2578125,36.300000000000004,0.08122523874044418,185910,0.0,34.94621658325195,1
186.01036400,186010364,0,-0.7854129672050476,99145.59375,36.300000000000004,-0.2595677077770233,186010,0.0,34.94621658325195,1
186.11035100,186110351,0,-0.9379751682281494,99147.2734375,36.300000000000004,-0.48735156655311584,186110,0.0,34.94621658325195,1
186.21019000,186210190,0,-0.8080147504806519,99145.875,36.300000000000004,-0.4802885055541992,186210,0.0,34.94621658325195,1
186.31037400,186310374,0,-0.7797625064849854,99145.53125,36.300000000000004,-0.28605419397354126,186310,0.0,34.94621658325195,1
186.41034500,186410345,0,-0.8362669944763184,99146.203125,36.300000000000004,0.010594616644084454,186410,0.0,34.94621658325195,1
186.51035800,186510358,0,-0.8645192980766296,99146.5,36.300000000000004,0.1765766739845276,186510,0.0,34.94621658325195,1
186.61018700,186610187,0,-0.7063065767288208,99144.765625,36.300000000000004,0.07239644974470139,186610,0.0,34.94621658325195,1
186.71017700,186710177,0,-0.7176074981689453,99144.8515625,36.300000000000004,0.0635676309466362,186710,0.0,34.94621658325195,1
186.81034000,186810340,0,-0.7684615850448608,99145.421875,36.300000000000004,0.2931172847747803,186810,0.0,34.94621658325195,1
186.91033400,186910334,0,-0.7176074981689453,99144.890625,36.300000000000004,0.3337298631668091,186910,0.0,34.94621658325195,1
187.01023300,187010233,0,-0.6893552541732788,99144.578125,36.300000000000004,0.1324324756860733,187010,0.0,34.94621658325195,1
187.11019000,187110190,0,-0.7741120457649231,99145.4765625,36.300000000000004,0.049441419541835785,187110,0.0,34.94621658325195,1
187.21033000,187210330,0,-0.6893552541732788,99144.5703125,36.300000000000004,0.05827025696635246,187210,0.0,34.94621658325195,1
187.31037100,187310371,0,-0.632850706577301,99143.9296875,36.300000000000004,0.03708105534315109,187310,0.0,34.94621658325195,1
187.41030100,187410301,0,-0.8080147504806519,99145.8671875,36.300000000000004,0.09358562529087067,187410,0.0,34.94621658325195,1
187.51018100,187510181,0,-0.7006561756134033,99144.6796875,36.300000000000004,0.07769376784563065,187510,0.0,34.94621658325195,1
187.61018400,187610184,0,-0.7402093410491943,99145.140625,36.31,-0.10947751998901367,187610,0.0,34.94621658325195,1
187.71032100,187710321,0,-0.632850706577301,99143.9609375,36.300000000000004,-0.12536948919296265,187710,0.0,34.94621658325195,1
187.81034000,187810340,0,-0.7458597421646118,99145.1796875,36.300000000000004,0.08828829973936081,187810,0.0,34.94621658325195,1
187.91034700,187910347,0,-0.6893552541732788,99144.5859375,36.300000000000004,0.16598214209079742,187910,0.0,34.94621658325195,1
188.01019300,188010193,0,-0.7797625064849854,99145.5703125,36.31,0.014126226305961609,188010,0.0,34.94621658325195,1
188.11037400,188110374,0,-0.6215497851371765,99143.8046875,36.300000000000004,-0.11300905048847198,188110,0.0,34.94621658325195,1
188.21032900,188210329,0,-0.7006561756134033,99144.671875,36.31,-0.026486551389098167,188210,0.0,34.94621658325195,1
188.31034000,188310340,0,-0.6667534112930298,99144.3046875,36.31,0.15185591578483582,188310,0.0,34.94621658325195,1
188.41013300,188410133,0,-0.7515102028846741,99145.265625,36.31,0.15009018778800964,188410,0.0,34.94621658325195,1
188.51014500,188510145,0,-0.8080147504806519,99145.8828125,36.31,-0.07239637523889542,188510,0.0,34.94621658325195,1
188.62283500,188622835,0,-0.7176074981689453,99144.8984375,36.31,-0.29349803924560547,188622,0.0,34.94621658325195,1
188.72271800,188722718,0,-0.5593948364257812,99143.15625,36.31,-0.22225026786327362,188722,0.0,34.94621658325195,1
188.82274600,188822746,0,-0.9379751682281494,99147.28125,36.31,0.10755602270364761,188822,0.0,34.94621658325195,1
188.92279900,188922799,0,-0.7063065767288208,99144.7734375,36.31,0.12806938588619232,188922,0.0,34.94621658325195,1
189.02292700,189022927,0,-0.7289084196090698,99145.0,36.31,-0.21396765112876892,189022,0.0,34.94621658325195,1
189.12292700,189122927,0,-0.7515102028846741,99145.2421875,36.31,-0.22636431455612183,189122,0.0,34.94621658325195,1
189.22284200,189222842,0,-0.615899384021759,99143.7734375,36.31,0.11830638349056244,189222,0.0,34.94621658325195,1
189.32257800,189322578,0,-0.615899384021759,99143.7421875,36.31,0.3143064081668854,189322,0.0,34.94621658325195,1
189.42280600,189422806,0,-0.65545254945755,99144.1953125,36.31,0.377873957157135,189422,0.0,34.94621658325195,1
189.52277500,189522775,0,-0.6045984625816345,99143.65625,36.31,0.3354955017566681,189522,0.0,34.94621658325195,1
189.62254200,189622542,0,-0.514191210269928,99142.625,36.31,0.1889369785785675,189622,0.0,34.94621658325195,1
189.72293100,189722931,0,-0.553744375705719,99143.046875,36.31,0.20659473538398743,189722,0.0,34.94621658325195,1
189.82272700,189822727,0,-0.6102489233016968,99143.6953125,36.32,0.3001803755760193,189822,0.0,34.94621658325195,1
189.92273900,189922739,0,-0.5480939149856567,99143.015625,36.31,0.15715324878692627,189922,0.0,34.94621658325195,1
190.02293100,190022931,0,-0.5480939149856567,99142.9921875,36.32,-0.04590991884469986,190022,0.0,34.94621658325195,1
190.12337200,190123372,0,-0.65545254945755,99144.203125,36.31,-0.049414992332458496,190123,0.0,34.94621658325195,1
190.22327400,190223274,0,-0.6215497851371765,99143.7890625,36.32,-0.06319470703601837,190223,0.0,34.94621658325195,1
190.32341500,190323415,0,-0.5763461589813232,99143.3359375,36.32,-0.18805545568466187,190323,0.0,34.94621658325195,1
190.42278200,190422782,0,-0.6215497851371765,99143.7890625,36.32,-0.15296253561973572,190422,0.0,34.94621658325195,1
190.52288900,190522889,0,-0.5480939149856567,99142.984375,36.31,0.031783901154994965,190522,0.0,34.94621658325195,1
190.62276800,190622768,0,-0.7232579588890076,99144.9296875,36.32,0.07979586720466614,190622,0.0,34.94621658325195,1
190.72283700,190722837,0,-0.8814706206321716,99146.703125,36.32,-0.1538364440202713,190722,0.0,34.94621658325195,1
190.82278500,190822785,0,-0.6215497851371765,99143.8359375,36.32,-0.5412805080413818,190822,0.0,34.94621658325195,1
190.92255900,190922559,0,-0.8588688373565674,99146.3984375,36.32,-0.609336793422699,190922,0.0,34.94621658325195,1
191.02252000,191022520,0,-0.7289084196090698,99144.9765625,36.32,-0.26309922337532043,191022,0.0,34.94621658325195,1
191.12272000,191122720,0,-0.6950057148933411,99144.609375,36.32,-0.017657728865742683,191122,0.0,34.94621658325195,1
191.22272200,191222722,0,-0.7910633683204651,99145.6640625,36.32,0.04414406418800354,191222,0.0,34.94621658325195,1
191.32310900,191323109,0,-0.6441516280174255,99144.0703125,36.32,0.11818291991949081,191323,0.0,34.94621658325195,1
191.42339700,191423397,0,-0.6441516280174255,99144.0703125,36.32,0.1635587513446808,191423,0.0,34.94621658325195,1
191.52280000,191522800,0,-0.7289084196090698,99144.984375,36.32,0.22535862028598785,191522,0.0,34.94621658325195,1
191.62276200,191622762,0,-0.7345588803291321,99145.03125,36.32,0.1842634081840515,191622,0.0,34.94621658325195,1
191.72293800,191722938,0,-0.7006561756134033,99144.6640625,36.32,-0.06423313170671463,191722,0.0,34.94621658325195,1
191.82256600,191822566,0,-0.7119570374488831,99144.8359375,36.32,-0.18805815279483795,191822,0.0,34.94621658325195,1
191.92252700,191922527,0,-0.5480939149856567,99143.03125,36.32,-0.010756907053291798,191922,0.0,34.94621658325195,1
192.02270800,192022708,0,-0.8645192980766296,99146.484375,36.33,0.19235365092754364,192022,0.0,34.94621658325195,1
192.12272700,192122727,0,-0.8306165337562561,99146.109375,36.33,0.044144224375486374,192122,0.0,34.94621658325195,1
192.22278300,192222783,0,-0.8419174551963806,99146.25,36.33,-0.4343785345554352,192222,0.0,34.94621658325195,1
192.32286800,192322868,0,-0.6498020887374878,99144.109375,36.33,-0.5880002379417419,192322,0.0,34.94621658325195,1
192.42327400,192423274,0,-0.7119570374488831,99144.8046875,36.33,-0.09181984513998032,192423,0.0,34.94621658325195,1
192.52336000,192523360,0,-0.7345588803291321,99145.0546875,36.33,0.4145765006542206,192523,0.0,34.94621658325195,1
192.62256500,192622565,0,-0.8645192980766296,99146.4609375,36.33,0.3218255341053009,192622,0.0,34.94621658325195,1
192.72253600,192722536,0,-0.8080147504806519,99145.859375,36.32,-0.15296286344528198,192722,0.0,34.94621658325195,1
192.82273500,192822735,0,-0.8927715420722961,99146.8046875,36.33,-0.45323416590690613,192822,0.0,34.94621658325195,1
192.92274900,192922749,0,-0.7628111243247986,99145.3515625,36.33,-0.3772514760494232,192922,0.0,34.94621658325195,1
193.02273900,193022739,0,-0.8193156719207764,99145.9921875,36.33,-0.11315352469682693,193022,0.0,34.94621658325195,1
193.12297600,193122976,0,-0.7741120457649231,99145.5078125,36.33,0.11475419253110886,193122,0.0,34.94621658325195,1
193.22276800,193222768,0,-0.9040724635124207,99146.90625,36.33,0.1447928100824356,193222,0.0,34.94621658325195,1
193.32279100,193322791,0,-0.672403872013092,99144.390625,36.33,0.010594557970762253,193322,0.0,34.94621658325195,1
193.42276200,193422762,0,-0.8193156719207764,99145.9921875,36.33,0.0035315423738211393,193422,0.0,34.94621658325195,1
193.52323900,193523239,0,-0.6950057148933411,99144.625,36.33,0.18007294833660126,193523,0.0,34.94621658325195,1
193.62342000,193623420,0,-0.9210237860679626,99147.1015625,36.33,0.1993379145860672,193623,0.0,34.94621658325195,1
193.72272800,193722728,0,-0.9040724635124207,99146.9296875,36.33,-0.09688863158226013,193722,0.0,34.94621658325195,1
193.82251800,193822518,0,-0.7458597421646118,99145.1953125,36.33,-0.3982725441455841,193822,0.0,34.94621658325195,1
193.92274000,193922740,0,-0.9379751682281494,99147.265625,36.33,-0.31947946548461914,193922,0.0,34.94621658325195,1
194.02357900,194023579,0,-0.7063065767288208,99144.75,36.33,0.005852747708559036,194023,0.0,34.94621658325195,1
194.12334900,194123349,0,-0.7797625064849854,99145.5390625,36.34,0.18893705308437347,194123,0.0,34.94621658325195,1
194.22354800,194223548,0,-0.9549265503883362,99147.5,36.34,0.2058996707201004,194223,0.0,34.94621658325195,1
194.32269600,194322696,0,-0.8588688373565674,99146.4375,36.34,-0.0005782858352176845,194322,0.0,34.94621658325195,1
194.42309200,194423092,0,-0.8193156719207764,99145.9765625,36.33,-0.3125026226043701,194423,0.0,34.94621658325195,1
