timestamp,TimeUS,DesRoll,Roll,DesPitch,Pitch,DesYaw,Yaw,ErrRP,ErrYaw,AEKF
124.50784700,124507847,0.0,-6.73,0.0,5.38,194.62,194.63,0.01,0.01,3
124.51032400,124510324,0.0,-6.73,0.0,5.38,194.62,194.63,0.01,0.01,3
124.51269000,124512690,0.0,-6.54,0.0,5.23,194.8,194.81,0.01,0.01,3
124.51532900,124515329,0.0,-6.54,0.0,5.23,194.8,194.81,0.01,0.01,3
124.51832700,124518327,0.0,-6.54,0.0,5.23,194.8,194.81,0.01,0.01,3
124.52250200,124522502,0.0,-6.42,0.0,5.13,194.92000000000002,194.93,0.01,0.01,3
124.52501000,124525010,0.0,-6.42,0.0,5.13,194.92000000000002,194.93,0.01,0.01,3
124.52774700,124527747,0.0,-6.37,0.0,5.09,194.97,194.98000000000002,0.01,0.01,3
124.53009200,124530092,0.0,-6.37,0.0,5.09,194.97,194.98000000000002,0.01,0.01,3
124.53266200,124532662,0.0,-6.36,0.0,5.09,194.97,194.98000000000002,0.01,0.01,3
124.53508700,124535087,0.0,-6.36,0.0,5.08,194.97,194.98000000000002,0.01,0.01,3
124.53827400,124538274,0.0,-6.36,0.0,5.08,194.97,194.98000000000002,0.01,0.01,3
124.54267000,124542670,0.0,-6.38,0.0,5.1000000000000005,194.95000000000002,194.96,0.01,0.01,3
124.54514500,124545145,0.0,-6.38,0.0,5.1000000000000005,194.95000000000002,194.96,0.01,0.01,3
124.54746300,124547463,0.0,-6.390000000000001,0.0,5.1000000000000005,194.94,194.95000000000002,0.01,0.01,3
124.55017200,124550172,0.0,-6.390000000000001,0.0,5.1000000000000005,194.94,194.95000000000002,0.01,0.01,3
124.55274900,124552749,0.0,-6.4,0.0,5.11,194.93,194.94,0.01,0.01,3
124.55521500,124555215,0.0,-6.390000000000001,0.0,5.11,194.93,194.94,0.01,0.01,3
124.55771000,124557710,0.0,-6.4,0.0,5.11,194.93,194.94,0.01,0.01,3
124.56020700,124560207,0.0,-6.4,0.0,5.11,194.93,194.94,0.01,0.01,3
124.56254500,124562545,0.0,-6.390000000000001,0.0,5.11,194.93,194.94,0.01,0.01,3
124.56511400,124565114,0.0,-6.390000000000001,0.0,5.11,194.93,194.94,0.01,0.01,3
124.56772600,124567726,0.0,-6.390000000000001,0.0,5.11,194.93,194.94,0.01,0.01,3
124.57021400,124570214,0.0,-6.390000000000001,0.0,5.11,194.93,194.94,0.01,0.01,3
124.57348000,124573480,0.0,-6.390000000000001,0.0,5.1000000000000005,194.93,194.94,0.01,0.07,3
124.57627500,124576275,0.0,-6.390000000000001,0.0,5.1000000000000005,194.93,194.94,0.01,0.07,3
124.57852300,124578523,0.0,-6.390000000000001,0.0,5.1000000000000005,194.94,194.95000000000002,0.01,0.07,3
124.58275000,124582750,0.0,-6.390000000000001,0.0,5.1000000000000005,194.94,194.95000000000002,0.01,0.07,3
124.58417900,124584179,0.0,-6.390000000000001,0.0,5.1000000000000005,194.95000000000002,194.96,0.01,0.07,3
124.58798800,124587988,0.0,-6.390000000000001,0.0,5.1000000000000005,194.95000000000002,194.96,0.01,0.07,3
124.58952100,124589521,0.0,-6.390000000000001,0.0,5.1000000000000005,194.96,194.97,0.01,0.07,3
124.59317000,124593170,0.0,-6.390000000000001,0.0,5.1000000000000005,194.97,194.98000000000002,0.01,0.07,3
124.59443500,124594435,0.0,-6.390000000000001,0.0,5.1000000000000005,194.97,194.98000000000002,0.01,0.07,3
124.59816500,124598165,0.0,-6.390000000000001,0.0,5.1000000000000005,194.98000000000002,194.99,0.01,0.07,3
124.59957200,124599572,0.0,-6.390000000000001,0.0,5.1000000000000005,194.99,195.0,0.01,0.07,3
124.60298400,124602984,0.0,-6.390000000000001,0.0,5.1000000000000005,194.99,195.0,0.01,0.07,3
124.60466600,124604666,0.0,-6.390000000000001,0.0,5.1000000000000005,195.0,195.01,0.01,0.07,3
124.60818300,124608183,0.0,-6.390000000000001,0.0,5.1000000000000005,195.01,195.02,0.01,0.07,3
124.60943400,124609434,0.0,-6.390000000000001,0.0,5.1000000000000005,195.01,195.02,0.01,0.07,3
124.61319400,124613194,0.0,-6.390000000000001,0.0,5.1000000000000005,195.02,195.03,0.01,0.07,3
124.61465700,124614657,0.0,-6.390000000000001,0.0,5.1000000000000005,195.03,195.04,0.01,0.07,3
124.61798800,124617988,0.0,-6.390000000000001,0.0,5.1000000000000005,195.04,195.05,0.01,0.07,3
124.61958300,124619583,0.0,-6.390000000000001,0.0,5.1000000000000005,195.04,195.05,0.01,0.07,3
124.62319200,124623192,0.0,-6.38,0.0,5.1000000000000005,195.05,195.06,0.01,0.07,3
124.62443100,124624431,0.0,-6.38,0.0,5.1000000000000005,195.06,195.07,0.01,0.07,3
124.62815200,124628152,0.0,-6.38,0.0,5.1000000000000005,195.06,195.07,0.01,0.07,3
124.62961400,124629614,0.0,-6.38,0.0,5.1000000000000005,195.07,195.08,0.01,0.07,3
124.63299200,124632992,0.0,-6.38,0.0,5.1000000000000005,195.08,195.09,0.01,0.07,3
124.63466100,124634661,0.0,-6.38,0.0,5.1000000000000005,195.09,195.1,0.01,0.07,3
124.63827000,124638270,0.0,-6.38,0.0,5.1000000000000005,195.09,195.1,0.01,0.07,3
124.63951800,124639518,0.0,-6.38,0.0,5.1000000000000005,195.1,195.11,0.01,0.07,3
124.64327100,124643271,0.0,-6.38,0.0,5.1000000000000005,195.11,195.12,0.01,0.07,3
124.64470000,124644700,0.0,-6.38,0.0,5.09,195.12,195.13,0.01,0.07,3
124.64805600,124648056,0.0,-6.38,0.0,5.09,195.12,195.13,0.01,0.07,3
124.64965300,124649653,0.0,-6.38,0.0,5.09,195.13,195.14000000000001,0.01,0.07,3
124.65318500,124653185,0.0,-6.38,0.0,5.09,195.14000000000001,195.15,0.01,0.07,3
124.65467200,124654672,0.0,-6.38,0.0,5.09,195.15,195.16,0.01,0.07,3
124.65869200,124658692,0.0,-6.38,0.0,5.09,195.15,195.16,0.01,0.07,3
124.66019600,124660196,0.0,-6.38,0.0,5.09,195.16,195.17000000000002,0.01,0.07,3
124.66295900,124662959,0.0,-6.38,0.0,5.09,195.16,195.17000000000002,0.01,0.07,3
124.66523100,124665231,0.0,-6.38,0.0,5.09,195.17000000000002,195.18,0.01,0.07,3
124.66814100,124668141,0.0,-6.38,0.0,5.09,195.18,195.19,0.01,0.07,3
124.67003500,124670035,0.0,-6.38,0.0,5.09,195.18,195.19,0.01,0.07,3
124.67423800,124674238,0.0,-6.38,0.0,5.09,195.19,195.20000000000002,0.01,0.07,3
124.67598100,124675981,0.0,-6.38,0.0,5.09,195.20000000000002,195.21,0.01,0.12,3
124.67802900,124678029,0.0,-6.37,0.0,5.09,195.21,195.22,0.01,0.12,3
124.68105400,124681054,0.0,-6.37,0.0,5.09,195.22,195.23000000000002,0.01,0.12,3
124.68320600,124683206,0.0,-6.37,0.0,5.09,195.23000000000002,195.24,0.01,0.12,3
124.68555500,124685555,0.0,-6.37,0.0,5.09,195.25,195.26,0.01,0.12,3
124.68823700,124688237,0.0,-6.37,0.0,5.09,195.26,195.27,0.01,0.12,3
124.69074400,124690744,0.0,-6.37,0.0,5.09,195.27,195.28,0.01,0.12,3
124.69345100,124693451,0.0,-6.37,0.0,5.09,195.28,195.29,0.01,0.12,3
124.69573100,124695731,0.0,-6.37,0.0,5.08,195.29,195.3,0.01,0.12,3
124.69825200,124698252,0.0,-6.37,0.0,5.08,195.3,195.31,0.01,0.12,3
124.70051800,124700518,0.0,-6.37,0.0,5.08,195.32,195.33,0.01,0.12,3
124.70324200,124703242,0.0,-6.37,0.0,5.08,195.33,195.34,0.01,0.12,3
124.70573900,124705739,0.0,-6.37,0.0,5.08,195.34,195.35,0.01,0.12,3
124.70907100,124709071,0.0,-6.37,0.0,5.08,195.35,195.36,0.01,0.12,3
124.71070000,124710700,0.0,-6.37,0.0,5.08,195.36,195.37,0.01,0.12,3
124.71334900,124713349,0.0,-6.37,0.0,5.08,195.37,195.38,0.01,0.12,3
124.71550200,124715502,0.0,-6.37,0.0,5.08,195.38,195.39000000000001,0.01,0.12,3
124.71825400,124718254,0.0,-6.37,0.0,5.08,195.39000000000001,195.4,0.01,0.12,3
124.72072900,124720729,0.0,-6.37,0.0,5.08,195.4,195.41,0.01,0.12,3
124.72448400,124724484,0.0,-6.37,0.0,5.08,195.41,195.42000000000002,0.01,0.12,3
124.72593800,124725938,0.0,-6.37,0.0,5.08,195.42000000000002,195.43,0.01,0.12,3
124.72871700,124728717,0.0,-6.37,0.0,5.08,195.43,195.44,0.01,0.12,3
124.73051000,124730510,0.0,-6.37,0.0,5.08,195.44,195.45000000000002,0.01,0.12,3
124.73324500,124733245,0.0,-6.37,0.0,5.08,195.45000000000002,195.46,0.01,0.12,3
124.73574900,124735749,0.0,-6.37,0.0,5.08,195.46,195.47,0.01,0.12,3
124.73803700,124738037,0.0,-6.37,0.0,5.08,195.47,195.48000000000002,0.01,0.12,3
124.74092700,124740927,0.0,-6.37,0.0,5.08,195.48000000000002,195.49,0.01,0.12,3
124.74415200,124744152,0.0,-6.36,0.0,5.08,195.48000000000002,195.49,0.01,0.12,3
124.74573600,124745736,0.0,-6.36,0.0,5.08,195.49,195.5,0.01,0.12,3
124.74823100,124748231,0.0,-6.36,0.0,5.08,195.5,195.51,0.01,0.12,3
124.75101400,124751014,0.0,-6.36,0.0,5.08,195.51,195.52,0.01,0.12,3
124.75305000,124753050,0.0,-6.36,0.0,5.08,195.52,195.53,0.01,0.12,3
124.75602800,124756028,0.0,-6.36,0.0,5.08,195.52,195.53,0.01,0.12,3
124.75966500,124759665,0.0,-6.36,0.0,5.08,195.53,195.54,0.01,0.12,3
124.76089800,124760898,0.0,-6.36,0.0,5.08,195.54,195.55,0.01,0.12,3
124.76373800,124763738,0.0,-6.36,0.0,5.08,195.54,195.55,0.01,0.12,3
124.76609700,124766097,0.0,-6.36,0.0,5.08,195.55,195.56,0.01,0.12,3
124.76844900,124768449,0.0,-6.36,0.0,5.08,195.56,195.57,0.01,0.12,3
124.77117200,124771172,0.0,-6.36,0.0,5.08,195.56,195.57,0.01,0.12,3
124.77374400,124773744,0.0,-6.36,0.0,5.08,195.57,195.58,0.01,0.12,3
124.77594300,124775943,0.0,-6.36,0.0,5.08,195.58,195.59,0.01,0.15,3
124.77947400,124779474,0.0,-6.36,0.0,5.08,195.58,195.59,0.01,0.15,3
124.78139800,124781398,0.0,-6.36,0.0,5.08,195.59,195.6,0.01,0.15,3
124.78343900,124783439,0.0,-6.36,0.0,5.07,195.6,195.61,0.01,0.15,3
124.78627800,124786278,0.0,-6.36,0.0,5.07,195.61,195.62,0.01,0.15,3
124.78891000,124788910,0.0,-6.36,0.0,5.07,195.62,195.63,0.04,0.15,3
124.79127100,124791271,0.0,-6.36,0.0,5.07,195.63,195.64000000000001,0.04,0.15,3
124.79467800,124794678,0.0,-6.36,0.0,5.07,195.64000000000001,195.65,0.04,0.15,3
124.79633300,124796333,0.0,-6.36,0.0,5.07,195.66,195.67000000000002,0.04,0.15,3
124.79854100,124798541,0.0,-6.36,0.0,5.07,195.67000000000002,195.68,0.04,0.15,3
124.80131800,124801318,0.0,-6.36,0.0,5.07,195.68,195.69,0.04,0.15,3
124.80379600,124803796,0.0,-6.36,0.0,5.07,195.69,195.70000000000002,0.04,0.15,3
124.80625100,124806251,0.0,-6.36,0.0,5.07,195.70000000000002,195.71,0.04,0.15,3
124.81011300,124810113,0.0,-6.36,0.0,5.07,195.71,195.72,0.04,0.15,3
124.81155900,124811559,0.0,-6.36,0.0,5.07,195.72,195.73000000000002,0.04,0.15,3
124.81403300,124814033,0.0,-6.36,0.0,5.07,195.73000000000002,195.74,0.04,0.15,3
124.81659400,124816594,0.0,-6.3500000000000005,0.0,5.0600000000000005,195.74,195.75,0.04,0.15,3
124.81907900,124819079,0.0,-6.3500000000000005,0.0,5.0600000000000005,195.74,195.75,0.04,0.15,3
124.82145900,124821459,0.0,-6.3500000000000005,0.0,5.0600000000000005,195.75,195.76,0.04,0.15,3
124.82409800,124824098,0.0,-6.3500000000000005,0.0,5.0600000000000005,195.76,195.77,0.04,0.15,3
124.82658800,124826588,0.0,-6.3500000000000005,0.0,5.0600000000000005,195.77,195.78,0.04,0.15,3
124.82950600,124829506,0.0,-6.3500000000000005,0.0,5.0600000000000005,195.78,195.79,0.04,0.15,3
124.83155400,124831554,0.0,-6.3500000000000005,0.0,5.0600000000000005,195.79,195.8,0.04,0.15,3
124.83414800,124834148,0.0,-6.3500000000000005,0.0,5.0600000000000005,195.8,195.81,0.04,0.15,3
124.83641900,124836419,0.0,-6.3500000000000005,0.0,5.0600000000000005,195.81,195.82,0.04,0.15,3
124.83908300,124839083,0.0,-6.3500000000000005,0.0,5.0600000000000005,195.81,195.82,0.04,0.15,3
124.84214600,124842146,0.0,-6.3500000000000005,0.0,5.0600000000000005,195.82,195.83,0.04,0.15,3
124.84503400,124845034,0.0,-6.3500000000000005,0.0,5.0600000000000005,195.83,195.84,0.04,0.15,3
124.84706600,124847066,0.0,-6.3500000000000005,0.0,5.0600000000000005,195.84,195.85,0.04,0.15,3
124.84907700,124849077,0.0,-6.3500000000000005,0.0,5.0600000000000005,195.84,195.85,0.04,0.15,3
124.85191600,124851916,0.0,-6.3500000000000005,0.0,5.0600000000000005,195.85,195.86,0.04,0.15,3
124.85407800,124854078,0.0,-6.3500000000000005,0.0,5.0600000000000005,195.86,195.87,0.04,0.15,3
124.85711000,124857110,0.0,-6.3500000000000005,0.0,5.0600000000000005,195.86,195.87,0.04,0.15,3
124.86051100,124860511,0.0,-6.3500000000000005,0.0,5.0600000000000005,195.87,195.88,0.04,0.15,3
124.86212300,124862123,0.0,-6.3500000000000005,0.0,5.0600000000000005,195.88,195.89000000000001,0.04,0.15,3
124.86453600,124864536,0.0,-6.3500000000000005,0.0,5.0600000000000005,195.88,195.89000000000001,0.04,0.15,3
124.86709700,124867097,0.0,-6.3500000000000005,0.0,5.0600000000000005,195.89000000000001,195.9,0.04,0.15,3
124.86952900,124869529,0.0,-6.3500000000000005,0.0,5.0600000000000005,195.9,195.9,0.04,0.15,3
124.87236100,124872361,0.0,-6.3500000000000005,0.0,5.0600000000000005,195.9,195.91,0.04,0.15,3
124.87614600,124876146,0.0,-6.3500000000000005,0.0,5.0600000000000005,195.91,195.92000000000002,0.04,0.15,3
124.87789600,124877896,0.0,-6.3500000000000005,0.0,5.0600000000000005,195.91,195.92000000000002,0.04,0.18,3
124.88042000,124880420,0.0,-6.3500000000000005,0.0,5.0600000000000005,195.92000000000002,195.93,0.04,0.18,3
124.88247500,124882475,0.0,-6.3500000000000005,0.0,5.0600000000000005,195.93,195.94,0.04,0.18,3
124.88514800,124885148,0.0,-6.3500000000000005,0.0,5.0600000000000005,195.94,195.95000000000002,0.04,0.18,3
124.88767700,124887677,0.0,-6.3500000000000005,0.0,5.0600000000000005,195.95000000000002,195.96,0.04,0.18,3
124.89149500,124891495,0.0,-6.3500000000000005,0.0,5.0600000000000005,195.96,195.97,0.04,0.18,3
124.89296600,124892966,0.0,-6.3500000000000005,0.0,5.05,195.97,195.98000000000002,0.04,0.18,3
124.89572300,124895723,0.0,-6.3500000000000005,0.0,5.05,195.98000000000002,195.99,0.04,0.18,3
124.89779400,124897794,0.0,-6.3500000000000005,0.0,5.05,195.99,196.0,0.04,0.18,3
124.90048600,124900486,0.0,-6.3500000000000005,0.0,5.05,196.0,196.01,0.04,0.18,3
124.90301200,124903012,0.0,-6.3500000000000005,0.0,5.05,196.01,196.02,0.04,0.18,3
124.90533700,124905337,0.0,-6.34,0.0,5.05,196.02,196.03,0.04,0.18,3
124.90795800,124907958,0.0,-6.34,0.0,5.05,196.03,196.04,0.04,0.18,3
124.91119100,124911191,0.0,-6.34,0.0,5.05,196.04,196.05,0.04,0.18,3
124.91280400,124912804,0.0,-6.34,0.0,5.05,196.04,196.05,0.04,0.18,3
124.91552200,124915522,0.0,-6.34,0.0,5.05,196.05,196.06,0.04,0.18,3
124.91798600,124917986,0.0,-6.34,0.0,5.05,196.06,196.07,0.04,0.18,3
124.92033500,124920335,0.0,-6.34,0.0,5.05,196.07,196.08,0.04,0.18,3
124.92297300,124922973,0.0,-6.34,0.0,5.04,196.08,196.09,0.04,0.18,3
124.92682300,124926823,0.0,-6.34,0.0,5.04,196.09,196.1,0.04,0.18,3
124.92805500,124928055,0.0,-6.34,0.0,5.04,196.1,196.11,0.04,0.18,3
124.93048200,124930482,0.0,-6.34,0.0,5.04,196.1,196.11,0.04,0.18,3
124.93298000,124932980,0.0,-6.34,0.0,5.04,196.11,196.12,0.04,0.18,3
124.93534500,124935345,0.0,-6.34,0.0,5.04,196.12,196.13,0.04,0.18,3
124.93799800,124937998,0.0,-6.34,0.0,5.04,196.13,196.14000000000001,0.04,0.18,3
124.94047600,124940476,0.0,-6.34,0.0,5.04,196.13,196.14000000000001,0.04,0.18,3
124.94283900,124942839,0.0,-6.34,0.0,5.04,196.14000000000001,196.15,0.04,0.18,3
124.94620800,124946208,0.0,-6.34,0.0,5.04,196.15,196.16,0.04,0.18,3
124.94796400,124947964,0.0,-6.34,0.0,5.04,196.16,196.17000000000002,0.04,0.18,3
124.95032300,124950323,0.0,-6.34,0.0,5.04,196.16,196.17000000000002,0.04,0.18,3
124.95298400,124952984,0.0,-6.34,0.0,5.04,196.17000000000002,196.18,0.04,0.18,3
124.95550200,124955502,0.0,-6.34,0.0,5.04,196.17000000000002,196.18,0.04,0.18,3
124.95782100,124957821,0.0,-6.33,0.0,5.04,196.18,196.19,0.04,0.18,3
124.96170000,124961700,0.0,-6.33,0.0,5.04,196.19,196.20000000000002,0.04,0.18,3
124.96312300,124963123,0.0,-6.33,0.0,5.04,196.19,196.20000000000002,0.04,0.18,3
124.96530200,124965302,0.0,-6.33,0.0,5.04,196.20000000000002,196.21,0.04,0.18,3
124.96851500,124968515,0.0,-6.33,0.0,5.04,196.20000000000002,196.21,0.04,0.18,3
124.97044700,124970447,0.0,-6.33,0.0,5.04,196.21,196.22,0.04,0.18,3
124.97334000,124973340,0.0,-6.33,0.0,5.04,196.21,196.22,0.04,0.18,3
124.97732000,124977320,0.0,-6.33,0.0,5.04,196.22,196.23000000000002,0.04,0.18,3
124.97906300,124979063,0.0,-6.33,0.0,5.04,196.22,196.23000000000002,0.04,0.2,3
124.98340300,124983403,0.0,-6.33,0.0,5.03,196.23000000000002,196.24,0.04,0.2,3
124.98524100,124985241,0.0,-6.33,0.0,5.03,196.24,196.25,0.04,0.2,3
124.98863000,124988630,0.0,-6.33,0.0,5.03,196.26,196.27,0.04,0.2,3
124.98992200,124989922,0.0,-6.33,0.0,5.03,196.26,196.27,0.06,0.2,3
124.99372800,124993728,0.0,-6.33,0.0,5.03,196.27,196.28,0.06,0.2,3
124.99631600,124996316,0.0,-6.32,0.0,5.03,196.28,196.29,0.06,0.2,3
124.99855000,124998550,0.0,-6.32,0.0,5.03,196.29,196.3,0.06,0.2,3
125.00024100,125000241,0.0,-6.32,0.0,5.03,196.3,196.31,0.06,0.2,3
125.00372600,125003726,0.0,-6.32,0.0,5.03,196.31,196.32,0.06,0.2,3
125.00501100,125005011,0.0,-6.32,0.0,5.03,196.32,196.33,0.06,0.2,3
125.00872900,125008729,0.0,-6.32,0.0,5.03,196.33,196.34,0.06,0.2,3
125.01164200,125011642,0.0,-6.32,0.0,5.03,196.34,196.35,0.06,0.2,3
125.01366200,125013662,0.0,-6.32,0.0,5.0200000000000005,196.34,196.35,0.06,0.2,3
125.01871400,125018714,0.0,-6.32,0.0,5.0200000000000005,196.35,196.36,0.06,0.2,3
125.02023100,125020231,0.0,-6.32,0.0,5.0200000000000005,196.36,196.37,0.06,0.2,3
125.02379200,125023792,0.0,-6.32,0.0,5.0200000000000005,196.37,196.38,0.06,0.2,3
125.02772500,125027725,0.0,-6.32,0.0,5.0200000000000005,196.38,196.39000000000001,0.06,0.2,3
125.02921600,125029216,0.0,-6.32,0.0,5.0200000000000005,196.38,196.39000000000001,0.06,0.2,3
125.03384000,125033840,0.0,-6.32,0.0,5.0200000000000005,196.39000000000001,196.4,0.06,0.2,3
125.03534000,125035340,0.0,-6.32,0.0,5.0200000000000005,196.4,196.41,0.06,0.2,3
125.03909000,125039090,0.0,-6.3100000000000005,0.0,5.0200000000000005,196.41,196.42000000000002,0.06,0.2,3
125.04039500,125040395,0.0,-6.3100000000000005,0.0,5.0200000000000005,196.41,196.42000000000002,0.06,0.2,3
125.04407200,125044072,0.0,-6.3100000000000005,0.0,5.0200000000000005,196.42000000000002,196.43,0.06,0.2,3
125.04669100,125046691,0.0,-6.3100000000000005,0.0,5.0200000000000005,196.42000000000002,196.43,0.06,0.2,3
125.04892300,125048923,0.0,-6.3100000000000005,0.0,5.0200000000000005,196.43,196.44,0.06,0.2,3
125.05058900,125050589,0.0,-6.3100000000000005,0.0,5.0200000000000005,196.44,196.45000000000002,0.06,0.2,3
125.05419600,125054196,0.0,-6.3100000000000005,0.0,5.0200000000000005,196.44,196.45000000000002,0.06,0.2,3
125.05543500,125055435,0.0,-6.3100000000000005,0.0,5.0200000000000005,196.45000000000002,196.46,0.06,0.2,3
125.05921100,125059211,0.0,-6.3100000000000005,0.0,5.0200000000000005,196.46,196.47,0.06,0.2,3
125.06221200,125062212,0.0,-6.3100000000000005,0.0,5.0200000000000005,196.46,196.47,0.06,0.2,3
125.06400700,125064007,0.0,-6.3100000000000005,0.0,5.0200000000000005,196.47,196.48000000000002,0.06,0.2,3
125.06626700,125066267,0.0,-6.3100000000000005,0.0,5.0200000000000005,196.47,196.48000000000002,0.06,0.2,3
125.06919800,125069198,0.0,-6.3100000000000005,0.0,5.01,196.48000000000002,196.49,0.06,0.2,3
125.07096200,125070962,0.0,-6.3100000000000005,0.0,5.01,196.48000000000002,196.49,0.06,0.2,3
125.07422600,125074226,0.0,-6.3100000000000005,0.0,5.01,196.49,196.5,0.06,0.2,3
125.07772400,125077724,0.0,-6.3100000000000005,0.0,5.01,196.49,196.5,0.06,0.2,3
125.07918900,125079189,0.0,-6.3100000000000005,0.0,5.01,196.5,196.51,0.06,0.2,3
125.08418400,125084184,0.0,-6.3100000000000005,0.0,5.01,196.5,196.51,0.06,0.2,3
125.08579900,125085799,0.0,-6.3100000000000005,0.0,5.01,196.5,196.51,0.06,0.2,3
125.08933200,125089332,0.0,-6.3100000000000005,0.0,5.01,196.51,196.52,0.06,0.21,3
125.09450400,125094504,0.0,-6.3100000000000005,0.0,5.01,196.51,196.52,0.06,0.21,3
125.09617200,125096172,0.0,-6.3100000000000005,0.0,5.01,196.52,196.53,0.06,0.21,3
125.09906600,125099066,0.0,-6.3100000000000005,0.0,5.01,196.52,196.53,0.06,0.21,3
125.10099500,125100995,0.0,-6.3100000000000005,0.0,5.01,196.52,196.53,0.06,0.21,3
125.10432800,125104328,0.0,-6.3100000000000005,0.0,5.01,196.53,196.54,0.06,0.21,3
125.10583900,125105839,0.0,-6.3,0.0,5.01,196.54,196.55,0.06,0.21,3
125.10926500,125109265,0.0,-6.3,0.0,5.01,196.54,196.55,0.06,0.21,3
125.11096900,125110969,0.0,-6.3,0.0,5.0,196.55,196.56,0.06,0.21,3
125.11399000,125113990,0.0,-6.3,0.0,5.0,196.56,196.57,0.06,0.21,3
125.11597300,125115973,0.0,-6.3,0.0,5.0,196.57,196.58,0.06,0.21,3
125.11921800,125119218,0.0,-6.3,0.0,5.0,196.58,196.59,0.06,0.21,3
125.12084000,125120840,0.0,-6.3,0.0,5.0,196.59,196.6,0.06,0.21,3
125.12431600,125124316,0.0,-6.3,0.0,5.0,196.59,196.6,0.06,0.21,3
125.12598400,125125984,0.0,-6.3,0.0,5.0,196.6,196.61,0.06,0.21,3
125.12906200,125129062,0.0,-6.3,0.0,5.0,196.61,196.62,0.06,0.21,3
125.13102100,125131021,0.0,-6.29,0.0,5.0,196.62,196.63,0.06,0.21,3
125.13422500,125134225,0.0,-6.29,0.0,5.0,196.63,196.64000000000001,0.06,0.21,3
125.13584900,125135849,0.0,-6.29,0.0,5.0,196.63,196.64000000000001,0.06,0.21,3
125.13921700,125139217,0.0,-6.29,0.0,5.0,196.64000000000001,196.65,0.06,0.21,3
125.14102300,125141023,0.0,-6.29,0.0,4.99,196.65,196.66,0.06,0.21,3
125.14404300,125144043,0.0,-6.29,0.0,4.99,196.66,196.67000000000002,0.06,0.21,3
125.14596400,125145964,0.0,-6.29,0.0,4.99,196.66,196.67000000000002,0.06,0.21,3
125.14923100,125149231,0.0,-6.29,0.0,4.99,196.67000000000002,196.68,0.06,0.21,3
125.15081500,125150815,0.0,-6.29,0.0,4.99,196.68,196.69,0.06,0.21,3
125.15421800,125154218,0.0,-6.29,0.0,4.99,196.68,196.69,0.06,0.21,3
125.15597700,125155977,0.0,-6.29,0.0,4.99,196.69,196.70000000000002,0.06,0.21,3
125.15903400,125159034,0.0,-6.29,0.0,4.99,196.70000000000002,196.71,0.06,0.21,3
125.16097500,125160975,0.0,-6.29,0.0,4.99,196.71,196.72,0.06,0.21,3
125.16422200,125164222,0.0,-6.28,0.0,4.99,196.71,196.72,0.06,0.21,3
125.16579800,125165798,0.0,-6.28,0.0,4.99,196.72,196.73000000000002,0.06,0.21,3
125.16923200,125169232,0.0,-6.28,0.0,4.99,196.73000000000002,196.74,0.06,0.21,3
125.17099800,125170998,0.0,-6.28,0.0,4.99,196.73000000000002,196.74,0.06,0.21,3
125.17391800,125173918,0.0,-6.28,0.0,4.99,196.74,196.75,0.06,0.21,3
125.17594300,125175943,0.0,-6.28,0.0,4.98,196.75,196.76,0.06,0.21,3
125.17923300,125179233,0.0,-6.28,0.0,4.98,196.75,196.76,0.06,0.21,3
125.18082000,125180820,0.0,-6.28,0.0,4.98,196.76,196.77,0.06,0.21,3
125.18425800,125184258,0.0,-6.28,0.0,4.98,196.77,196.78,0.06,0.21,3
125.18601900,125186019,0.0,-6.28,0.0,4.98,196.77,196.78,0.06,0.21,3
125.18912300,125189123,0.0,-6.28,0.0,4.98,196.78,196.79,0.06,0.21,3
125.19127900,125191279,0.0,-6.28,0.0,4.98,196.78,196.79,0.06,0.22,3
125.19465000,125194650,0.0,-6.28,0.0,4.98,196.79,196.8,0.06,0.22,3
125.19594700,125195947,0.0,-6.2700000000000005,0.0,4.98,196.8,196.81,0.06,0.22,3
125.19921800,125199218,0.0,-6.2700000000000005,0.0,4.98,196.81,196.82,0.06,0.22,3
125.20096300,125200963,0.0,-6.2700000000000005,0.0,4.98,196.82,196.83,0.06,0.22,3
125.20400100,125204001,0.0,-6.2700000000000005,0.0,4.97,196.83,196.84,0.06,0.22,3
125.20599600,125205996,0.0,-6.2700000000000005,0.0,4.97,196.84,196.85,0.06,0.22,3
125.20918800,125209188,0.0,-6.2700000000000005,0.0,4.97,196.85,196.86,0.06,0.22,3
125.21084400,125210844,0.0,-6.26,0.0,4.97,196.86,196.87,0.06,0.22,3
125.21420400,125214204,0.0,-6.26,0.0,4.97,196.87,196.88,0.06,0.22,3
125.21597500,125215975,0.0,-6.26,0.0,4.97,196.88,196.89000000000001,0.06,0.22,3
125.21903700,125219037,0.0,-6.26,0.0,4.97,196.89000000000001,196.9,0.06,0.22,3
125.22097100,125220971,0.0,-6.26,0.0,4.96,196.9,196.91,0.06,0.22,3
125.22420500,125224205,0.0,-6.26,0.0,4.96,196.91,196.92000000000002,0.06,0.22,3
125.22581500,125225815,0.0,-6.25,0.0,4.96,196.92000000000002,196.93,0.06,0.22,3
125.22923100,125229231,0.0,-6.25,0.0,4.96,196.93,196.94,0.06,0.22,3
125.23099000,125230990,0.0,-6.25,0.0,4.96,196.94,196.95000000000002,0.06,0.22,3
125.23397400,125233974,0.0,-6.25,0.0,4.96,196.95000000000002,196.96,0.06,0.22,3
125.23654100,125236541,0.0,-6.25,0.0,4.96,196.96,196.97,0.06,0.22,3
125.23922900,125239229,0.0,-6.25,0.0,4.96,196.97,196.98000000000002,0.06,0.22,3
125.24135500,125241355,0.0,-6.25,0.0,4.95,196.98000000000002,196.99,0.06,0.22,3
125.24473800,125244738,0.0,-6.25,0.0,4.95,196.98000000000002,196.99,0.06,0.22,3
125.24653100,125246531,0.0,-6.24,0.0,4.95,196.99,197.0,0.06,0.22,3
125.24945100,125249451,0.0,-6.24,0.0,4.95,197.0,197.01,0.06,0.22,3
125.25148000,125251480,0.0,-6.24,0.0,4.95,197.01,197.02,0.06,0.22,3
125.25461600,125254616,0.0,-6.24,0.0,4.95,197.01,197.02,0.06,0.22,3
125.25646300,125256463,0.0,-6.24,0.0,4.95,197.02,197.03,0.06,0.22,3
125.26024900,125260249,0.0,-6.24,0.0,4.95,197.03,197.04,0.06,0.22,3
125.26165500,125261655,0.0,-6.24,0.0,4.95,197.04,197.05,0.06,0.22,3
125.26413400,125264134,0.0,-6.24,0.0,4.94,197.04,197.05,0.06,0.22,3
125.26674100,125266741,0.0,-6.24,0.0,4.94,197.05,197.06,0.06,0.22,3
125.26932400,125269324,0.0,-6.23,0.0,4.94,197.06,197.07,0.06,0.22,3
125.27154600,125271546,0.0,-6.23,0.0,4.94,197.06,197.07,0.06,0.22,3
125.27429900,125274299,0.0,-6.23,0.0,4.94,197.07,197.08,0.06,0.22,3
125.27671700,125276717,0.0,-6.23,0.0,4.94,197.07,197.08,0.06,0.22,3
125.27952900,125279529,0.0,-6.23,0.0,4.94,197.08,197.09,0.06,0.22,3
125.28179600,125281796,0.0,-6.23,0.0,4.94,197.09,197.1,0.06,0.22,3
125.28468400,125284684,0.0,-6.23,0.0,4.94,197.09,197.1,0.06,0.22,3
125.28680800,125286808,0.0,-6.23,0.0,4.94,197.1,197.11,0.06,0.22,3
125.29015800,125290158,0.0,-6.23,0.0,4.94,197.1,197.11,0.06,0.22,3
125.29238600,125292386,0.0,-6.23,0.0,4.94,197.1,197.11,0.06,0.22,3
125.29504100,125295041,0.0,-6.22,0.0,4.93,197.11,197.12,0.06,0.22,3
125.29716300,125297163,0.0,-6.22,0.0,4.93,197.12,197.13,0.06,0.22,3
125.29973600,125299736,0.0,-6.22,0.0,4.93,197.13,197.14000000000001,0.06,0.22,3
125.30172700,125301727,0.0,-6.22,0.0,4.93,197.14000000000001,197.15,0.06,0.22,3
125.30471100,125304711,0.0,-6.22,0.0,4.93,197.15,197.16,0.06,0.22,3
125.30700100,125307001,0.0,-6.21,0.0,4.93,197.16,197.17000000000002,0.06,0.22,3
125.31059100,125310591,0.0,-6.21,0.0,4.92,197.17000000000002,197.18,0.06,0.22,3
125.31204800,125312048,0.0,-6.21,0.0,4.92,197.18,197.19,0.06,0.22,3
125.31468500,125314685,0.0,-6.21,0.0,4.92,197.19,197.20000000000002,0.06,0.22,3
125.31690300,125316903,0.0,-6.21,0.0,4.92,197.19,197.20000000000002,0.06,0.22,3
125.31967800,125319678,0.0,-6.21,0.0,4.92,197.20000000000002,197.21,0.06,0.22,3
125.32213800,125322138,0.0,-6.2,0.0,4.92,197.21,197.22,0.06,0.22,3
125.32450600,125324506,0.0,-6.2,0.0,4.92,197.22,197.23000000000002,0.06,0.22,3
125.32708200,125327082,0.0,-6.2,0.0,4.91,197.23000000000002,197.24,0.06,0.22,3
125.33021500,125330215,0.0,-6.2,0.0,4.91,197.23000000000002,197.24,0.06,0.22,3
125.33188400,125331884,0.0,-6.2,0.0,4.91,197.24,197.25,0.06,0.22,3
125.33469200,125334692,0.0,-6.2,0.0,4.91,197.25,197.26,0.06,0.22,3
125.33761000,125337610,0.0,-6.19,0.0,4.91,197.26,197.27,0.06,0.22,3
125.33960500,125339605,0.0,-6.19,0.0,4.91,197.26,197.27,0.06,0.22,3
125.34274200,125342742,0.0,-6.19,0.0,4.9,197.27,197.28,0.06,0.22,3
125.34581400,125345814,0.0,-6.19,0.0,4.9,197.28,197.29,0.06,0.22,3
125.34747700,125347477,0.0,-6.19,0.0,4.9,197.28,197.29,0.06,0.22,3
125.34979700,125349797,0.0,-6.19,0.0,4.9,197.29,197.3,0.06,0.22,3
125.35273800,125352738,0.0,-6.19,0.0,4.9,197.3,197.31,0.06,0.22,3
125.35447500,125354475,0.0,-6.19,0.0,4.9,197.3,197.31,0.06,0.22,3
125.35738800,125357388,0.0,-6.18,0.0,4.9,197.31,197.32,0.06,0.22,3
125.36120500,125361205,0.0,-6.18,0.0,4.89,197.32,197.33,0.06,0.22,3
125.36269600,125362696,0.0,-6.18,0.0,4.89,197.32,197.33,0.06,0.22,3
125.36519300,125365193,0.0,-6.18,0.0,4.89,197.33,197.34,0.06,0.22,3
125.36788600,125367886,0.0,-6.18,0.0,4.89,197.33,197.34,0.06,0.22,3
125.37000700,125370007,0.0,-6.18,0.0,4.89,197.34,197.35,0.06,0.22,3
125.37297200,125372972,0.0,-6.18,0.0,4.89,197.34,197.35,0.06,0.22,3
125.37671700,125376717,0.0,-6.18,0.0,4.89,197.35,197.36,0.06,0.22,3
125.37802000,125378020,0.0,-6.18,0.0,4.89,197.35,197.36,0.06,0.22,3
125.38073200,125380732,0.0,-6.18,0.0,4.89,197.36,197.37,0.06,0.22,3
125.38325200,125383252,0.0,-6.17,0.0,4.89,197.36,197.37,0.06,0.22,3
125.38555700,125385557,0.0,-6.17,0.0,4.89,197.36,197.37,0.06,0.22,3
125.38825100,125388251,0.0,-6.17,0.0,4.88,197.37,197.38,0.06,0.22,3
125.39228400,125392284,0.0,-6.17,0.0,4.88,197.37,197.38,0.07,0.22,3
125.39367700,125393677,0.0,-6.17,0.0,4.88,197.38,197.39000000000001,0.07,0.22,3
125.39659400,125396594,0.0,-6.17,0.0,4.88,197.38,197.39000000000001,0.07,0.22,3
125.39920000,125399200,0.0,-6.17,0.0,4.88,197.38,197.39000000000001,0.07,0.22,3
125.40118200,125401182,0.0,-6.17,0.0,4.88,197.39000000000001,197.4,0.07,0.22,3
125.40384000,125403840,0.0,-6.17,0.0,4.88,197.4,197.41,0.07,0.22,3
125.40780500,125407805,0.0,-6.16,0.0,4.88,197.41,197.42000000000002,0.07,0.22,3
125.40901400,125409014,0.0,-6.16,0.0,4.88,197.41,197.42000000000002,0.07,0.22,3
125.41177400,125411774,0.0,-6.16,0.0,4.88,197.42000000000002,197.43,0.07,0.22,3
125.41427700,125414277,0.0,-6.16,0.0,4.87,197.43,197.44,0.07,0.22,3
125.41653800,125416538,0.0,-6.16,0.0,4.87,197.43,197.44,0.07,0.22,3
125.41926400,125419264,0.0,-6.15,0.0,4.87,197.44,197.45000000000002,0.07,0.22,3
125.42332400,125423324,0.0,-6.15,0.0,4.87,197.45000000000002,197.46,0.07,0.22,3
125.42459100,125424591,0.0,-6.15,0.0,4.87,197.46,197.47,0.07,0.22,3
125.42833800,125428338,0.0,-6.15,0.0,4.86,197.46,197.47,0.07,0.22,3
125.43122800,125431228,0.0,-6.15,0.0,4.86,197.47,197.48000000000002,0.07,0.22,3
125.43317200,125433172,0.0,-6.140000000000001,0.0,4.86,197.48000000000002,197.49,0.07,0.22,3
125.43517700,125435177,0.0,-6.140000000000001,0.0,4.86,197.48000000000002,197.49,0.07,0.22,3
125.43845600,125438456,0.0,-6.140000000000001,0.0,4.86,197.49,197.5,0.07,0.22,3
125.43998800,125439988,0.0,-6.140000000000001,0.0,4.86,197.49,197.5,0.07,0.22,3
125.44344000,125443440,0.0,-6.140000000000001,0.0,4.86,197.5,197.51,0.07,0.22,3
125.44666800,125446668,0.0,-6.140000000000001,0.0,4.8500000000000005,197.51,197.52,0.07,0.22,3
125.44821000,125448210,0.0,-6.13,0.0,4.8500000000000005,197.51,197.52,0.07,0.22,3
125.45071300,125450713,0.0,-6.13,0.0,4.8500000000000005,197.52,197.53,0.07,0.22,3
125.45345500,125453455,0.0,-6.13,0.0,4.8500000000000005,197.52,197.53,0.07,0.22,3
125.45555200,125455552,0.0,-6.13,0.0,4.8500000000000005,197.53,197.54,0.07,0.22,3
125.45903000,125459030,0.0,-6.13,0.0,4.8500000000000005,197.53,197.54,0.07,0.22,3
125.46221500,125462215,0.0,-6.13,0.0,4.8500000000000005,197.54,197.55,0.07,0.22,3
125.46378100,125463781,0.0,-6.13,0.0,4.8500000000000005,197.54,197.55,0.07,0.22,3
125.46619900,125466199,0.0,-6.12,0.0,4.84,197.55,197.56,0.07,0.22,3
125.46908400,125469084,0.0,-6.12,0.0,4.84,197.55,197.56,0.07,0.22,3
125.47094300,125470943,0.0,-6.12,0.0,4.84,197.56,197.57,0.07,0.22,3
125.47409300,125474093,0.0,-6.12,0.0,4.84,197.56,197.57,0.07,0.22,3
125.47772300,125477723,0.0,-6.12,0.0,4.84,197.57,197.58,0.07,0.22,3
125.47896100,125478961,0.0,-6.12,0.0,4.84,197.57,197.58,0.07,0.22,3
125.48168600,125481686,0.0,-6.12,0.0,4.84,197.58,197.59,0.07,0.22,3
125.48419100,125484191,0.0,-6.12,0.0,4.83,197.58,197.59,0.07,0.22,3
125.48650600,125486506,0.0,-6.12,0.0,4.83,197.58,197.59,0.07,0.22,3
125.48918700,125489187,0.0,-6.12,0.0,4.83,197.59,197.6,0.07,0.22,3
125.49169100,125491691,0.0,-6.11,0.0,4.83,197.59,197.6,0.07,0.22,3
125.49409400,125494094,0.0,-6.11,0.0,4.83,197.59,197.6,0.07,0.22,3
125.49703200,125497032,0.0,-6.11,0.0,4.83,197.6,197.61,0.07,0.22,3
125.49948800,125499488,0.0,-6.11,0.0,4.83,197.6,197.61,0.07,0.22,3
125.50146600,125501466,0.0,-6.11,0.0,4.83,197.61,197.62,0.07,0.22,3
125.50440700,125504407,0.0,-6.11,0.0,4.82,197.62,197.63,0.07,0.22,3
125.50671500,125506715,0.0,-6.1000000000000005,0.0,4.82,197.62,197.63,0.07,0.22,3
125.50921500,125509215,0.0,-6.1000000000000005,0.0,4.82,197.63,197.64000000000001,0.07,0.22,3
125.51272400,125512724,0.0,-6.1000000000000005,0.0,4.82,197.64000000000001,197.65,0.07,0.22,3
125.51442400,125514424,0.0,-6.1000000000000005,0.0,4.82,197.65,197.66,0.07,0.22,3
125.51649000,125516490,0.0,-6.1000000000000005,0.0,4.8100000000000005,197.65,197.66,0.07,0.22,3
125.51936700,125519367,0.0,-6.09,0.0,4.8100000000000005,197.66,197.67000000000002,0.07,0.22,3
125.52167300,125521673,0.0,-6.09,0.0,4.8100000000000005,197.67000000000002,197.68,0.07,0.22,3
125.52431200,125524312,0.0,-6.09,0.0,4.8100000000000005,197.67000000000002,197.68,0.07,0.22,3
125.52821700,125528217,0.0,-6.09,0.0,4.8100000000000005,197.68,197.69,0.07,0.22,3
125.52970900,125529709,0.0,-6.08,0.0,4.8,197.69,197.70000000000002,0.07,0.22,3
125.53202000,125532020,0.0,-6.08,0.0,4.8,197.69,197.70000000000002,0.07,0.22,3
125.53476800,125534768,0.0,-6.08,0.0,4.8,197.70000000000002,197.71,0.07,0.22,3
125.53721500,125537215,0.0,-6.08,0.0,4.8,197.70000000000002,197.71,0.07,0.22,3
125.53954000,125539540,0.0,-6.08,0.0,4.8,197.71,197.72,0.07,0.22,3
125.54373000,125543730,0.0,-6.07,0.0,4.79,197.72,197.73000000000002,0.07,0.22,3
125.54518900,125545189,0.0,-6.07,0.0,4.79,197.72,197.73000000000002,0.07,0.22,3
125.54934800,125549348,0.0,-6.07,0.0,4.79,197.73000000000002,197.74,0.07,0.22,3
125.55125900,125551259,0.0,-6.07,0.0,4.79,197.74,197.75,0.07,0.22,3
125.55461100,125554611,0.0,-6.07,0.0,4.79,197.74,197.75,0.07,0.22,3
125.55595800,125555958,0.0,-6.07,0.0,4.79,197.75,197.76,0.07,0.22,3
125.56010600,125560106,0.0,-6.0600000000000005,0.0,4.78,197.75,197.76,0.07,0.22,3
125.56277500,125562775,0.0,-6.0600000000000005,0.0,4.78,197.76,197.77,0.07,0.22,3
125.56498700,125564987,0.0,-6.0600000000000005,0.0,4.78,197.76,197.77,0.07,0.22,3
125.56670300,125566703,0.0,-6.0600000000000005,0.0,4.78,197.77,197.78,0.07,0.22,3
125.57017400,125570174,0.0,-6.0600000000000005,0.0,4.78,197.77,197.78,0.07,0.22,3
125.57147600,125571476,0.0,-6.0600000000000005,0.0,4.78,197.78,197.79,0.07,0.22,3
125.57519400,125575194,0.0,-6.05,0.0,4.78,197.78,197.79,0.07,0.22,3
125.57832700,125578327,0.0,-6.05,0.0,4.7700000000000005,197.78,197.79,0.07,0.22,3
125.58000900,125580009,0.0,-6.05,0.0,4.7700000000000005,197.79,197.8,0.07,0.22,3
125.58226900,125582269,0.0,-6.05,0.0,4.7700000000000005,197.79,197.8,0.07,0.22,3
125.58541000,125585410,0.0,-6.05,0.0,4.7700000000000005,197.8,197.81,0.07,0.22,3
125.59008200,125590082,0.0,-6.05,0.0,4.7700000000000005,197.8,197.81,0.07,0.22,3
125.59154100,125591541,0.0,-6.05,0.0,4.7700000000000005,197.8,197.81,0.07,0.22,3
125.59524400,125595244,0.0,-6.05,0.0,4.7700000000000005,197.81,197.82,0.08,0.22,3
125.59649300,125596493,0.0,-6.04,0.0,4.7700000000000005,197.81,197.82,0.08,0.22,3
125.60034800,125600348,0.0,-6.04,0.0,4.7700000000000005,197.81,197.82,0.08,0.22,3
125.60214400,125602144,0.0,-6.04,0.0,4.7700000000000005,197.82,197.83,0.08,0.22,3
125.60546400,125605464,0.0,-6.04,0.0,4.76,197.82,197.83,0.08,0.22,3
125.61042800,125610428,0.0,-6.04,0.0,4.76,197.83,197.84,0.08,0.22,3
125.61191500,125611915,0.0,-6.03,0.0,4.76,197.84,197.85,0.08,0.22,3
125.61505500,125615055,0.0,-6.03,0.0,4.76,197.84,197.85,0.08,0.22,3
125.61689100,125616891,0.0,-6.03,0.0,4.75,197.85,197.86,0.08,0.22,3
125.62021900,125620219,0.0,-6.03,0.0,4.75,197.86,197.87,0.08,0.22,3
125.62176400,125621764,0.0,-6.0200000000000005,0.0,4.75,197.86,197.87,0.08,0.22,3
125.62535900,125625359,0.0,-6.0200000000000005,0.0,4.75,197.87,197.88,0.08,0.22,3
125.62686800,125626868,0.0,-6.0200000000000005,0.0,4.75,197.88,197.89000000000001,0.08,0.22,3
125.63000900,125630009,0.0,-6.0200000000000005,0.0,4.74,197.88,197.89000000000001,0.08,0.22,3
125.63187600,125631876,0.0,-6.01,0.0,4.74,197.89000000000001,197.9,0.08,0.22,3
125.63520100,125635201,0.0,-6.01,0.0,4.74,197.89000000000001,197.9,0.08,0.22,3
125.63671100,125636711,0.0,-6.01,0.0,4.74,197.9,197.91,0.08,0.22,3
125.64068100,125640681,0.0,-6.01,0.0,4.73,197.91,197.92000000000002,0.08,0.22,3
125.64209100,125642091,0.0,-6.0,0.0,4.73,197.91,197.92000000000002,0.08,0.22,3
125.64504400,125645044,0.0,-6.0,0.0,4.73,197.92000000000002,197.93,0.08,0.22,3
125.64684500,125646845,0.0,-6.0,0.0,4.73,197.92000000000002,197.93,0.08,0.22,3
125.65021100,125650211,0.0,-6.0,0.0,4.73,197.93,197.94,0.08,0.22,3
125.65177000,125651770,0.0,-6.0,0.0,4.72,197.94,197.95000000000002,0.08,0.22,3
125.65521000,125655210,0.0,-5.99,0.0,4.72,197.94,197.95000000000002,0.08,0.22,3
125.65691800,125656918,0.0,-5.99,0.0,4.72,197.95000000000002,197.96,0.08,0.22,3
125.66002700,125660027,0.0,-5.99,0.0,4.72,197.95000000000002,197.96,0.08,0.22,3
125.66189100,125661891,0.0,-5.99,0.0,4.72,197.96,197.97,0.08,0.22,3
125.66522600,125665226,0.0,-5.99,0.0,4.71,197.96,197.97,0.08,0.22,3
125.66675300,125666753,0.0,-5.98,0.0,4.71,197.97,197.98000000000002,0.08,0.22,3
125.67021000,125670210,0.0,-5.98,0.0,4.71,197.97,197.98000000000002,0.08,0.22,3
125.67187800,125671878,0.0,-5.98,0.0,4.71,197.98000000000002,197.99,0.08,0.22,3
125.67500400,125675004,0.0,-5.98,0.0,4.71,197.98000000000002,197.99,0.08,0.22,3
125.67687600,125676876,0.0,-5.98,0.0,4.71,197.99,198.0,0.08,0.22,3
125.68018800,125680188,0.0,-5.97,0.0,4.71,197.99,198.0,0.08,0.22,3
125.68170300,125681703,0.0,-5.97,0.0,4.7,198.0,198.01,0.08,0.22,3
125.68524900,125685249,0.0,-5.97,0.0,4.7,198.0,198.01,0.08,0.22,3
125.68691400,125686914,0.0,-5.97,0.0,4.7,198.0,198.01,0.08,0.22,3
125.68996900,125689969,0.0,-5.97,0.0,4.7,198.01,198.02,0.08,0.22,3
125.69187600,125691876,0.0,-5.96,0.0,4.7,198.01,198.02,0.08,0.22,3
125.69515800,125695158,0.0,-5.96,0.0,4.7,198.02,198.03,0.08,0.22,3
125.69669500,125696695,0.0,-5.96,0.0,4.7,198.02,198.03,0.08,0.22,3
125.70065000,125700650,0.0,-5.96,0.0,4.7,198.02,198.03,0.08,0.22,3
125.70226600,125702266,0.0,-5.96,0.0,4.7,198.03,198.04,0.08,0.22,3
125.70553400,125705534,0.0,-5.96,0.0,4.7,198.03,198.04,0.08,0.21,3
125.70728100,125707281,0.0,-5.96,0.0,4.69,198.03,198.04,0.08,0.21,3
125.71107200,125711072,0.0,-5.95,0.0,4.69,198.04,198.05,0.08,0.21,3
125.71241100,125712411,0.0,-5.95,0.0,4.69,198.04,198.05,0.08,0.21,3
125.71567000,125715670,0.0,-5.95,0.0,4.69,198.05,198.06,0.08,0.21,3
125.71757100,125717571,0.0,-5.94,0.0,4.68,198.06,198.07,0.08,0.21,3
125.72050300,125720503,0.0,-5.94,0.0,4.68,198.06,198.07,0.08,0.21,3
125.72255100,125722551,0.0,-5.94,0.0,4.68,198.07,198.08,0.08,0.21,3
125.72576100,125725761,0.0,-5.94,0.0,4.68,198.07,198.08,0.08,0.21,3
125.72736100,125727361,0.0,-5.93,0.0,4.67,198.08,198.09,0.08,0.21,3
125.73067400,125730674,0.0,-5.93,0.0,4.67,198.08,198.09,0.08,0.21,3
125.73253900,125732539,0.0,-5.93,0.0,4.67,198.09,198.1,0.08,0.21,3
125.73546200,125735462,0.0,-5.93,0.0,4.67,198.1,198.11,0.08,0.21,3
125.73755600,125737556,0.0,-5.92,0.0,4.66,198.1,198.11,0.08,0.21,3
125.74067000,125740670,0.0,-5.92,0.0,4.66,198.11,198.12,0.08,0.21,3
125.74238900,125742389,0.0,-5.92,0.0,4.66,198.11,198.12,0.08,0.21,3
125.74569900,125745699,0.0,-5.91,0.0,4.66,198.12,198.13,0.08,0.21,3
125.74751600,125747516,0.0,-5.91,0.0,4.65,198.12,198.13,0.08,0.21,3
125.75058300,125750583,0.0,-5.91,0.0,4.65,198.13,198.14000000000001,0.08,0.21,3
125.75253700,125752537,0.0,-5.91,0.0,4.65,198.13,198.14000000000001,0.08,0.21,3
125.75579100,125755791,0.0,-5.9,0.0,4.65,198.14000000000001,198.15,0.08,0.21,3
125.75739800,125757398,0.0,-5.9,0.0,4.65,198.14000000000001,198.15,0.08,0.21,3
125.76085400,125760854,0.0,-5.9,0.0,4.64,198.14000000000001,198.15,0.08,0.21,3
125.76259000,125762590,0.0,-5.9,0.0,4.64,198.15,198.16,0.08,0.21,3
125.76548800,125765488,0.0,-5.89,0.0,4.64,198.15,198.16,0.08,0.21,3
125.76753900,125767539,0.0,-5.89,0.0,4.64,198.16,198.17000000000002,0.08,0.21,3
125.77067900,125770679,0.0,-5.89,0.0,4.63,198.16,198.17000000000002,0.08,0.21,3
125.77240400,125772404,0.0,-5.89,0.0,4.63,198.17000000000002,198.18,0.08,0.21,3
125.77569200,125775692,0.0,-5.89,0.0,4.63,198.17000000000002,198.18,0.08,0.21,3
125.77753000,125777530,0.0,-5.88,0.0,4.63,198.18,198.19,0.08,0.21,3
125.78050300,125780503,0.0,-5.88,0.0,4.63,198.18,198.19,0.08,0.21,3
125.78254100,125782541,0.0,-5.88,0.0,4.62,198.18,198.19,0.08,0.21,3
125.78568000,125785680,0.0,-5.88,0.0,4.62,198.19,198.20000000000002,0.08,0.21,3
125.78767500,125787675,0.0,-5.87,0.0,4.62,198.19,198.20000000000002,0.08,0.21,3
125.79090400,125790904,0.0,-5.87,0.0,4.62,198.19,198.20000000000002,0.08,0.21,3
125.79254100,125792541,0.0,-5.87,0.0,4.62,198.20000000000002,198.21,0.08,0.21,3
125.79550400,125795504,0.0,-5.87,0.0,4.62,198.20000000000002,198.21,0.08,0.21,3
125.79752500,125797525,0.0,-5.87,0.0,4.62,198.20000000000002,198.21,0.08,0.21,3
125.80065400,125800654,0.0,-5.86,0.0,4.61,198.20000000000002,198.21,0.08,0.21,3
125.80257800,125802578,0.0,-5.86,0.0,4.61,198.21,198.22,0.08,0.21,3
125.80592300,125805923,0.0,-5.86,0.0,4.61,198.21,198.22,0.08,0.21,3
125.80784600,125807846,0.0,-5.86,0.0,4.61,198.21,198.22,0.08,0.21,3
125.81043800,125810438,0.0,-5.86,0.0,4.61,198.22,198.23000000000002,0.08,0.21,3
125.81254400,125812544,0.0,-5.8500000000000005,0.0,4.6000000000000005,198.22,198.23000000000002,0.08,0.21,3
125.81569000,125815690,0.0,-5.8500000000000005,0.0,4.6000000000000005,198.23000000000002,198.24,0.08,0.21,3
125.81736300,125817363,0.0,-5.8500000000000005,0.0,4.6000000000000005,198.24,198.25,0.08,0.21,3
125.82067100,125820671,0.0,-5.84,0.0,4.6000000000000005,198.24,198.25,0.08,0.21,3
125.82274600,125822746,0.0,-5.84,0.0,4.59,198.25,198.26,0.08,0.21,3
125.82547600,125825476,0.0,-5.84,0.0,4.59,198.25,198.26,0.08,0.21,3
125.82763400,125827634,0.0,-5.83,0.0,4.59,198.26,198.27,0.08,0.21,3
125.83078600,125830786,0.0,-5.83,0.0,4.58,198.26,198.27,0.08,0.21,3
125.83299000,125832990,0.0,-5.83,0.0,4.58,198.27,198.28,0.08,0.21,3
125.83575900,125835759,0.0,-5.82,0.0,4.58,198.27,198.28,0.08,0.21,3
125.83821500,125838215,0.0,-5.82,0.0,4.58,198.28,198.29,0.08,0.21,3
125.84048700,125840487,0.0,-5.82,0.0,4.57,198.28,198.29,0.08,0.21,3
125.84288500,125842885,0.0,-5.8100000000000005,0.0,4.57,198.28,198.29,0.08,0.21,3
125.84621400,125846214,0.0,-5.8100000000000005,0.0,4.57,198.29,198.3,0.08,0.21,3
125.84815900,125848159,0.0,-5.8100000000000005,0.0,4.57,198.29,198.3,0.08,0.21,3
125.85068500,125850685,0.0,-5.8,0.0,4.5600000000000005,198.3,198.31,0.08,0.21,3
125.85339300,125853393,0.0,-5.8,0.0,4.5600000000000005,198.3,198.31,0.08,0.21,3
125.85549300,125855493,0.0,-5.8,0.0,4.5600000000000005,198.3,198.31,0.08,0.21,3
125.85839100,125858391,0.0,-5.8,0.0,4.5600000000000005,198.31,198.32,0.08,0.21,3
125.86169700,125861697,0.0,-5.79,0.0,4.55,198.31,198.32,0.08,0.21,3
125.86330700,125863307,0.0,-5.79,0.0,4.55,198.32,198.33,0.08,0.21,3
125.86567800,125865678,0.0,-5.79,0.0,4.55,198.32,198.33,0.08,0.21,3
125.86849500,125868495,0.0,-5.78,0.0,4.55,198.32,198.33,0.08,0.21,3
125.87049700,125870497,0.0,-5.78,0.0,4.54,198.33,198.34,0.08,0.21,3
125.87350800,125873508,0.0,-5.78,0.0,4.54,198.33,198.34,0.08,0.21,3
125.87718800,125877188,0.0,-5.78,0.0,4.54,198.33,198.34,0.08,0.21,3
125.87841300,125878413,0.0,-5.78,0.0,4.54,198.34,198.35,0.08,0.21,3
125.88123700,125881237,0.0,-5.7700000000000005,0.0,4.54,198.34,198.35,0.08,0.21,3
125.88368000,125883680,0.0,-5.7700000000000005,0.0,4.53,198.34,198.35,0.08,0.21,3
125.88598200,125885982,0.0,-5.7700000000000005,0.0,4.53,198.35,198.36,0.08,0.21,3
125.88870400,125888704,0.0,-5.7700000000000005,0.0,4.53,198.35,198.36,0.08,0.21,3
125.89115600,125891156,0.0,-5.7700000000000005,0.0,4.53,198.35,198.36,0.08,0.21,3
125.89345900,125893459,0.0,-5.76,0.0,4.53,198.36,198.37,0.08,0.21,3
125.89677000,125896770,0.0,-5.76,0.0,4.5200000000000005,198.36,198.37,0.08,0.21,3
125.89861500,125898615,0.0,-5.76,0.0,4.5200000000000005,198.36,198.37,0.08,0.21,3
125.90093400,125900934,0.0,-5.76,0.0,4.5200000000000005,198.36,198.37,0.08,0.21,3
125.90380300,125903803,0.0,-5.76,0.0,4.5200000000000005,198.37,198.38,0.08,0.21,3
125.90643300,125906433,0.0,-5.76,0.0,4.5200000000000005,198.37,198.38,0.08,0.21,3
125.90847100,125908471,0.0,-5.75,0.0,4.51,198.37,198.38,0.08,0.21,3
125.91253000,125912530,0.0,-5.75,0.0,4.51,198.38,198.39000000000001,0.08,0.21,3
125.91402900,125914029,0.0,-5.75,0.0,4.51,198.39000000000001,198.4,0.08,0.21,3
125.91640600,125916406,0.0,-5.74,0.0,4.5,198.39000000000001,198.4,0.08,0.21,3
125.91905000,125919050,0.0,-5.74,0.0,4.5,198.4,198.41,0.08,0.21,3
125.92155500,125921555,0.0,-5.74,0.0,4.5,198.4,198.41,0.08,0.21,3
125.92392800,125923928,0.0,-5.73,0.0,4.49,198.41,198.42000000000002,0.08,0.21,3
125.92767900,125927679,0.0,-5.73,0.0,4.49,198.41,198.42000000000002,0.08,0.21,3
125.92917100,125929171,0.0,-5.72,0.0,4.49,198.42000000000002,198.43,0.08,0.21,3
125.93146800,125931468,0.0,-5.72,0.0,4.48,198.42000000000002,198.43,0.08,0.21,3
125.93406600,125934066,0.0,-5.72,0.0,4.48,198.43,198.44,0.08,0.21,3
125.93654200,125936542,0.0,-5.71,0.0,4.48,198.43,198.44,0.08,0.21,3
125.93893800,125938938,0.0,-5.71,0.0,4.48,198.44,198.45000000000002,0.08,0.21,3
125.94154000,125941540,0.0,-5.71,0.0,4.47,198.44,198.45000000000002,0.08,0.21,3
125.94409300,125944093,0.0,-5.71,0.0,4.47,198.45000000000002,198.46,0.08,0.21,3
125.94697300,125946973,0.0,-5.7,0.0,4.47,198.45000000000002,198.46,0.08,0.21,3
125.94946700,125949467,0.0,-5.7,0.0,4.46,198.45000000000002,198.46,0.08,0.21,3
125.95155500,125951555,0.0,-5.7,0.0,4.46,198.46,198.47,0.08,0.21,3
125.95441300,125954413,0.0,-5.69,0.0,4.46,198.46,198.47,0.08,0.21,3
125.95656300,125956563,0.0,-5.69,0.0,4.45,198.47,198.48000000000002,0.08,0.21,3
125.95954800,125959548,0.0,-5.69,0.0,4.45,198.47,198.48000000000002,0.08,0.21,3
125.96244600,125962446,0.0,-5.69,0.0,4.45,198.47,198.48000000000002,0.08,0.21,3
125.96454200,125964542,0.0,-5.68,0.0,4.45,198.48000000000002,198.49,0.08,0.21,3
125.96675200,125966752,0.0,-5.68,0.0,4.44,198.48000000000002,198.49,0.08,0.21,3
125.96947100,125969471,0.0,-5.68,0.0,4.44,198.49,198.5,0.08,0.21,3
125.97149900,125971499,0.0,-5.67,0.0,4.44,198.49,198.5,0.08,0.21,3
125.97466400,125974664,0.0,-5.67,0.0,4.44,198.49,198.5,0.08,0.21,3
125.97811200,125978112,0.0,-5.67,0.0,4.44,198.5,198.51,0.08,0.21,3
125.97967600,125979676,0.0,-5.67,0.0,4.43,198.5,198.51,0.08,0.21,3
125.98230600,125982306,0.0,-5.66,0.0,4.43,198.5,198.51,0.08,0.21,3
125.98455300,125984553,0.0,-5.66,0.0,4.43,198.51,198.52,0.08,0.21,3
125.98713900,125987139,0.0,-5.66,0.0,4.43,198.51,198.52,0.08,0.21,3
125.98980200,125989802,0.0,-5.66,0.0,4.43,198.51,198.52,0.08,0.21,3
125.99355600,125993556,0.0,-5.66,0.0,4.42,198.52,198.53,0.08,0.21,3
125.99504700,125995047,0.0,-5.65,0.0,4.42,198.52,198.53,0.08,0.21,3
125.99767800,125997678,0.0,-5.65,0.0,4.42,198.52,198.53,0.08,0.21,3
125.99994200,125999942,0.0,-5.65,0.0,4.42,198.53,198.54,0.08,0.21,3
126.00256400,126002564,0.0,-5.65,0.0,4.42,198.53,198.54,0.08,0.21,3
126.00523500,126005235,0.0,-5.65,0.0,4.42,198.53,198.54,0.08,0.21,3
126.00743900,126007439,0.0,-5.64,0.0,4.41,198.53,198.54,0.08,0.2,3
126.01038800,126010388,0.0,-5.64,0.0,4.41,198.54,198.55,0.08,0.2,3
126.01346000,126013460,0.0,-5.64,0.0,4.41,198.54,198.55,0.08,0.2,3
126.01490300,126014903,0.0,-5.64,0.0,4.41,198.54,198.55,0.08,0.2,3
126.01757800,126017578,0.0,-5.63,0.0,4.4,198.55,198.56,0.08,0.2,3
126.02007200,126020072,0.0,-5.63,0.0,4.4,198.55,198.56,0.08,0.2,3
126.02244800,126022448,0.0,-5.63,0.0,4.4,198.56,198.57,0.08,0.2,3
126.02509400,126025094,0.0,-5.62,0.0,4.39,198.56,198.57,0.08,0.2,3
126.02870800,126028708,0.0,-5.62,0.0,4.39,198.57,198.58,0.08,0.2,3
126.02999600,126029996,0.0,-5.62,0.0,4.39,198.57,198.58,0.08,0.2,3
126.03269200,126032692,0.0,-5.61,0.0,4.38,198.57,198.58,0.08,0.2,3
126.03509600,126035096,0.0,-5.61,0.0,4.38,198.58,198.59,0.08,0.2,3
126.03739800,126037398,0.0,-5.61,0.0,4.38,198.58,198.59,0.08,0.2,3
126.04010000,126040100,0.0,-5.6000000000000005,0.0,4.37,198.59,198.6,0.08,0.2,3
126.04257800,126042578,0.0,-5.6000000000000005,0.0,4.37,198.59,198.6,0.08,0.2,3
126.04494000,126044940,0.0,-5.59,0.0,4.37,198.59,198.6,0.08,0.2,3
126.04815000,126048150,0.0,-5.59,0.0,4.37,198.6,198.61,0.08,0.2,3
126.05075100,126050751,0.0,-5.59,0.0,4.36,198.6,198.61,0.08,0.2,3
126.05243700,126052437,0.0,-5.58,0.0,4.36,198.6,198.61,0.08,0.2,3
126.05578700,126055787,0.0,-5.58,0.0,4.36,198.61,198.62,0.08,0.2,3
126.05752300,126057523,0.0,-5.58,0.0,4.3500000000000005,198.61,198.62,0.08,0.2,3
126.06052500,126060525,0.0,-5.58,0.0,4.3500000000000005,198.61,198.62,0.08,0.2,3
126.06367600,126063676,0.0,-5.57,0.0,4.3500000000000005,198.62,198.63,0.08,0.2,3
126.06575600,126065756,0.0,-5.57,0.0,4.3500000000000005,198.62,198.63,0.08,0.2,3
126.06749500,126067495,0.0,-5.57,0.0,4.34,198.62,198.63,0.08,0.2,3
126.07086000,126070860,0.0,-5.5600000000000005,0.0,4.34,198.63,198.64000000000001,0.08,0.2,3
126.07254600,126072546,0.0,-5.5600000000000005,0.0,4.34,198.63,198.64000000000001,0.08,0.2,3
126.07574700,126075747,0.0,-5.5600000000000005,0.0,4.33,198.63,198.64000000000001,0.08,0.2,3
126.07921700,126079217,0.0,-5.55,0.0,4.33,198.64000000000001,198.65,0.08,0.2,3
126.08093200,126080932,0.0,-5.55,0.0,4.33,198.64000000000001,198.65,0.08,0.2,3
126.08306100,126083061,0.0,-5.55,0.0,4.33,198.64000000000001,198.65,0.08,0.2,3
126.08596500,126085965,0.0,-5.55,0.0,4.32,198.64000000000001,198.65,0.08,0.2,3
126.08826300,126088263,0.0,-5.54,0.0,4.32,198.65,198.66,0.08,0.2,3
126.09081300,126090813,0.0,-5.54,0.0,4.32,198.65,198.66,0.08,0.2,3
126.09467700,126094677,0.0,-5.54,0.0,4.32,198.65,198.66,0.08,0.2,3
126.09609900,126096099,0.0,-5.54,0.0,4.32,198.65,198.66,0.08,0.2,3
126.10081600,126100816,0.0,-5.54,0.0,4.3100000000000005,198.66,198.67000000000002,0.08,0.2,3
126.10227800,126102278,0.0,-5.53,0.0,4.3100000000000005,198.66,198.67000000000002,0.08,0.2,3
126.10607000,126106070,0.0,-5.53,0.0,4.3100000000000005,198.66,198.67000000000002,0.08,0.2,3
126.10744400,126107444,0.0,-5.53,0.0,4.3100000000000005,198.66,198.67000000000002,0.08,0.2,3
126.11138800,126111388,0.0,-5.53,0.0,4.3100000000000005,198.67000000000002,198.68,0.08,0.2,3
126.11442500,126114425,0.0,-5.53,0.0,4.3100000000000005,198.67000000000002,198.68,0.08,0.2,3
126.11592300,126115923,0.0,-5.5200000000000005,0.0,4.3,198.67000000000002,198.68,0.08,0.2,3
126.11840600,126118406,0.0,-5.5200000000000005,0.0,4.3,198.67000000000002,198.68,0.08,0.2,3
126.12113500,126121135,0.0,-5.51,0.0,4.29,198.68,198.69,0.08,0.2,3
126.12325400,126123254,0.0,-5.51,0.0,4.29,198.68,198.69,0.08,0.2,3
126.12614900,126126149,0.0,-5.5,0.0,4.29,198.69,198.70000000000002,0.08,0.2,3
126.12984300,126129843,0.0,-5.5,0.0,4.28,198.69,198.70000000000002,0.08,0.2,3
126.13111100,126131111,0.0,-5.5,0.0,4.28,198.69,198.70000000000002,0.08,0.2,3
126.13630500,126136305,0.0,-5.49,0.0,4.28,198.70000000000002,198.71,0.08,0.2,3
126.13778700,126137787,0.0,-5.49,0.0,4.2700000000000005,198.70000000000002,198.71,0.08,0.2,3
126.14108900,126141089,0.0,-5.49,0.0,4.2700000000000005,198.70000000000002,198.71,0.08,0.2,3
126.14277800,126142778,0.0,-5.48,0.0,4.2700000000000005,198.71,198.72,0.08,0.2,3
126.14618800,126146188,0.0,-5.48,0.0,4.26,198.71,198.72,0.08,0.2,3
126.14765100,126147651,0.0,-5.48,0.0,4.26,198.71,198.72,0.08,0.2,3
126.15149400,126151494,0.0,-5.47,0.0,4.26,198.72,198.73000000000002,0.08,0.2,3
126.15295500,126152955,0.0,-5.47,0.0,4.25,198.72,198.73000000000002,0.08,0.2,3
126.15641800,126156418,0.0,-5.47,0.0,4.25,198.72,198.73000000000002,0.08,0.2,3
126.15791600,126157916,0.0,-5.46,0.0,4.25,198.72,198.73000000000002,0.08,0.2,3
126.16158100,126161581,0.0,-5.46,0.0,4.24,198.73000000000002,198.74,0.08,0.2,3
126.16452800,126164528,0.0,-5.46,0.0,4.24,198.73000000000002,198.74,0.08,0.2,3
126.16653800,126166538,0.0,-5.45,0.0,4.24,198.73000000000002,198.74,0.08,0.2,3
126.16852300,126168523,0.0,-5.45,0.0,4.24,198.73000000000002,198.74,0.08,0.2,3
126.17152700,126171527,0.0,-5.45,0.0,4.23,198.74,198.75,0.08,0.2,3
126.17347500,126173475,0.0,-5.44,0.0,4.23,198.74,198.75,0.08,0.2,3
126.17664500,126176645,0.0,-5.44,0.0,4.23,198.74,198.75,0.08,0.2,3
126.18009200,126180092,0.0,-5.44,0.0,4.23,198.74,198.75,0.08,0.2,3
126.18171800,126181718,0.0,-5.43,0.0,4.22,198.75,198.76,0.08,0.2,3
126.18408500,126184085,0.0,-5.43,0.0,4.22,198.75,198.76,0.08,0.2,3
126.18702000,126187020,0.0,-5.43,0.0,4.22,198.75,198.76,0.08,0.2,3
126.19182300,126191823,0.0,-5.43,0.0,4.22,198.75,198.76,0.08,0.2,3
126.19329800,126193298,0.0,-5.42,0.0,4.21,198.76,198.77,0.08,0.2,3
126.19614500,126196145,0.0,-5.42,0.0,4.21,198.76,198.77,0.08,0.2,3
126.19828100,126198281,0.0,-5.42,0.0,4.21,198.76,198.77,0.08,0.2,3
126.20172300,126201723,0.0,-5.41,0.0,4.21,198.76,198.77,0.08,0.2,3
126.20309800,126203098,0.0,-5.41,0.0,4.2,198.76,198.77,0.08,0.2,3
126.20695800,126206958,0.0,-5.41,0.0,4.2,198.77,198.78,0.08,0.2,3
126.21175800,126211758,0.0,-5.41,0.0,4.2,198.77,198.78,0.08,0.2,3
126.21300300,126213003,0.0,-5.41,0.0,4.2,198.77,198.78,0.08,0.2,3
126.21678500,126216785,0.0,-5.4,0.0,4.2,198.77,198.78,0.08,0.2,3
126.21850000,126218500,0.0,-5.4,0.0,4.2,198.77,198.78,0.08,0.19,3
126.22141500,126221415,0.0,-5.4,0.0,4.19,198.77,198.78,0.08,0.19,3
126.22346300,126223463,0.0,-5.39,0.0,4.19,198.78,198.79,0.08,0.19,3
126.22674000,126226740,0.0,-5.39,0.0,4.19,198.78,198.79,0.08,0.19,3
126.22797500,126227975,0.0,-5.38,0.0,4.18,198.78,198.79,0.08,0.19,3
126.23172100,126231721,0.0,-5.38,0.0,4.18,198.79,198.8,0.08,0.19,3
126.23315400,126233154,0.0,-5.38,0.0,4.17,198.79,198.8,0.08,0.19,3
126.23657300,126236573,0.0,-5.37,0.0,4.17,198.79,198.8,0.08,0.19,3
126.23817200,126238172,0.0,-5.37,0.0,4.17,198.8,198.81,0.08,0.19,3
126.24175900,126241759,0.0,-5.36,0.0,4.16,198.8,198.81,0.08,0.19,3
126.24302600,126243026,0.0,-5.36,0.0,4.16,198.8,198.81,0.08,0.19,3
126.24683400,126246834,0.0,-5.36,0.0,4.16,198.8,198.81,0.08,0.19,3
126.24826800,126248268,0.0,-5.3500000000000005,0.0,4.15,198.81,198.82,0.08,0.19,3
126.25153600,126251536,0.0,-5.3500000000000005,0.0,4.15,198.81,198.82,0.08,0.19,3
126.25320200,126253202,0.0,-5.34,0.0,4.15,198.81,198.82,0.08,0.19,3
126.25666800,126256668,0.0,-5.34,0.0,4.14,198.81,198.82,0.08,0.19,3
126.25800800,126258008,0.0,-5.34,0.0,4.14,198.82,198.83,0.08,0.19,3
126.26172300,126261723,0.0,-5.33,0.0,4.14,198.82,198.83,0.08,0.19,3
126.26318600,126263186,0.0,-5.33,0.0,4.13,198.82,198.83,0.08,0.19,3
126.26647100,126266471,0.0,-5.33,0.0,4.13,198.82,198.83,0.08,0.19,3
126.26818400,126268184,0.0,-5.32,0.0,4.13,198.83,198.84,0.08,0.19,3
126.27165300,126271653,0.0,-5.32,0.0,4.12,198.83,198.84,0.08,0.19,3
126.27300600,126273006,0.0,-5.3100000000000005,0.0,4.12,198.83,198.84,0.08,0.19,3
126.27724800,126277248,0.0,-5.3100000000000005,0.0,4.12,198.83,198.84,0.08,0.19,3
126.27873100,126278731,0.0,-5.3100000000000005,0.0,4.11,198.84,198.85,0.08,0.19,3
126.28149100,126281491,0.0,-5.3,0.0,4.11,198.84,198.85,0.08,0.19,3
126.28375700,126283757,0.0,-5.3,0.0,4.11,198.84,198.85,0.08,0.19,3
126.28669700,126286697,0.0,-5.3,0.0,4.11,198.84,198.85,0.08,0.19,3
126.28886400,126288864,0.0,-5.3,0.0,4.1,198.85,198.86,0.08,0.19,3
126.29291000,126292910,0.0,-5.29,0.0,4.1,198.85,198.86,0.08,0.19,3
126.29450300,126294503,0.0,-5.29,0.0,4.1,198.85,198.86,0.08,0.19,3
126.29684000,126296840,0.0,-5.29,0.0,4.09,198.85,198.86,0.08,0.19,3
126.29945200,126299452,0.0,-5.28,0.0,4.09,198.85,198.86,0.08,0.19,3
126.30194400,126301944,0.0,-5.28,0.0,4.09,198.85,198.86,0.08,0.19,3
126.30437700,126304377,0.0,-5.28,0.0,4.09,198.86,198.87,0.08,0.19,3
126.30812600,126308126,0.0,-5.28,0.0,4.09,198.86,198.87,0.08,0.19,3
126.31174500,126311745,0.0,-5.2700000000000005,0.0,4.08,198.86,198.87,0.08,0.19,3
126.31298900,126312989,0.0,-5.2700000000000005,0.0,4.08,198.86,198.87,0.08,0.19,3
126.31675300,126316753,0.0,-5.2700000000000005,0.0,4.08,198.86,198.87,0.08,0.19,3
126.31830600,126318306,0.0,-5.2700000000000005,0.0,4.08,198.86,198.87,0.08,0.19,3
126.32156100,126321561,0.0,-5.26,0.0,4.08,198.86,198.87,0.08,0.19,3
126.32397600,126323976,0.0,-5.26,0.0,4.07,198.87,198.88,0.08,0.19,3
126.32690900,126326909,0.0,-5.26,0.0,4.07,198.87,198.88,0.08,0.19,3
126.32817700,126328177,0.0,-5.26,0.0,4.07,198.87,198.88,0.08,0.19,3
126.33165100,126331651,0.0,-5.25,0.0,4.0600000000000005,198.87,198.88,0.08,0.19,3
126.33337300,126333373,0.0,-5.25,0.0,4.0600000000000005,198.87,198.88,0.08,0.19,3
126.33652200,126336522,0.0,-5.24,0.0,4.05,198.88,198.89000000000001,0.08,0.19,3
126.33845200,126338452,0.0,-5.24,0.0,4.05,198.88,198.89000000000001,0.08,0.19,3
126.34173100,126341731,0.0,-5.23,0.0,4.05,198.88,198.89000000000001,0.08,0.19,3
126.34378300,126343783,0.0,-5.23,0.0,4.04,198.88,198.89000000000001,0.08,0.19,3
126.34673000,126346730,0.0,-5.22,0.0,4.04,198.88,198.89000000000001,0.08,0.19,3
126.34894100,126348941,0.0,-5.22,0.0,4.03,198.89000000000001,198.9,0.08,0.19,3
126.35152000,126351520,0.0,-5.21,0.0,4.03,198.89000000000001,198.9,0.08,0.19,3
126.35391500,126353915,0.0,-5.21,0.0,4.03,198.89000000000001,198.9,0.08,0.19,3
126.35671600,126356716,0.0,-5.2,0.0,4.0200000000000005,198.89000000000001,198.9,0.08,0.19,3
126.35886500,126358865,0.0,-5.2,0.0,4.0200000000000005,198.9,198.91,0.08,0.19,3
126.36216200,126362162,0.0,-5.19,0.0,4.0200000000000005,198.9,198.91,0.08,0.19,3
126.36399200,126363992,0.0,-5.19,0.0,4.01,198.9,198.91,0.08,0.19,3
126.36643000,126366430,0.0,-5.19,0.0,4.01,198.9,198.91,0.08,0.19,3
126.36903400,126369034,0.0,-5.18,0.0,4.01,198.9,198.91,0.08,0.19,3
126.37164700,126371647,0.0,-5.18,0.0,4.0,198.9,198.91,0.08,0.19,3
126.37387800,126373878,0.0,-5.17,0.0,4.0,198.91,198.92000000000002,0.08,0.19,3
126.37671400,126376714,0.0,-5.17,0.0,4.0,198.91,198.92000000000002,0.08,0.19,3
126.37906900,126379069,0.0,-5.17,0.0,3.99,198.91,198.92000000000002,0.08,0.19,3
126.38154600,126381546,0.0,-5.16,0.0,3.99,198.91,198.92000000000002,0.08,0.19,3
126.38414500,126384145,0.0,-5.16,0.0,3.99,198.91,198.92000000000002,0.08,0.19,3
126.38674000,126386740,0.0,-5.15,0.0,3.98,198.91,198.92000000000002,0.08,0.19,3
126.38896600,126388966,0.0,-5.15,0.0,3.98,198.92000000000002,198.93,0.08,0.19,3
126.39171000,126391710,0.0,-5.15,0.0,3.98,198.92000000000002,198.93,0.08,0.19,3
126.39415700,126394157,0.0,-5.14,0.0,3.97,198.92000000000002,198.93,0.08,0.19,3
126.39704000,126397040,0.0,-5.14,0.0,3.97,198.92000000000002,198.93,0.08,0.19,3
126.39916300,126399163,0.0,-5.14,0.0,3.97,198.92000000000002,198.93,0.07,0.19,3
126.40214300,126402143,0.0,-5.13,0.0,3.97,198.92000000000002,198.93,0.07,0.19,3
126.40416400,126404164,0.0,-5.13,0.0,3.96,198.93,198.94,0.07,0.19,3
126.40715300,126407153,0.0,-5.13,0.0,3.96,198.93,198.94,0.07,0.19,3
126.40941300,126409413,0.0,-5.13,0.0,3.96,198.93,198.94,0.07,0.19,3
126.41253000,126412530,0.0,-5.12,0.0,3.96,198.93,198.94,0.07,0.19,3
126.41442400,126414424,0.0,-5.12,0.0,3.96,198.93,198.94,0.07,0.19,3
126.41715600,126417156,0.0,-5.12,0.0,3.95,198.93,198.94,0.07,0.19,3
126.41943800,126419438,0.0,-5.11,0.0,3.95,198.93,198.94,0.07,0.19,3
126.42247300,126422473,0.0,-5.11,0.0,3.95,198.93,198.94,0.07,0.18,3
126.42475900,126424759,0.0,-5.11,0.0,3.95,198.93,198.94,0.07,0.18,3
126.42697900,126426979,0.0,-5.1000000000000005,0.0,3.94,198.94,198.95000000000002,0.07,0.18,3
126.42950100,126429501,0.0,-5.1000000000000005,0.0,3.94,198.94,198.95000000000002,0.07,0.18,3
126.43225000,126432250,0.0,-5.09,0.0,3.93,198.94,198.95000000000002,0.07,0.18,3
126.43428800,126434288,0.0,-5.09,0.0,3.93,198.95000000000002,198.96,0.07,0.18,3
126.43715800,126437158,0.0,-5.08,0.0,3.92,198.95000000000002,198.96,0.07,0.18,3
126.43959000,126439590,0.0,-5.08,0.0,3.92,198.95000000000002,198.96,0.07,0.18,3
126.44197400,126441974,0.0,-5.07,0.0,3.92,198.95000000000002,198.96,0.07,0.18,3
126.44507500,126445075,0.0,-5.07,0.0,3.91,198.95000000000002,198.96,0.07,0.18,3
126.44772800,126447728,0.0,-5.0600000000000005,0.0,3.91,198.96,198.97,0.07,0.18,3
126.44986500,126449865,0.0,-5.0600000000000005,0.0,3.9,198.96,198.97,0.07,0.18,3
126.45216800,126452168,0.0,-5.05,0.0,3.9,198.96,198.97,0.07,0.18,3
126.45507700,126455077,0.0,-5.05,0.0,3.9,198.96,198.97,0.07,0.18,3
126.45694500,126456945,0.0,-5.04,0.0,3.89,198.96,198.97,0.07,0.18,3
126.46009200,126460092,0.0,-5.04,0.0,3.89,198.97,198.98000000000002,0.07,0.18,3
126.46319800,126463198,0.0,-5.03,0.0,3.89,198.97,198.98000000000002,0.07,0.18,3
126.46495300,126464953,0.0,-5.03,0.0,3.88,198.97,198.98000000000002,0.07,0.18,3
126.46725200,126467252,0.0,-5.03,0.0,3.88,198.97,198.98000000000002,0.07,0.18,3
126.47017600,126470176,0.0,-5.0200000000000005,0.0,3.87,198.98000000000002,198.99,0.07,0.18,3
126.47202700,126472027,0.0,-5.0200000000000005,0.0,3.87,198.98000000000002,198.99,0.07,0.18,3
126.47520100,126475201,0.0,-5.01,0.0,3.87,198.98000000000002,198.99,0.07,0.18,3
126.47870500,126478705,0.0,-5.01,0.0,3.86,198.98000000000002,198.99,0.07,0.18,3
126.48019500,126480195,0.0,-5.0,0.0,3.86,198.98000000000002,198.99,0.07,0.18,3
126.48268900,126482689,0.0,-5.0,0.0,3.86,198.99,199.0,0.07,0.18,3
126.48538600,126485386,0.0,-5.0,0.0,3.85,198.99,199.0,0.07,0.18,3
126.48752900,126487529,0.0,-4.99,0.0,3.85,198.99,199.0,0.07,0.18,3
126.49041400,126490414,0.0,-4.99,0.0,3.85,198.99,199.0,0.07,0.18,3
126.49268400,126492684,0.0,-4.99,0.0,3.84,198.99,199.0,0.07,0.18,3
126.49520800,126495208,0.0,-4.98,0.0,3.84,199.0,199.01,0.07,0.18,3
126.49818200,126498182,0.0,-4.98,0.0,3.84,199.0,199.01,0.07,0.18,3
126.50038300,126500383,0.0,-4.97,0.0,3.83,199.0,199.01,0.07,0.18,3
126.50250300,126502503,0.0,-4.97,0.0,3.83,199.0,199.01,0.07,0.18,3
126.50547200,126505472,0.0,-4.97,0.0,3.83,199.0,199.01,0.07,0.18,3
126.50768100,126507681,0.0,-4.97,0.0,3.83,199.0,199.01,0.07,0.18,3
126.51032100,126510321,0.0,-4.96,0.0,3.8200000000000003,199.0,199.01,0.07,0.18,3
126.51371600,126513716,0.0,-4.96,0.0,3.8200000000000003,199.0,199.01,0.07,0.18,3
126.51543300,126515433,0.0,-4.96,0.0,3.8200000000000003,199.01,199.02,0.07,0.18,3
126.51748600,126517486,0.0,-4.95,0.0,3.8200000000000003,199.01,199.02,0.07,0.18,3
