timestamp,TimeUS,I,Alt,Press,Temp,CRt,SMS,Offset,GndTemp,Health
1683545734.17998910,2364887,1,0.10127005726099014,94501.8046875,25.47,-0.0003526171203702688,2364,0.0,25.32807731628418,1
1683545734.27994919,2464847,1,-0.005474057048559189,94502.9765625,25.490000000000002,-0.0014884572010487318,2464,0.0,25.32807731628418,1
1683545734.37990904,2564807,1,-0.03831839933991432,94503.3359375,25.51,-0.0023682191967964172,2564,0.0,25.32807731628418,1
1683545734.47986913,2664767,1,0.13685142993927002,94501.421875,25.53,-0.0023682191967964172,2664,0.0,25.32807731628418,1
1683545734.57982922,2764727,1,0.0,94502.9140625,25.55,-0.0014884572010487318,2764,0.0,25.32807731628418,1
1683545734.67978907,2864687,1,0.20801416039466858,94500.6640625,25.560000000000002,-0.0003554956056177616,2864,0.0,25.32807731628418,1
1683545734.77974916,2964647,1,-0.12042925506830215,94504.2109375,25.580000000000002,0.0,2964,0.0,25.32807731628418,1
1683545734.87970901,3064607,1,0.16148468852043152,94501.1484375,25.6,0.0,3064,0.0,25.32807731628418,1
1683545734.97966909,3164567,1,0.0738997682929039,94502.109375,25.62,0.0,3164,0.0,25.32807731628418,1
1683545735.07962918,3264527,1,-0.11495520174503326,94504.1484375,25.64,0.0,3264,0.0,25.32807731628418,1
1683545735.17958903,3364487,1,-0.016422171145677567,94503.0703125,25.66,0.0,3364,0.0,25.32807731628418,1
1683545735.27954912,3464447,1,0.11221817135810852,94501.6875,25.68,0.0,3464,0.0,25.32807731628418,1
1683545735.37950921,3564407,1,0.027370285242795944,94502.5859375,25.69,0.0,3564,0.0,25.32807731628418,1
1683545735.47946906,3664367,1,0.12590330839157104,94501.5390625,25.71,0.0,3664,0.0,25.32807731628418,1
1683545735.57942915,3764327,1,-0.18611794710159302,94504.8984375,25.73,0.0,3764,0.0,25.32807731628418,1
1683545735.67938900,3864287,1,-0.11495520174503326,94504.1484375,25.75,0.0,3864,0.0,25.32807731628418,1
1683545735.77934909,3964247,1,0.1970660537481308,94500.78125,25.77,0.0,3964,0.0,25.32807731628418,1
1683545735.87930918,4064207,1,0.15053656697273254,94501.265625,25.79,0.0,4064,0.0,25.32807731628418,1
1683545735.97926903,4164167,1,0.17516982555389404,94501.0,25.8,0.0,4164,0.0,25.32807731628418,1
1683545736.07922912,4264127,1,0.18611794710159302,94500.875,25.82,0.0,4264,0.0,25.32807731628418,1
1683545736.18002200,4364920,1,0.15601062774658203,94501.2109375,25.84,0.0,4364,0.0,25.32807731628418,1
1683545736.27998209,4464880,1,-0.12590330839157104,94504.2421875,25.86,0.0,4464,0.0,25.32807731628418,1
1683545736.37994218,4564840,1,-0.07116274535655975,94503.6640625,25.87,0.0,4564,0.0,25.32807731628418,1
1683545736.47990203,4664800,1,0.20801416039466858,94500.6328125,25.89,0.0,4664,0.0,25.32807731628418,1
1683545736.57986212,4764760,1,0.027370285242795944,94502.5859375,25.91,0.0,4764,0.0,25.32807731628418,1
1683545736.67982221,4864720,1,0.20801416039466858,94500.6640625,25.93,0.0,4864,0.0,25.32807731628418,1
1683545736.77978206,4964680,1,-0.07663679867982864,94503.7578125,25.95,0.0,4964,0.0,25.32807731628418,1
1683545736.87974215,5064640,1,-0.04379245638847351,94503.390625,25.96,0.0,5064,0.0,25.32807731628418,1
1683545736.97970200,5164600,1,-0.12590330839157104,94504.2421875,25.98,0.0,5164,0.0,25.32807731628418,1
1683545737.07966208,5264560,1,0.16148468852043152,94501.1484375,26.0,0.0,5264,0.0,25.32807731628418,1
1683545737.17962217,5364520,1,-0.09305897355079651,94503.875,26.02,0.0,5364,0.0,25.32807731628418,1
1683545737.27958202,5464480,1,-0.1532735973596573,94504.5625,26.03,0.0,5464,0.0,25.32807731628418,1
1683545737.37954211,5564440,1,0.021896228194236755,94502.6484375,26.05,0.0,5564,0.0,25.32807731628418,1
1683545737.47950220,5664400,1,-0.18064388632774353,94504.8359375,26.07,0.0,5664,0.0,25.32807731628418,1
1683545737.57946205,5764360,1,0.16422170400619507,94501.1171875,26.080000000000002,0.0,5764,0.0,25.32807731628418,1
1683545737.67942214,5864320,1,0.06842571496963501,94502.1640625,26.1,0.0,5864,0.0,25.32807731628418,1
1683545737.77938199,5964280,1,-0.17516982555389404,94504.7734375,26.12,0.0,5964,0.0,25.32807731628418,1
1683545737.87934208,6064240,1,-0.15874765813350677,94504.625,26.13,0.0,6064,0.0,25.32807731628418,1
1683545737.97930217,6164200,1,-0.03831839933991432,94503.3359375,26.150000000000002,0.0,6164,0.0,25.32807731628418,1
1683545738.07926202,6264160,1,0.027370285242795944,94502.5859375,26.17,0.0,6264,0.0,25.32807731628418,1
1683545738.17922211,6364120,1,0.1970660537481308,94500.78125,26.18,0.0,6364,0.0,25.32807731628418,1
1683545738.28001499,6464913,1,-0.10400708019733429,94504.0,26.2,0.0,6464,0.0,25.32807731628418,1
1683545738.37997508,6564873,1,0.05747760087251663,94502.2890625,26.22,0.0,6564,0.0,25.32807731628418,1
1683545738.47993517,6664833,1,0.1970660537481308,94500.78125,26.23,0.0,6664,0.0,25.32807731628418,1
1683545738.57989502,6764793,1,0.18885496258735657,94500.84375,26.25,0.0,6764,0.0,25.32807731628418,1
1683545738.67985511,6864753,1,0.12042925506830215,94501.59375,26.27,0.0,6864,0.0,25.32807731628418,1
1683545738.77981520,6964713,1,-0.021896228194236755,94503.125,26.28,0.0,6964,0.0,25.32807731628418,1
1683545738.87977505,7064673,1,0.17516982555389404,94501.0,26.3,0.0,7064,0.0,25.32807731628418,1
1683545738.97973514,7164633,1,0.06842571496963501,94502.1640625,26.32,0.0,7164,0.0,25.32807731628418,1
1683545739.07969499,7264593,1,-0.07663679867982864,94503.7578125,26.330000000000002,0.0,7264,0.0,25.32807731628418,1
1683545739.17965508,7364553,1,0.16422170400619507,94501.1171875,26.35,0.0,7364,0.0,25.32807731628418,1
1683545739.27961516,7464513,1,0.08211085200309753,94502.015625,26.37,0.0,7464,0.0,25.32807731628418,1
1683545739.37957501,7564473,1,-0.10948114097118378,94504.0859375,26.38,0.0,7564,0.0,25.32807731628418,1
1683545739.47953510,7664433,1,0.12042925506830215,94501.59375,26.400000000000002,0.0,7664,0.0,25.32807731628418,1
1683545739.57949519,7764393,1,0.08758491277694702,94501.953125,26.41,0.0,7764,0.0,25.32807731628418,1
1683545739.67945504,7864353,1,0.16969576478004456,94501.0546875,26.43,0.0,7864,0.0,25.32807731628418,1
1683545739.77941513,7964313,1,-0.17516982555389404,94504.7734375,26.45,0.0,7964,0.0,25.32807731628418,1
1683545739.87937522,8064273,1,0.05747760087251663,94502.2890625,26.46,0.0,8064,0.0,25.32807731628418,1
1683545739.97933507,8164233,1,0.16148468852043152,94501.1484375,26.48,0.0,8164,0.0,25.32807731628418,1
1683545740.07929516,8264193,1,-0.12042925506830215,94504.2109375,26.490000000000002,0.0,8264,0.0,25.32807731628418,1
1683545740.17925501,8364153,1,-0.17516982555389404,94504.7734375,26.51,0.0,8364,0.0,25.32807731628418,1
1683545740.27921510,8464113,1,0.008211085572838783,94502.796875,26.52,0.0,8464,0.0,25.32807731628418,1
1683545740.38000798,8564906,1,-0.0492665134370327,94503.453125,26.54,0.0,8564,0.0,25.32807731628418,1
1683545740.47996807,8664866,1,-0.05474057048559189,94503.515625,26.560000000000002,0.0,8664,0.0,25.32807731628418,1
1683545740.57992816,8764826,1,0.10674411058425903,94501.7421875,26.57,0.0,8764,0.0,25.32807731628418,1
1683545740.67988801,8864786,1,-0.010948114097118378,94503.0390625,26.59,0.0,8864,0.0,25.32807731628418,1
1683545740.77984810,8964746,1,0.027370285242795944,94502.5859375,26.6,0.0,8964,0.0,25.32807731628418,1
1683545740.87980819,9064706,1,-0.08758491277694702,94503.8203125,26.62,0.0,9064,0.0,25.32807731628418,1
1683545740.97976804,9164666,1,0.05747760087251663,94502.2890625,26.63,0.0,9164,0.0,25.32807731628418,1
1683545741.07972813,9264626,1,-0.08758491277694702,94503.8203125,26.650000000000002,0.0,9264,0.0,25.32807731628418,1
1683545741.17968822,9364586,1,-0.016422171145677567,94503.0703125,26.66,0.0,9364,0.0,25.32807731628418,1
1683545741.27964807,9464546,1,0.15053656697273254,94501.265625,26.68,0.0,9464,0.0,25.32807731628418,1
1683545741.37960815,9564506,1,0.14506250619888306,94501.328125,26.69,0.0,9564,0.0,25.32807731628418,1
1683545741.47956800,9664466,1,0.0492665134370327,94502.3828125,26.71,0.0,9664,0.0,25.32807731628418,1
1683545741.57952809,9764426,1,-0.18064388632774353,94504.8359375,26.72,0.0,9764,0.0,25.32807731628418,1
1683545741.67948818,9864386,1,-0.1477995365858078,94504.4765625,26.740000000000002,0.0,9864,0.0,25.32807731628418,1
1683545741.77944803,9964346,1,0.09305897355079651,94501.8984375,26.75,0.0,9964,0.0,25.32807731628418,1
1683545741.87940812,10064306,1,-0.027370285242795944,94503.1875,26.77,0.0,10064,0.0,25.32807731628418,1
1683545741.97936821,10164266,1,0.05474057048559189,94502.3203125,26.78,0.0,10164,0.0,25.32807731628418,1
1683545742.07932806,10264226,1,0.03284434229135513,94502.5546875,26.8,0.0,10264,0.0,25.32807731628418,1
1683545742.17928815,10364186,1,0.10127005726099014,94501.8046875,26.810000000000002,0.0,10364,0.0,25.32807731628418,1
1683545742.27924800,10464146,1,0.05747760087251663,94502.2890625,26.830000000000002,0.0,10464,0.0,25.32807731628418,1
1683545742.37920809,10564106,1,0.04379245638847351,94502.4375,26.84,0.0,10564,0.0,25.32807731628418,1
1683545742.48000121,10664899,1,0.11769222468137741,94501.625,26.86,0.0,10664,0.0,25.32807731628418,1
1683545742.57996106,10764859,1,-0.06568868458271027,94503.6015625,26.87,0.0,10764,0.0,25.32807731628418,1
1683545742.67992115,10864819,1,0.01915919966995716,94502.703125,26.88,0.0,10864,0.0,25.32807731628418,1
1683545742.77988100,10964779,1,0.05747760087251663,94502.2890625,26.900000000000002,0.0,10964,0.0,25.32807731628418,1
1683545742.87984109,11064739,1,0.13685142993927002,94501.421875,26.91,0.0,11064,0.0,25.32807731628418,1
1683545742.97980118,11164699,1,-0.03831839933991432,94503.3359375,26.93,0.0,11164,0.0,25.32807731628418,1
1683545743.07976103,11264659,1,-0.03284434229135513,94503.28125,26.94,0.0,11264,0.0,25.32807731628418,1
1683545743.17972112,11364619,1,-0.1915919929742813,94504.9609375,26.96,0.0,11364,0.0,25.32807731628418,1
1683545743.27968121,11464579,1,-0.10948114097118378,94504.0859375,26.97,0.0,11464,0.0,25.32807731628418,1
1683545743.37964106,11564539,1,-0.0985330268740654,94503.9375,26.98,0.0,11564,0.0,25.32807731628418,1
1683545743.47960114,11664499,1,-0.07663679867982864,94503.7578125,27.0,0.0,11664,0.0,25.32807731628418,1
1683545743.57956100,11764459,1,0.16969576478004456,94501.0546875,27.01,0.0,11764,0.0,25.32807731628418,1
1683545743.67952108,11864419,1,0.008211085572838783,94502.796875,27.03,0.0,11864,0.0,25.32807731628418,1
1683545743.77948117,11964379,1,0.0738997682929039,94502.109375,27.04,0.0,11964,0.0,25.32807731628418,1
1683545743.87944102,12064339,1,-0.016422171145677567,94503.0703125,27.05,0.0,12064,0.0,25.32807731628418,1
1683545743.97940111,12164299,1,-0.10948114097118378,94504.0859375,27.07,0.0,12164,0.0,25.32807731628418,1
1683545744.07936120,12264259,1,0.06295165419578552,94502.2265625,27.080000000000002,0.0,12264,0.0,25.32807731628418,1
1683545744.17932105,12364219,1,-0.016422171145677567,94503.0703125,27.09,0.0,12364,0.0,25.32807731628418,1
1683545744.27928114,12464179,1,0.18885496258735657,94500.84375,27.11,0.0,12464,0.0,25.32807731628418,1
1683545744.37924099,12564139,1,0.17516982555389404,94501.0,27.12,0.0,12564,0.0,25.32807731628418,1
1683545744.47920108,12664099,1,-0.09305897355079651,94503.875,27.14,0.0,12664,0.0,25.32807731628418,1
1683545744.57999420,12764892,1,0.15601062774658203,94501.2109375,27.150000000000002,0.0,12764,0.0,25.32807731628418,1
1683545744.67995405,12864852,1,-0.06568868458271027,94503.6015625,27.16,0.0,12864,0.0,25.32807731628418,1
1683545744.77991414,12964812,1,-0.005474057048559189,94502.9765625,27.18,0.0,12964,0.0,25.32807731628418,1
1683545744.87987399,13064772,1,-0.021896228194236755,94503.125,27.19,0.0,13064,0.0,25.32807731628418,1
1683545744.97983408,13164732,1,0.0027370285242795944,94502.859375,27.2,0.0,13164,0.0,25.32807731628418,1
1683545745.07979417,13264692,1,0.13137736916542053,94501.4765625,27.22,0.0,13264,0.0,25.32807731628418,1
1683545745.17975402,13364652,1,-0.10400708019733429,94504.03125,27.23,0.0,13364,0.0,25.32807731628418,1
1683545745.27971411,13464612,1,-0.13137736916542053,94504.296875,27.240000000000002,0.0,13464,0.0,25.32807731628418,1
1683545745.37967420,13564572,1,-0.0985330268740654,94503.9375,27.26,0.0,13564,0.0,25.32807731628418,1
1683545745.47963405,13664532,1,-0.17516982555389404,94504.7734375,27.27,0.0,13664,0.0,25.32807731628418,1
1683545745.57959414,13764492,1,0.0,94502.9140625,27.28,0.0,13764,0.0,25.32807731628418,1
1683545745.67955399,13864452,1,0.08758491277694702,94501.953125,27.3,0.0,13864,0.0,25.32807731628418,1
1683545745.77951407,13964412,1,-0.021896228194236755,94503.125,27.310000000000002,0.0,13964,0.0,25.32807731628418,1
1683545745.87947416,14064372,1,-0.13685142993927002,94504.3515625,27.32,0.0,14064,0.0,25.32807731628418,1
1683545745.97943401,14164332,1,-0.06021462753415108,94503.546875,27.330000000000002,0.0,14164,0.0,25.32807731628418,1
1683545746.07939410,14264292,1,-0.1970660537481308,94505.046875,27.35,0.0,14264,0.0,25.32807731628418,1
1683545746.17935419,14364252,1,-0.08758491277694702,94503.8203125,27.36,0.0,14364,0.0,25.32807731628418,1
1683545746.27931404,14464212,1,-0.05474057048559189,94503.515625,27.37,0.0,14464,0.0,25.32807731628418,1
1683545746.37927413,14564172,1,0.0738997682929039,94502.109375,27.39,0.0,14564,0.0,25.32807731628418,1
1683545746.47923422,14664132,1,0.16422170400619507,94501.1171875,27.400000000000002,0.0,14664,0.0,25.32807731628418,1
1683545746.58002710,14764925,1,0.01915919966995716,94502.703125,27.41,0.0,14764,0.0,25.32807731628418,1
1683545746.67998719,14864885,1,-0.18064388632774353,94504.8359375,27.42,0.0,14864,0.0,25.32807731628418,1
1683545746.77994704,14964845,1,0.12042925506830215,94501.59375,27.44,0.0,14964,0.0,25.32807731628418,1
1683545746.87990713,15064805,1,0.01915919966995716,94502.703125,27.45,0.0,15064,0.0,25.32807731628418,1
1683545746.97986698,15164765,1,0.008211085572838783,94502.796875,27.46,0.0,15164,0.0,25.32807731628418,1
1683545747.07982707,15264725,1,-0.1532735973596573,94504.5625,27.47,0.0,15264,0.0,25.32807731628418,1
1683545747.17978716,15364685,1,-0.07663679867982864,94503.7578125,27.490000000000002,0.0,15364,0.0,25.32807731628418,1
1683545747.27974701,15464645,1,0.12590330839157104,94501.5390625,27.5,0.0,15464,0.0,25.32807731628418,1
1683545747.37970710,15564605,1,-0.05474057048559189,94503.515625,27.51,0.0,15564,0.0,25.32807731628418,1
1683545747.47966719,15664565,1,-0.15874765813350677,94504.625,27.52,0.0,15664,0.0,25.32807731628418,1
1683545747.57962704,15764525,1,-0.03284434229135513,94503.28125,27.54,0.0,15764,0.0,25.32807731628418,1
1683545747.67958713,15864485,1,-0.010948114097118378,94503.0390625,27.55,0.0,15864,0.0,25.32807731628418,1
1683545747.77954721,15964445,1,0.08758491277694702,94501.953125,27.560000000000002,0.0,15964,0.0,25.32807731628418,1
1683545747.87950706,16064405,1,0.13685142993927002,94501.421875,27.57,0.0,16064,0.0,25.32807731628418,1
1683545747.97946715,16164365,1,-0.16422170400619507,94504.6875,27.580000000000002,0.0,16164,0.0,25.32807731628418,1
1683545748.07942700,16264325,1,0.0027370285242795944,94502.859375,27.6,0.0,16264,0.0,25.32807731628418,1
1683545748.17938709,16364285,1,0.21348822116851807,94500.578125,27.61,0.0,16364,0.0,25.32807731628418,1
1683545748.27934718,16464245,1,0.09305897355079651,94501.8984375,27.62,0.0,16464,0.0,25.32807731628418,1
1683545748.37930703,16564205,1,-0.1423254907131195,94504.4140625,27.63,0.0,16564,0.0,25.32807731628418,1
1683545748.47926712,16664165,1,0.03284434229135513,94502.5546875,27.64,0.0,16664,0.0,25.32807731628418,1
1683545748.57922721,16764125,1,0.20801416039466858,94500.6328125,27.650000000000002,0.0,16764,0.0,25.32807731628418,1
1683545748.68002009,16864918,1,-0.18064388632774353,94504.8359375,27.67,0.0,16864,0.0,25.32807731628418,1
1683545748.77998018,16964878,1,-0.10400708019733429,94504.03125,27.68,0.0,16964,0.0,25.32807731628418,1
1683545748.87994003,17064838,1,0.06842571496963501,94502.1640625,27.69,0.0,17064,0.0,25.32807731628418,1
1683545748.97990012,17164798,1,0.05474057048559189,94502.3203125,27.7,0.0,17164,0.0,25.32807731628418,1
1683545749.07986021,17264758,1,0.1970660537481308,94500.78125,27.71,0.0,17264,0.0,25.32807731628418,1
1683545749.17982006,17364718,1,0.1423254907131195,94501.359375,27.73,0.0,17364,0.0,25.32807731628418,1
1683545749.27978015,17464678,1,0.027370285242795944,94502.5859375,27.740000000000002,0.0,17464,0.0,25.32807731628418,1
1683545749.37974000,17564638,1,0.10127005726099014,94501.8046875,27.75,0.0,17564,0.0,25.32807731628418,1
1683545749.47970009,17664598,1,0.01915919966995716,94502.703125,27.76,0.0,17664,0.0,25.32807731628418,1
1683545749.57966018,17764558,1,0.17516982555389404,94501.0,27.77,0.0,17764,0.0,25.32807731628418,1
1683545749.67962003,17864518,1,-0.16969576478004456,94504.71875,27.78,0.0,17864,0.0,25.32807731628418,1
1683545749.77958012,17964478,1,-0.016422171145677567,94503.0703125,27.79,0.0,17964,0.0,25.32807731628418,1
1683545749.87954021,18064438,1,-0.021896228194236755,94503.125,27.810000000000002,0.0,18064,0.0,25.32807731628418,1
1683545749.97950006,18164398,1,0.06842571496963501,94502.1640625,27.82,0.0,18164,0.0,25.32807731628418,1
1683545750.07946014,18264358,1,0.09305897355079651,94501.8984375,27.830000000000002,0.0,18264,0.0,25.32807731628418,1
1683545750.17941999,18364318,1,-0.16969576478004456,94504.71875,27.84,0.0,18364,0.0,25.32807731628418,1
1683545750.27938008,18464278,1,-0.10400708019733429,94504.03125,27.85,0.0,18464,0.0,25.32807731628418,1
1683545750.37934017,18564238,1,-0.10400708019733429,94504.03125,27.86,0.0,18564,0.0,25.32807731628418,1
1683545750.47930002,18664198,1,0.0027370285242795944,94502.859375,27.87,0.0,18664,0.0,27.873153686523438,1
1683545750.57926011,18764158,1,0.07806396484375,94501.7421875,27.88,0.00016088015399873257,18764,0.0,27.873153686523438,1
1683545750.67922020,18864118,1,-0.197998046875,94504.71875,27.900000000000002,0.0008044007699936628,18864,0.0,27.873153686523438,1
1683545750.78001308,18964911,1,0.1829833984375,94500.578125,27.91,0.0016088015399873257,18964,0.0,27.873153686523438,1
1683545750.87997317,19064871,1,-0.1951904296875,94504.6875,27.92,0.0016088015399873257,19064,0.0,27.873153686523438,1
1683545750.97993302,19164831,1,0.144287109375,94501.0,27.93,0.0008044007699936628,19164,0.0,27.873153686523438,1
1683545751.07989311,19264791,1,-0.09033203125,94503.546875,27.94,0.00016088015399873257,19264,0.0,27.873153686523438,1
1683545751.17985320,19364751,1,0.1112060546875,94501.359375,27.95,0.0,19364,0.0,27.873153686523438,1
1683545751.27981305,19464711,1,0.13604736328125,94501.1171875,27.96,0.0,19464,0.0,27.873153686523438,1
1683545751.37977314,19564671,1,-0.22283935546875,94504.9921875,27.97,0.0,19564,0.0,27.873153686523438,1
1683545751.47973299,19664631,1,0.03387451171875,94502.2265625,27.98,0.0,19664,0.0,27.873153686523438,1
1683545751.57969308,19764591,1,-0.20074462890625,94504.7734375,27.990000000000002,0.0,19764,0.0,27.873153686523438,1
1683545751.67965317,19864551,1,-0.20074462890625,94504.7734375,28.0,0.0,19864,0.0,27.873153686523438,1
1683545751.77961302,19964511,1,0.044921875,94502.078125,28.01,0.0,19964,0.0,27.873153686523438,1
1683545751.87957311,20064471,1,-0.22833251953125,94505.046875,28.03,0.0,20064,0.0,27.873153686523438,1
1683545751.97953320,20164431,1,0.13604736328125,94501.1171875,28.04,0.0,20164,0.0,27.873153686523438,1
1683545752.07949305,20264391,1,0.089111328125,94501.625,28.05,0.0,20264,0.0,27.873153686523438,1
1683545752.17945313,20364351,1,0.04217529296875,94502.109375,28.060000000000002,0.0,20364,0.0,27.873153686523438,1
1683545752.27941298,20464311,1,0.080810546875,94501.6875,28.07,0.0,20464,0.0,27.873153686523438,1
1683545752.37937307,20564271,1,-0.1951904296875,94504.6875,28.080000000000002,0.0,20564,0.0,27.873153686523438,1
1683545752.47933316,20664231,1,0.1829833984375,94500.578125,28.09,0.0,20664,0.0,27.873153686523438,1
1683545752.57929301,20764191,1,-0.02685546875,94502.859375,28.1,0.0,20764,0.0,27.873153686523438,1
1683545752.67925310,20864151,1,0.009033203125,94502.4921875,28.11,0.0,20864,0.0,27.873153686523438,1
1683545752.77921319,20964111,1,-0.15106201171875,94504.2109375,28.12,0.0,20964,0.0,27.873153686523438,1
1683545752.88000607,21064904,1,0.152587890625,94500.9375,28.13,0.0,21064,0.0,27.873153686523438,1
1683545752.97996616,21164864,1,-0.09857177734375,94503.6640625,28.14,0.0,21164,0.0,27.873153686523438,1
1683545753.07992601,21264824,1,-0.20904541015625,94504.8359375,28.150000000000002,0.0,21264,0.0,27.873153686523438,1
1683545753.17988610,21364784,1,-0.07928466796875,94503.453125,28.16,0.0,21364,0.0,27.873153686523438,1
1683545753.27984619,21464744,1,-0.046142578125,94503.0703125,28.17,0.0,21464,0.0,27.873153686523438,1
1683545753.37980604,21564704,1,-0.04339599609375,94503.0390625,28.18,0.0,21564,0.0,27.873153686523438,1
1683545753.47976613,21664664,1,0.1663818359375,94500.78125,28.19,0.0,21664,0.0,27.873153686523438,1
1683545753.57972622,21764624,1,-0.07373046875,94503.390625,28.2,0.0,21764,0.0,27.873153686523438,1
1683545753.67968607,21864584,1,-0.22283935546875,94504.9921875,28.21,0.0,21864,0.0,27.873153686523438,1
1683545753.77964616,21964544,1,0.1663818359375,94500.78125,28.22,0.0,21964,0.0,27.873153686523438,1
1683545753.87960601,22064504,1,0.1829833984375,94500.578125,28.23,0.0,22064,0.0,27.873153686523438,1
1683545753.97956610,22164464,1,0.0228271484375,94502.3203125,28.240000000000002,0.0,22164,0.0,27.873153686523438,1
1683545754.07952619,22264424,1,-0.1317138671875,94504.0,28.25,0.0,22264,0.0,27.873153686523438,1
1683545754.17948604,22364384,1,0.160888671875,94500.84375,28.26,0.0,22364,0.0,27.873153686523438,1
1683545754.27944613,22464344,1,-0.05718994140625,94503.1875,28.27,0.0,22464,0.0,27.873153686523438,1
1683545754.37940621,22564304,1,0.089111328125,94501.625,28.28,0.0,22564,0.0,27.873153686523438,1
1683545754.47936606,22664264,1,0.025634765625,94502.2890625,28.29,0.0,22664,0.0,27.873153686523438,1
1683545754.57932615,22764224,1,0.13604736328125,94501.1171875,28.3,0.0,22764,0.0,27.873153686523438,1
1683545754.67928600,22864184,1,-0.04339599609375,94503.0390625,28.310000000000002,0.0,22864,0.0,27.873153686523438,1
1683545754.77924609,22964144,1,-0.05718994140625,94503.1875,28.32,0.0,22964,0.0,27.873153686523438,1
1683545754.87920618,23064104,1,-0.1593017578125,94504.296875,28.330000000000002,0.0,23064,0.0,27.873153686523438,1
1683545754.97999907,23164897,1,-0.01025390625,94502.703125,28.34,0.0,23164,0.0,27.873153686523438,1
1683545755.07995915,23264857,1,0.07257080078125,94501.8046875,28.35,0.0,23264,0.0,27.873153686523438,1
1683545755.17991900,23364817,1,-0.1593017578125,94504.296875,28.36,0.0,23364,0.0,27.873153686523438,1
1683545755.27987909,23464777,1,-0.0323486328125,94502.9140625,28.37,0.0,23464,0.0,27.873153686523438,1
1683545755.37983918,23564737,1,-0.1951904296875,94504.6875,28.38,0.0,23564,0.0,27.873153686523438,1
1683545755.47979903,23664697,1,-0.11517333984375,94503.8203125,28.38,0.0,23664,0.0,27.873153686523438,1
1683545755.57975912,23764657,1,-0.07098388671875,94503.3359375,28.39,0.0,23764,0.0,27.873153686523438,1
1683545755.67971921,23864617,1,-0.181396484375,94504.5625,28.400000000000002,0.0,23864,0.0,27.873153686523438,1
1683545755.77967906,23964577,1,0.0946044921875,94501.5390625,28.41,0.0,23964,0.0,27.873153686523438,1
1683545755.87963915,24064537,1,0.0035400390625,94502.5546875,28.42,0.0,24064,0.0,27.873153686523438,1
1683545755.97959900,24164497,1,-0.17034912109375,94504.4140625,28.43,0.0,24164,0.0,27.873153686523438,1
1683545756.07955909,24264457,1,-0.15106201171875,94504.2109375,28.44,0.0,24264,0.0,27.873153686523438,1
1683545756.17951918,24364417,1,0.11395263671875,94501.328125,28.45,0.0,24364,0.0,27.873153686523438,1
1683545756.27947903,24464377,1,0.1829833984375,94500.578125,28.46,0.0,24464,0.0,27.873153686523438,1
1683545756.37943912,24564337,1,0.14154052734375,94501.0546875,28.47,0.0,24564,0.0,27.873153686523438,1
1683545756.47939920,24664297,1,-0.21453857421875,94504.8984375,28.48,0.0,24664,0.0,27.873153686523438,1
1683545756.57935905,24764257,1,-0.1455078125,94504.1484375,28.490000000000002,0.0,24764,0.0,27.873153686523438,1
1683545756.67931914,24864217,1,-0.02685546875,94502.859375,28.5,0.0,24864,0.0,27.873153686523438,1
1683545756.77927899,24964177,1,0.10565185546875,94501.421875,28.5,0.0,24964,0.0,27.873153686523438,1
1683545756.87923908,25064137,1,0.0587158203125,94501.953125,28.51,0.0,25064,0.0,27.873153686523438,1
1683545756.97919917,25164097,1,-0.1593017578125,94504.296875,28.52,0.0,25164,0.0,27.873153686523438,1
1683545757.07999206,25264890,1,0.044921875,94502.078125,28.53,0.0,25264,0.0,27.873153686523438,1
1683545757.17995214,25364850,1,0.04217529296875,94502.109375,28.54,0.0,25364,0.0,27.873153686523438,1
1683545757.27991199,25464810,1,-0.1317138671875,94504.0,28.55,0.0,25464,0.0,27.873153686523438,1
1683545757.37987208,25564770,1,-0.13446044921875,94504.03125,28.560000000000002,0.0,25564,0.0,27.873153686523438,1
1683545757.47983217,25664730,1,-0.07098388671875,94503.3359375,28.57,0.0,25664,0.0,27.873153686523438,1
1683545757.57979202,25764690,1,0.025634765625,94502.2890625,28.57,0.0,25764,0.0,27.873153686523438,1
1683545757.67975211,25864650,1,-0.15380859375,94504.2421875,28.580000000000002,0.0,25864,0.0,27.873153686523438,1
1683545757.77971220,25964610,1,-0.11517333984375,94503.8203125,28.59,0.0,25964,0.0,27.873153686523438,1
1683545757.87967205,26064570,1,-0.22283935546875,94504.9921875,28.6,0.0,26064,0.0,27.873153686523438,1
1683545757.97963214,26164530,1,-0.02685546875,94502.859375,28.61,0.0,26164,0.0,27.873153686523438,1
1683545758.07959199,26264490,1,-0.09857177734375,94503.6640625,28.62,0.0,26264,0.0,27.873153686523438,1
1683545758.17955208,26364450,1,-0.21453857421875,94504.8984375,28.63,0.0,26364,0.0,27.873153686523438,1
1683545758.27951217,26464410,1,0.025634765625,94502.2890625,28.64,0.0,26464,0.0,27.873153686523438,1
1683545758.37947202,26564370,1,-0.162109375,94504.3515625,28.64,0.0,26564,0.0,27.873153686523438,1
1683545758.47943211,26664330,1,-0.06549072265625,94503.28125,28.650000000000002,0.0,26664,0.0,27.873153686523438,1
1683545758.57939219,26764290,1,0.025634765625,94502.2890625,28.66,0.0,26764,0.0,27.873153686523438,1
1683545758.67935205,26864250,1,-0.07928466796875,94503.453125,28.67,0.0,26864,0.0,27.873153686523438,1
1683545758.77931213,26964210,1,-0.13726806640625,94504.0859375,28.68,0.0,26964,0.0,27.873153686523438,1
1683545758.87927198,27064170,1,0.10565185546875,94501.421875,28.69,0.0,27064,0.0,27.873153686523438,1
1683545758.97923207,27164130,1,-0.162109375,94504.3515625,28.7,0.0,27164,0.0,27.873153686523438,1
1683545759.08002520,27264923,1,-0.1759033203125,94504.4765625,28.7,0.0,27264,0.0,27.873153686523438,1
1683545759.17998505,27364883,1,0.0946044921875,94501.5390625,28.71,0.0,27364,0.0,27.873153686523438,1
1683545759.27994514,27464843,1,-0.11517333984375,94503.8203125,28.72,0.0,27464,0.0,27.873153686523438,1
1683545759.37990499,27564803,1,0.12225341796875,94501.265625,28.73,0.0,27564,0.0,27.873153686523438,1
1683545759.47986507,27664763,1,0.0394287109375,94502.1640625,28.740000000000002,0.0,27664,0.0,27.873153686523438,1
1683545759.57982516,27764723,1,-0.21453857421875,94504.8984375,28.75,0.0,27764,0.0,27.873153686523438,1
1683545759.67978501,27864683,1,-0.1041259765625,94503.7265625,28.75,0.0,27864,0.0,27.873153686523438,1
1683545759.77974510,27964643,1,-0.09307861328125,94503.6015625,28.76,0.0,27964,0.0,27.873153686523438,1
1683545759.87970519,28064603,1,0.05322265625,94502.015625,28.77,0.0,28064,0.0,27.873153686523438,1
1683545759.97966504,28164563,1,-0.15106201171875,94504.2109375,28.78,0.0,28164,0.0,27.873153686523438,1
1683545760.07962513,28264523,1,0.07806396484375,94501.7421875,28.78,0.0,28264,0.0,27.873153686523438,1
1683545760.17958522,28364483,1,0.0587158203125,94501.953125,28.79,0.0,28364,0.0,27.873153686523438,1
1683545760.27954507,28464443,1,0.05322265625,94502.015625,28.8,0.0,28464,0.0,27.873153686523438,1
1683545760.37950516,28564403,1,0.12225341796875,94501.265625,28.810000000000002,0.0,28564,0.0,27.873153686523438,1
1683545760.47946501,28664363,1,0.1112060546875,94501.359375,28.82,0.0,28664,0.0,27.873153686523438,1
1683545760.57942510,28764323,1,-0.109619140625,94503.7578125,28.830000000000002,0.0,28764,0.0,27.873153686523438,1
1683545760.67938519,28864283,1,0.0615234375,94501.8984375,28.830000000000002,0.0,28864,0.0,27.873153686523438,1
1683545760.77934504,28964243,1,0.14154052734375,94501.0546875,28.84,0.0,28964,0.0,27.873153686523438,1
1683545760.87930512,29064203,1,0.0946044921875,94501.5390625,28.85,0.0,29064,0.0,27.873153686523438,1
1683545760.97926521,29164163,1,0.15814208984375,94500.875,28.86,0.0,29164,0.0,27.873153686523438,1
1683545761.07922506,29264123,1,-0.109619140625,94503.7578125,28.86,0.0,29264,0.0,27.873153686523438,1
1683545761.18001819,29364916,1,-0.17034912109375,94504.4140625,28.87,0.0,29364,0.0,27.873153686523438,1
1683545761.27997804,29464876,1,0.09185791015625,94501.59375,28.88,0.0,29464,0.0,27.873153686523438,1
1683545761.37993813,29564836,1,-0.21453857421875,94504.8984375,28.89,0.0,29564,0.0,27.873153686523438,1
1683545761.47989821,29664796,1,-0.189697265625,94504.625,28.900000000000002,0.0,29664,0.0,27.873153686523438,1
1683545761.57985806,29764756,1,0.1663818359375,94500.78125,28.900000000000002,0.0,29764,0.0,27.873153686523438,1
1683545761.67981815,29864716,1,0.07806396484375,94501.7421875,28.91,0.0,29864,0.0,27.873153686523438,1
1683545761.77977800,29964676,1,-0.22283935546875,94504.9921875,28.92,0.0,29964,0.0,27.873153686523438,1
1683545761.87973809,30064636,1,-0.22833251953125,94505.046875,28.93,0.0,30064,0.0,27.873153686523438,1
1683545761.97969818,30164596,1,0.03387451171875,94502.2265625,28.93,0.0,30164,0.0,27.873153686523438,1
1683545762.07965803,30264556,1,-0.1041259765625,94503.7265625,28.94,0.0,30264,0.0,27.873153686523438,1
1683545762.17961812,30364516,1,-0.1593017578125,94504.296875,28.95,0.0,30364,0.0,27.873153686523438,1
1683545762.27957821,30464476,1,-0.20904541015625,94504.8359375,28.96,0.0,30464,0.0,27.873153686523438,1
1683545762.37953806,30564436,1,-0.17034912109375,94504.4140625,28.96,0.0,30564,0.0,27.873153686523438,1
1683545762.47949815,30664396,1,0.03387451171875,94502.2265625,28.97,0.0,30664,0.0,27.873153686523438,1
1683545762.57945800,30764356,1,-0.13726806640625,94504.0859375,28.98,0.0,30764,0.0,27.873153686523438,1
1683545762.67941809,30864316,1,-0.11517333984375,94503.8203125,28.990000000000002,0.0,30864,0.0,27.873153686523438,1
1683545762.77937818,30964276,1,0.15814208984375,94500.875,28.990000000000002,0.0,30964,0.0,27.873153686523438,1
1683545762.87933803,31064236,1,-0.07928466796875,94503.453125,29.0,0.0,31064,0.0,27.873153686523438,1
1683545762.97929811,31164196,1,0.0615234375,94501.8984375,29.01,0.0,31164,0.0,27.873153686523438,1
1683545763.07925820,31264156,1,-0.17034912109375,94504.4140625,29.02,0.0,31264,0.0,27.873153686523438,1
1683545763.17921805,31364116,1,-0.1759033203125,94504.4765625,29.02,0.0,31364,0.0,27.873153686523438,1
1683545763.28001118,31464909,1,0.125,94501.2109375,29.03,0.0,31464,0.0,27.873153686523438,1
1683545763.37997103,31564869,1,0.160888671875,94500.84375,29.04,0.0,31564,0.0,27.873153686523438,1
1683545763.47993112,31664829,1,0.10565185546875,94501.421875,29.04,0.0,31664,0.0,27.873153686523438,1
1683545763.57989120,31764789,1,0.07806396484375,94501.7421875,29.05,0.0,31764,0.0,27.873153686523438,1
1683545763.67985106,31864749,1,-0.0185546875,94502.765625,29.060000000000002,0.0,31864,0.0,27.873153686523438,1
1683545763.77981114,31964709,1,0.07806396484375,94501.7421875,29.07,0.0,31964,0.0,27.873153686523438,1
1683545763.87977099,32064669,1,0.03387451171875,94502.2265625,29.07,0.0,32064,0.0,27.873153686523438,1
1683545763.97973108,32164629,1,-0.117919921875,94503.875,29.080000000000002,0.0,32164,0.0,27.873153686523438,1
1683545764.07969117,32264589,1,0.0946044921875,94501.5390625,29.09,0.0,32264,0.0,27.873153686523438,1
1683545764.17965102,32364549,1,-0.1455078125,94504.1484375,29.09,0.0,32364,0.0,27.873153686523438,1
1683545764.27961111,32464509,1,0.1829833984375,94500.578125,29.1,0.0,32464,0.0,27.873153686523438,1
1683545764.37957120,32564469,1,0.089111328125,94501.625,29.11,0.0,32564,0.0,27.873153686523438,1
1683545764.47953105,32664429,1,0.07806396484375,94501.7421875,29.11,0.0,32664,0.0,27.873153686523438,1
1683545764.57949114,32764389,1,0.18017578125,94500.6328125,29.12,0.0,32764,0.0,27.873153686523438,1
1683545764.67945099,32864349,1,-0.17864990234375,94504.5078125,29.13,0.0,32864,0.0,27.873153686523438,1
1683545764.77941108,32964309,1,-0.08477783203125,94503.515625,29.14,0.0,32964,0.0,27.873153686523438,1
1683545764.87937117,33064269,1,0.10015869140625,94501.4765625,29.14,0.0,33064,0.0,27.873153686523438,1
1683545764.97933102,33164229,1,0.125,94501.2109375,29.150000000000002,0.0,33164,0.0,27.873153686523438,1
1683545765.07929111,33264189,1,0.07806396484375,94501.7421875,29.16,0.0,33264,0.0,27.873153686523438,1
1683545765.17925119,33364149,1,-0.09307861328125,94503.6015625,29.16,0.0,33364,0.0,27.873153686523438,1
1683545765.27921104,33464109,1,0.10565185546875,94501.421875,29.17,0.0,33464,0.0,27.873153686523438,1
1683545765.38000417,33564902,1,-0.1317138671875,94504.0,29.18,0.0,33564,0.0,27.873153686523438,1
1683545765.47996402,33664862,1,-0.01025390625,94502.703125,29.18,0.0,33664,0.0,27.873153686523438,1
1683545765.57992411,33764822,1,0.04217529296875,94502.109375,29.19,0.0,33764,0.0,27.873153686523438,1
1683545765.67988420,33864782,1,-0.109619140625,94503.7578125,29.2,0.0,33864,0.0,27.873153686523438,1
1683545765.77984405,33964742,1,0.00079345703125,94502.5859375,29.2,0.0,33964,0.0,27.873153686523438,1
1683545765.87980413,34064702,1,-0.21453857421875,94504.8984375,29.21,0.0,34064,0.0,27.873153686523438,1
1683545765.97976398,34164662,1,0.1112060546875,94501.359375,29.22,0.0,34164,0.0,27.873153686523438,1
1683545766.07972407,34264622,1,-0.1759033203125,94504.4765625,29.22,0.0,34264,0.0,27.873153686523438,1
1683545766.17968416,34364582,1,-0.189697265625,94504.625,29.23,0.0,34364,0.0,27.873153686523438,1
1683545766.27964401,34464542,1,0.017333984375,94502.3828125,29.240000000000002,0.0,34464,0.0,27.873153686523438,1
1683545766.37960410,34564502,1,0.03387451171875,94502.2265625,29.240000000000002,0.0,34564,0.0,27.873153686523438,1
1683545766.47956419,34664462,1,0.1829833984375,94500.578125,29.25,0.0,34664,0.0,27.873153686523438,1
1683545766.57952404,34764422,1,-0.162109375,94504.3515625,29.26,0.0,34764,0.0,27.873153686523438,1
1683545766.67948413,34864382,1,0.125,94501.2109375,29.26,0.0,34864,0.0,27.873153686523438,1
1683545766.77944422,34964342,1,0.0670166015625,94501.8359375,29.27,0.0,34964,0.0,27.873153686523438,1
1683545766.87940407,35064302,1,-0.09857177734375,94503.6640625,29.28,0.0,35064,0.0,27.873153686523438,1
1683545766.97936416,35164262,1,0.1112060546875,94501.359375,29.28,0.0,35164,0.0,27.873153686523438,1
1683545767.07932401,35264222,1,-0.046142578125,94503.0703125,29.29,0.0,35264,0.0,27.873153686523438,1
1683545767.17928410,35364182,1,-0.0185546875,94502.765625,29.29,0.0,35364,0.0,27.873153686523438,1
1683545767.27924418,35464142,1,-0.09033203125,94503.546875,29.3,0.0,35464,0.0,27.873153686523438,1
1683545767.37920403,35564102,1,-0.1455078125,94504.1484375,29.310000000000002,0.0,35564,0.0,27.873153686523438,1
1683545767.47999716,35664895,1,0.05322265625,94502.015625,29.310000000000002,0.0,35664,0.0,27.873153686523438,1
1683545767.57995701,35764855,1,0.14154052734375,94501.0546875,29.32,0.0,35764,0.0,27.873153686523438,1
1683545767.67991710,35864815,1,-0.08477783203125,94503.515625,29.330000000000002,0.0,35864,0.0,27.873153686523438,1
1683545767.77987719,35964775,1,-0.20904541015625,94504.8359375,29.330000000000002,0.0,35964,0.0,27.873153686523438,1
1683545767.87983704,36064735,1,0.152587890625,94500.9375,29.34,0.0,36064,0.0,27.873153686523438,1
1683545767.97979712,36164695,1,0.14154052734375,94501.0546875,29.34,0.0,36164,0.0,27.873153686523438,1
1683545768.07975721,36264655,1,-0.22003173828125,94504.9609375,29.35,0.0,36264,0.0,27.873153686523438,1
1683545768.17971706,36364615,1,0.07806396484375,94501.7421875,29.36,0.0,36364,0.0,27.873153686523438,1
1683545768.27967715,36464575,1,0.12225341796875,94501.265625,29.36,0.0,36464,0.0,27.873153686523438,1
1683545768.37963700,36564535,1,0.13604736328125,94501.1171875,29.37,0.0,36564,0.0,27.873153686523438,1
1683545768.47959709,36664495,1,-0.181396484375,94504.5625,29.38,0.0,36664,0.0,27.873153686523438,1
1683545768.57955718,36764455,1,-0.09307861328125,94503.6015625,29.38,0.0,36764,0.0,27.873153686523438,1
1683545768.67951703,36864415,1,-0.046142578125,94503.0703125,29.39,0.0,36864,0.0,27.873153686523438,1
1683545768.77947712,36964375,1,-0.11517333984375,94503.8203125,29.39,0.0,36964,0.0,27.873153686523438,1
1683545768.87943721,37064335,1,0.144287109375,94501.0,29.400000000000002,0.0,37064,0.0,27.873153686523438,1
1683545768.97939706,37164295,1,0.11395263671875,94501.328125,29.41,0.0,37164,0.0,27.873153686523438,1
1683545769.07935715,37264255,1,-0.07098388671875,94503.3359375,29.41,0.0,37264,0.0,27.873153686523438,1
1683545769.17931700,37364215,1,0.025634765625,94502.2890625,29.42,0.0,37364,0.0,27.873153686523438,1
1683545769.27927709,37464175,1,0.017333984375,94502.3828125,29.42,0.0,37464,0.0,27.873153686523438,1
1683545769.37923717,37564135,1,-0.181396484375,94504.5625,29.43,0.0,37564,0.0,27.873153686523438,1
1683545769.47919703,37664095,1,0.144287109375,94501.0,29.44,0.0,37664,0.0,27.873153686523438,1
1683545769.57999015,37764888,1,-0.09307861328125,94503.6015625,29.44,0.0,37764,0.0,27.873153686523438,1
1683545769.67995000,37864848,1,-0.17864990234375,94504.5078125,29.45,0.0,37864,0.0,27.873153686523438,1
1683545769.77991009,37964808,1,0.017333984375,94502.3828125,29.45,0.0,37964,0.0,27.873153686523438,1
1683545769.87987018,38064768,1,0.07806396484375,94501.7421875,29.46,0.0,38064,0.0,27.873153686523438,1
1683545769.97983003,38164728,1,0.125,94501.2109375,29.46,0.0,38164,0.0,27.873153686523438,1
1683545770.07979012,38264688,1,-0.062744140625,94503.25,29.47,0.0,38264,0.0,27.873153686523438,1
1683545770.17975020,38364648,1,0.044921875,94502.078125,29.48,0.0,38364,0.0,27.873153686523438,1
1683545770.27971005,38464608,1,0.04217529296875,94502.109375,29.48,0.0,38464,0.0,27.873153686523438,1
1683545770.37967014,38564568,1,-0.1593017578125,94504.296875,29.490000000000002,0.0,38564,0.0,27.873153686523438,1
1683545770.47962999,38664528,1,0.11395263671875,94501.328125,29.490000000000002,0.0,38664,0.0,27.873153686523438,1
1683545770.57959008,38764488,1,-0.117919921875,94503.875,29.5,0.0,38764,0.0,27.873153686523438,1
1683545770.67955017,38864448,1,-0.189697265625,94504.625,29.51,0.0,38864,0.0,27.873153686523438,1
1683545770.77951002,38964408,1,-0.05169677734375,94503.125,29.51,0.0,38964,0.0,27.873153686523438,1
1683545770.87947011,39064368,1,-0.0185546875,94502.796875,29.52,0.0,39064,0.0,27.873153686523438,1
1683545770.97943020,39164328,1,0.13604736328125,94501.1171875,29.52,0.0,39164,0.0,27.873153686523438,1
1683545771.07939005,39264288,1,-0.13446044921875,94504.03125,29.53,0.0,39264,0.0,27.873153686523438,1
1683545771.17935014,39364248,1,-0.0047607421875,94502.6484375,29.53,0.0,39364,0.0,27.873153686523438,1
1683545771.27930999,39464208,1,0.01458740234375,94502.4375,29.54,0.0,39464,0.0,27.873153686523438,1
1683545771.37927008,39564168,1,0.09185791015625,94501.59375,29.54,0.0,39564,0.0,27.873153686523438,1
1683545771.47923017,39664128,1,0.125,94501.2109375,29.55,0.0,39664,0.0,27.873153686523438,1
1683545771.58002305,39764921,1,0.025634765625,94502.2890625,29.560000000000002,0.0,39764,0.0,27.873153686523438,1
1683545771.67998314,39864881,1,-0.04339599609375,94503.0390625,29.560000000000002,0.0,39864,0.0,27.873153686523438,1
1683545771.77994299,39964841,1,-0.07098388671875,94503.3359375,29.57,0.0,39964,0.0,27.873153686523438,1
1683545771.87990308,40064801,1,-0.03790283203125,94502.9765625,29.57,0.0,40064,0.0,27.873153686523438,1
1683545771.97986317,40164761,1,0.01458740234375,94502.4375,29.580000000000002,0.0,40164,0.0,27.873153686523438,1
1683545772.07982302,40264721,1,-0.09857177734375,94503.6640625,29.580000000000002,0.0,40264,0.0,27.873153686523438,1
1683545772.17978311,40364681,1,0.017333984375,94502.3828125,29.59,0.0,40364,0.0,27.873153686523438,1
1683545772.27974319,40464641,1,0.1663818359375,94500.78125,29.59,0.0,40464,0.0,27.873153686523438,1
1683545772.37970304,40564601,1,0.080810546875,94501.6875,29.6,0.0,40564,0.0,27.873153686523438,1
1683545772.47966313,40664561,1,0.017333984375,94502.3828125,29.6,0.0,40664,0.0,27.873153686523438,1
1683545772.57962298,40764521,1,-0.22833251953125,94505.046875,29.61,0.0,40764,0.0,27.873153686523438,1
1683545772.67958307,40864481,1,0.017333984375,94502.3828125,29.61,0.0,40864,0.0,27.873153686523438,1
1683545772.77954316,40964441,1,0.125,94501.2109375,29.62,0.0,40964,0.0,27.873153686523438,1
1683545772.87950301,41064401,1,0.00079345703125,94502.5859375,29.63,0.0,41064,0.0,27.873153686523438,1
1683545772.97946310,41164361,1,-0.09307861328125,94503.6015625,29.63,0.0,41164,0.0,27.873153686523438,1
1683545773.07942319,41264321,1,0.07257080078125,94501.8046875,29.64,0.0,41264,0.0,27.873153686523438,1
1683545773.17938304,41364281,1,-0.062744140625,94503.25,29.64,0.0,41364,0.0,27.873153686523438,1
1683545773.27934313,41464241,1,-0.05169677734375,94503.125,29.650000000000002,0.0,41464,0.0,27.873153686523438,1
1683545773.37930322,41564201,1,0.144287109375,94501.0,29.650000000000002,0.0,41564,0.0,27.873153686523438,1
1683545773.47926307,41664161,1,0.0946044921875,94501.5390625,29.66,0.0,41664,0.0,27.873153686523438,1
1683545773.57922316,41764121,1,-0.02685546875,94502.859375,29.66,0.0,41764,0.0,27.873153686523438,1
1683545773.68001604,41864914,1,-0.21453857421875,94504.8984375,29.67,0.0,41864,0.0,27.873153686523438,1
1683545773.77997613,41964874,1,0.01458740234375,94502.4375,29.67,0.0,41964,0.0,27.873153686523438,1
1683545773.87993622,42064834,1,-0.13446044921875,94504.03125,29.68,0.0,42064,0.0,27.873153686523438,1
1683545773.97989607,42164794,1,-0.1041259765625,94503.7265625,29.68,0.0,42164,0.0,27.873153686523438,1
1683545774.07985616,42264754,1,-0.117919921875,94503.875,29.69,0.0,42264,0.0,27.873153686523438,1
1683545774.17981601,42364714,1,0.04217529296875,94502.109375,29.69,0.0,42364,0.0,27.873153686523438,1
1683545774.27977610,42464674,1,0.0587158203125,94501.953125,29.7,0.0,42464,0.0,27.873153686523438,1
1683545774.37973619,42564634,1,0.1112060546875,94501.359375,29.7,0.0,42564,0.0,27.873153686523438,1
1683545774.47969604,42664594,1,0.025634765625,94502.2890625,29.71,0.0,42664,0.0,27.873153686523438,1
1683545774.57965612,42764554,1,-0.02685546875,94502.859375,29.71,0.0,42764,0.0,27.873153686523438,1
1683545774.67961621,42864514,1,0.19122314453125,94500.515625,29.72,0.0,42864,0.0,27.873153686523438,1
1683545774.77957606,42964474,1,-0.04339599609375,94503.0390625,29.72,0.0,42964,0.0,27.873153686523438,1
1683545774.87953615,43064434,1,-0.0185546875,94502.765625,29.73,0.0,43064,0.0,27.873153686523438,1
1683545774.97949600,43164394,1,-0.01025390625,94502.703125,29.73,0.0,43164,0.0,27.873153686523438,1
1683545775.07945609,43264354,1,0.01458740234375,94502.4375,29.740000000000002,0.0,43264,0.0,27.873153686523438,1
1683545775.17941618,43364314,1,-0.046142578125,94503.0703125,29.740000000000002,0.0,43364,0.0,27.873153686523438,1
1683545775.27937603,43464274,1,-0.1317138671875,94504.0,29.75,0.0,43464,0.0,27.873153686523438,1
1683545775.37933612,43564234,1,-0.02685546875,94502.859375,29.75,0.0,43564,0.0,27.873153686523438,1
1683545775.47929621,43664194,1,-0.05718994140625,94503.1875,29.76,0.0,43664,0.0,27.873153686523438,1
1683545775.57925606,43764154,1,-0.1041259765625,94503.7265625,29.76,0.0,43764,0.0,27.873153686523438,1
1683545775.67921615,43864114,1,-0.0185546875,94502.796875,29.77,0.0,43864,0.0,27.873153686523438,1
1683545775.78000903,43964907,1,-0.1951904296875,94504.6875,29.77,0.0,43964,0.0,27.873153686523438,1
1683545775.87996912,44064867,1,-0.15106201171875,94504.2109375,29.78,0.0,44064,0.0,27.873153686523438,1
1683545775.97992921,44164827,1,0.1112060546875,94501.359375,29.78,0.0,44164,0.0,27.873153686523438,1
1683545776.07988906,44264787,1,-0.07373046875,94503.390625,29.79,0.0,44264,0.0,27.873153686523438,1
1683545776.17984915,44364747,1,0.07257080078125,94501.8046875,29.79,0.0,44364,0.0,27.873153686523438,1
1683545776.27980900,44464707,1,-0.1455078125,94504.1484375,29.79,0.0,44464,0.0,27.873153686523438,1
1683545776.37976909,44564667,1,-0.0047607421875,94502.6484375,29.8,0.0,44564,0.0,27.873153686523438,1
1683545776.47972918,44664627,1,-0.05718994140625,94503.1875,29.8,0.0,44664,0.0,27.873153686523438,1
1683545776.57968903,44764587,1,0.0946044921875,94501.5390625,29.810000000000002,0.0,44764,0.0,27.873153686523438,1
1683545776.67964911,44864547,1,-0.20074462890625,94504.7734375,29.810000000000002,0.0,44864,0.0,27.873153686523438,1
1683545776.77960920,44964507,1,-0.1455078125,94504.1484375,29.82,0.0,44964,0.0,27.873153686523438,1
1683545776.87956905,45064467,1,0.1663818359375,94500.78125,29.82,0.0,45064,0.0,27.873153686523438,1
1683545776.97952914,45164427,1,-0.1759033203125,94504.4765625,29.830000000000002,0.0,45164,0.0,27.873153686523438,1
1683545777.07948899,45264387,1,0.09185791015625,94501.59375,29.830000000000002,0.0,45264,0.0,27.873153686523438,1
1683545777.17944908,45364347,1,0.17742919921875,94500.6640625,29.84,0.0,45364,0.0,27.873153686523438,1
1683545777.27940917,45464307,1,0.1663818359375,94500.78125,29.84,0.0,45464,0.0,27.873153686523438,1
1683545777.37936902,45564267,1,-0.22833251953125,94505.046875,29.85,0.0,45564,0.0,27.873153686523438,1
1683545777.47932911,45664227,1,0.009033203125,94502.4921875,29.85,0.0,45664,0.0,27.873153686523438,1
1683545777.57928920,45764187,1,-0.20074462890625,94504.7734375,29.86,0.0,45764,0.0,27.873153686523438,1
1683545777.67924905,45864147,1,0.1829833984375,94500.578125,29.86,0.0,45864,0.0,27.873153686523438,1
1683545777.77920914,45964107,1,0.03387451171875,94502.2265625,29.86,0.0,45964,0.0,27.873153686523438,1
1683545777.88000202,46064900,1,-0.01025390625,94502.703125,29.87,0.0,46064,0.0,27.873153686523438,1
1683545777.97996211,46164860,1,-0.02685546875,94502.859375,29.87,0.0,46164,0.0,27.873153686523438,1
1683545778.07992220,46264820,1,-0.09033203125,94503.546875,29.88,0.0,46264,0.0,27.873153686523438,1
1683545778.17988205,46364780,1,-0.06549072265625,94503.28125,29.88,0.003452301025390625,46364,0.0,27.873153686523438,1
1683545778.27984214,46464740,1,0.089111328125,94501.625,29.88,0.02071380615234375,46464,0.0,27.873153686523438,1
1683545778.37980199,46564700,1,0.0587158203125,94501.953125,29.89,0.05437850579619408,46564,0.0,27.873153686523438,1
1683545778.47976208,46664660,1,-0.09033203125,94503.546875,29.89,0.08977890014648438,46664,0.0,27.873153686523438,1
1683545778.57972217,46764620,1,0.21881103515625,94500.1875,29.900000000000002,0.12516021728515625,46764,0.0,27.873153686523438,1
1683545778.67968202,46864580,1,0.04217529296875,94502.109375,29.900000000000002,0.17774581909179688,46864,0.0,27.873153686523438,1
1683545778.77964211,46964540,1,0.089111328125,94501.625,29.91,0.2449798583984375,46964,0.0,27.873153686523438,1
1683545778.87960219,47064500,1,0.351318359375,94498.75,29.91,0.32518383860588074,47064,0.0,27.873153686523438,1
1683545778.97956204,47164460,1,0.19122314453125,94500.515625,29.91,0.4675293266773224,47164,0.0,27.873153686523438,1
1683545779.07952213,47264420,1,0.3182373046875,94499.1328125,29.92,0.7065200805664062,47264,0.0,27.873153686523438,1
1683545779.17948198,47364380,1,0.6439208984375,94495.5703125,29.92,0.9687995910644531,47364,0.0,27.873153686523438,1
1683545779.27944207,47464340,1,0.75433349609375,94494.3984375,29.92,1.1438751220703125,47464,0.0,27.873153686523438,1
1683545779.37940216,47564300,1,0.97515869140625,94492.0,29.93,1.2076187133789062,47564,0.0,27.873153686523438,1
1683545779.47936201,47664260,1,0.95587158203125,94492.2109375,29.93,1.2145042419433594,47664,0.0,27.873153686523438,1
1683545779.57932210,47764220,1,1.2208251953125,94489.328125,29.94,1.226654052734375,47764,0.0,27.873153686523438,1
1683545779.67928219,47864180,1,1.3726806640625,94487.6796875,29.94,1.2767219543457031,47864,0.0,27.873153686523438,1
1683545779.77924204,47964140,1,1.4803466796875,94486.5078125,29.94,1.3638114929199219,47964,0.0,27.873153686523438,1
1683545779.87920213,48064100,1,1.68182373046875,94484.3125,29.95,1.4673042297363281,48064,0.0,27.873153686523438,1
1683545779.97999501,48164893,1,1.6873779296875,94484.2578125,29.95,1.5682220458984375,48164,0.0,27.873153686523438,1
1683545780.07995510,48264853,1,1.8585205078125,94482.3984375,29.95,1.6665077209472656,48264,0.0,27.873153686523438,1
1683545780.17991519,48364813,1,2.05999755859375,94480.2109375,29.96,1.7682647705078125,48364,0.0,27.873153686523438,1
1683545780.27987504,48464773,1,2.24493408203125,94478.1953125,29.96,1.867523193359375,48464,0.0,27.873153686523438,1
1683545780.37983513,48564733,1,2.7059326171875,94473.1875,29.96,1.966781497001648,48564,0.0,27.873153686523438,1
1683545780.47979522,48664693,1,2.9267578125,94470.796875,29.96,2.0789146423339844,48664,0.0,27.873153686523438,1
1683545780.57975507,48764653,1,3.05096435546875,94469.4375,29.97,2.196216583251953,48764,0.0,27.873153686523438,1
1683545780.67971516,48864613,1,3.3408203125,94466.296875,29.97,2.303180694580078,48864,0.0,27.873153686523438,1
1683545780.77967501,48964573,1,3.520263671875,94464.34375,29.97,2.3989295959472656,48964,0.0,27.873153686523438,1
1683545780.87963510,49064533,1,3.88458251953125,94460.3828125,29.98,2.4791526794433594,49064,0.0,27.873153686523438,1
1683545780.97959518,49164493,1,3.94256591796875,94459.75,29.98,2.532615900039673,49164,0.0,27.873153686523438,1
1683545781.07955503,49264453,1,4.57196044921875,94452.9140625,29.98,2.5645253658294678,49264,0.0,27.873153686523438,1
1683545781.17951512,49364413,1,4.4449462890625,94454.3203125,29.98,2.5921630859375,49364,0.0,27.873153686523438,1
1683545781.27947521,49464373,1,5.00531005859375,94448.234375,29.990000000000002,2.6180458068847656,49464,0.0,27.873153686523438,1
1683545781.37943506,49564333,1,5.1240234375,94446.921875,29.990000000000002,2.629241943359375,49564,0.0,27.873153686523438,1
1683545781.47939515,49664293,1,5.55462646484375,94442.265625,29.990000000000002,2.617206335067749,49664,0.0,27.873153686523438,1
1683545781.57935500,49764253,1,5.67608642578125,94440.953125,29.990000000000002,2.5896644592285156,49764,0.0,27.873153686523438,1
1683545781.67931509,49864213,1,5.72576904296875,94440.4140625,30.0,2.568092107772827,49864,0.0,27.873153686523438,1
1683545781.77927518,49964173,1,6.21710205078125,94435.078125,30.0,2.5619888305664062,49964,0.0,27.873153686523438,1
1683545781.87923503,50064133,1,6.3441162109375,94433.6953125,30.0,2.5559041500091553,50064,0.0,27.873153686523438,1
1683545781.97919512,50164093,1,6.6201171875,94430.6953125,30.0,2.5455474853515625,50164,0.0,27.873153686523438,1
1683545782.07998800,50264886,1,6.87957763671875,94427.875,30.01,2.541217803955078,50264,0.0,27.873153686523438,1
1683545782.17994809,50364846,1,7.05072021484375,94426.0234375,30.01,2.533435583114624,50364,0.0,27.873153686523438,1
1683545782.27990818,50464806,1,7.6138916015625,94419.90625,30.01,2.517070770263672,50464,0.0,27.873153686523438,1
1683545782.37986803,50564766,1,7.5255126953125,94420.8671875,30.02,2.510204553604126,50564,0.0,27.873153686523438,1
1683545782.47982812,50664726,1,7.7325439453125,94418.6171875,30.02,2.512817621231079,50664,0.0,27.873153686523438,1
1683545782.57978821,50764686,1,8.24871826171875,94413.0078125,30.02,2.5016214847564697,50764,0.0,27.873153686523438,1
1683545782.67974806,50864646,1,8.546875,94409.7734375,30.02,2.4774551391601562,50864,0.0,27.873153686523438,1
1683545782.77970815,50964606,1,8.49163818359375,94410.375,30.03,2.4696731567382812,50964,0.0,27.873153686523438,1
1683545782.87966800,51064566,1,8.95263671875,94405.3671875,30.03,2.485198974609375,51064,0.0,27.873153686523438,1
1683545782.97962809,51164526,1,9.39154052734375,94400.6015625,30.03,2.499866247177124,51164,0.0,27.873153686523438,1
1683545783.07958817,51264486,1,9.34185791015625,94401.140625,30.03,2.5033187866210938,51264,0.0,27.873153686523438,1
1683545783.17954803,51364446,1,9.79180908203125,94396.2578125,30.03,2.5058746337890625,51364,0.0,27.873153686523438,1
1683545783.27950811,51464406,1,9.79180908203125,94396.2578125,30.04,2.5040817260742188,51464,0.0,27.873153686523438,1
1683545783.37946820,51564366,1,9.9932861328125,94394.0703125,30.04,2.4876785278320312,51564,0.0,27.873153686523438,1
1683545783.47942805,51664326,1,10.3631591796875,94390.078125,30.04,2.4765396118164062,51664,0.0,27.873153686523438,1
1683545783.57938814,51764286,1,10.619873046875,94387.2890625,30.04,2.491283655166626,51764,0.0,27.873153686523438,1
1683545783.67934799,51864246,1,11.1002197265625,94382.078125,30.05,2.5094220638275146,51864,0.0,27.873153686523438,1
1683545783.77930808,51964206,1,11.26580810546875,94380.28125,30.05,2.508544921875,51964,0.0,27.873153686523438,1
1683545783.87926817,52064166,1,11.40936279296875,94378.71875,30.05,2.5016212463378906,52064,0.0,27.873153686523438,1
1683545783.97922802,52164126,1,11.69921875,94375.578125,30.05,2.505054473876953,52164,0.0,27.873153686523438,1
1683545784.08002114,52264919,1,11.95318603515625,94372.8125,30.060000000000002,2.5205609798431396,52264,0.0,27.873153686523438,1
1683545784.17998099,52364879,1,11.997314453125,94372.3359375,30.060000000000002,2.5377655029296875,52364,0.0,27.873153686523438,1
1683545784.27994108,52464839,1,12.52734375,94366.5859375,30.060000000000002,2.5420379638671875,52464,0.0,27.873153686523438,1
1683545784.37990117,52564799,1,12.85577392578125,94363.015625,30.060000000000002,2.5325965881347656,52564,0.0,27.873153686523438,1
1683545784.47986102,52664759,1,12.825439453125,94363.34375,30.07,2.5188827514648438,52664,0.0,27.873153686523438,1
1683545784.57982111,52764719,1,13.24774169921875,94358.7578125,30.07,2.5068283081054688,52764,0.0,27.873153686523438,1
1683545784.67978120,52864679,1,13.5955810546875,94354.984375,30.07,2.4999043941497803,52864,0.0,27.873153686523438,1
1683545784.77974105,52964639,1,13.66461181640625,94354.234375,30.07,2.4990272521972656,52964,0.0,27.873153686523438,1
1683545784.87970114,53064599,1,13.98480224609375,94350.765625,30.07,2.5015830993652344,53064,0.0,27.873153686523438,1
1683545784.97966099,53164559,1,14.1807861328125,94348.6328125,30.080000000000002,2.5032424926757812,53164,0.0,27.873153686523438,1
1683545785.07962108,53264519,1,14.3077392578125,94347.2578125,30.080000000000002,2.5023460388183594,53264,0.0,27.873153686523438,1
1683545785.17958117,53364479,1,14.74114990234375,94342.578125,30.080000000000002,2.5041005611419678,53364,0.0,27.873153686523438,1
1683545785.27954102,53464439,1,14.87640380859375,94341.0859375,30.080000000000002,2.5127601623535156,53464,0.0,27.873153686523438,1
1683545785.37950110,53564399,1,15.25457763671875,94336.984375,30.080000000000002,2.522277593612671,53564,0.0,27.873153686523438,1
1683545785.47946119,53664359,1,15.28216552734375,94336.7109375,30.09,2.518005132675171,53664,0.0,27.873153686523438,1
1683545785.57942104,53764319,1,15.7762451171875,94331.3515625,30.09,2.4947357177734375,53764,0.0,27.873153686523438,1
1683545785.67938113,53864279,1,15.9197998046875,94329.7890625,30.09,2.4731826782226562,53864,0.0,27.873153686523438,1
1683545785.77934098,53964239,1,16.2537841796875,94326.1640625,30.09,2.474040985107422,53964,0.0,27.873153686523438,1
1683545785.87930107,54064199,1,16.5325927734375,94323.140625,30.09,2.4886322021484375,54064,0.0,27.873153686523438,1
1683545785.97926116,54164159,1,16.86663818359375,94319.515625,30.1,2.4997711181640625,54164,0.0,27.873153686523438,1
1683545786.07922101,54264119,1,16.8114013671875,94320.1171875,30.1,2.5032424926757812,54264,0.0,27.873153686523438,1
1683545786.18001413,54364912,1,17.346923828125,94314.3046875,30.1,2.5033187866210938,54364,0.0,27.873153686523438,1
1683545786.27997398,54464872,1,17.49322509765625,94312.71875,30.1,2.5076866149902344,54464,0.0,27.873153686523438,1
1683545786.37993407,54564832,1,17.537353515625,94312.2421875,30.11,2.516307830810547,54564,0.0,27.873153686523438,1
1683545786.47989416,54664792,1,18.10052490234375,94306.125,30.11,2.5188446044921875,54664,0.0,27.873153686523438,1
1683545786.57985401,54764752,1,18.086669921875,94306.28125,30.11,2.511920928955078,54764,0.0,27.873153686523438,1
1683545786.67981410,54864712,1,18.60565185546875,94300.6484375,30.11,2.5033187866210938,54864,0.0,27.873153686523438,1
1683545786.77977419,54964672,1,18.517333984375,94301.6015625,30.11,2.495574712753296,54964,0.0,27.873153686523438,1
1683545786.87973404,55064632,1,18.88720703125,94297.59375,30.12,2.4817655086517334,55064,0.0,27.873153686523438,1
1683545786.97969413,55164592,1,19.35369873046875,94292.53125,30.12,2.4679372310638428,55164,0.0,27.873153686523438,1
1683545787.07965422,55264552,1,19.46966552734375,94291.2734375,30.12,2.4730873107910156,55264,0.0,27.873153686523438,1
1683545787.17961407,55364512,1,19.86163330078125,94287.0234375,30.12,2.4954988956451416,55364,0.0,27.873153686523438,1
1683545787.27957416,55464472,1,20.041015625,94285.1015625,30.12,2.5153160095214844,55464,0.0,27.873153686523438,1
1683545787.37953401,55564432,1,20.02447509765625,94285.2578125,30.13,2.5204849243164062,55564,0.0,27.873153686523438,1
1683545787.47949409,55664392,1,20.35296630859375,94281.6953125,30.13,2.509326934814453,55664,0.0,27.873153686523438,1
1683545787.57945418,55764352,1,20.80291748046875,94276.84375,30.13,2.4904251098632812,55764,0.0,27.873153686523438,1
1683545787.67941403,55864312,1,20.7835693359375,94277.0234375,30.13,2.478351593017578,55864,0.0,27.873153686523438,1
1683545787.77937412,55964272,1,21.3604736328125,94270.7890625,30.13,2.480030059814453,55964,0.0,27.873153686523438,1
1683545787.87933421,56064232,1,21.247314453125,94272.0234375,30.13,2.490367889404297,56064,0.0,27.873153686523438,1
1683545787.97929406,56164192,1,21.76348876953125,94266.421875,30.13,2.499866485595703,56164,0.0,27.873153686523438,1
1683545788.07925415,56264152,1,21.96502685546875,94264.234375,30.14,2.5033187866210938,56264,0.0,27.873153686523438,1
1683545788.17921400,56364112,1,22.35699462890625,94259.984375,30.14,2.5016019344329834,56364,0.0,27.873153686523438,1
1683545788.28000712,56464905,1,22.282470703125,94260.796875,30.14,2.495574712753296,56464,0.0,27.873153686523438,1
1683545788.37996721,56564865,1,22.8814697265625,94254.296875,30.14,2.483501434326172,56564,0.0,27.873153686523438,1
1683545788.47992706,56664825,1,22.93115234375,94253.7578125,30.14,2.475738763809204,56664,0.0,27.873153686523438,1
1683545788.57988715,56764785,1,23.2734375,94250.046875,30.150000000000002,2.4860763549804688,56764,0.0,27.873153686523438,1
1683545788.67984700,56864745,1,23.24029541015625,94250.40625,30.150000000000002,2.50244140625,56864,0.0,27.873153686523438,1
1683545788.77980709,56964705,1,23.6708984375,94245.734375,30.150000000000002,2.507591485977173,56964,0.0,27.873153686523438,1
1683545788.87976718,57064665,1,24.07391357421875,94241.3671875,30.150000000000002,2.501506805419922,57064,0.0,27.873153686523438,1
1683545788.97972703,57164625,1,24.29473876953125,94238.96875,30.150000000000002,2.4851033687591553,57164,0.0,27.873153686523438,1
1683545789.07968712,57264585,1,24.43280029296875,94237.46875,30.150000000000002,2.469653844833374,57264,0.0,27.873153686523438,1
1683545789.17964721,57364545,1,24.63153076171875,94235.3203125,30.16,2.475738525390625,57364,0.0,27.873153686523438,1
1683545789.27960706,57464505,1,24.98486328125,94231.515625,30.16,2.494640350341797,57464,0.0,27.873153686523438,1
1683545789.37956715,57564465,1,25.00970458984375,94231.21875,30.16,2.500629425048828,57564,0.0,27.873153686523438,1
1683545789.47952700,57664425,1,25.498291015625,94225.9453125,30.16,2.4903488159179688,57664,0.0,27.873153686523438,1
1683545789.57948709,57764385,1,25.80743408203125,94222.59375,30.16,2.4791908264160156,57764,0.0,27.873153686523438,1
1683545789.67944717,57864345,1,25.88470458984375,94221.734375,30.16,2.4843406677246094,57864,0.0,27.873153686523438,1
1683545789.77940702,57964305,1,26.0338134765625,94220.140625,30.17,2.5033187866210938,57964,0.0,27.873153686523438,1
